%time,field.orientation.x,field.orientation.y,field.orientation.z,field.angular_velocity.x,field.angular_velocity.y,field.angular_velocity.z,field.linear_acceleration.x,field.linear_acceleration.y,field.linear_acceleration.z,field.data,field.twist.linear.x,field.twist.linear.y,field.twist.linear.z,field.twist.angular.x,field.twist.angular.y,field.twist.angular.z,field.alt_error,field.aspd_error,field.xtrack_error,delta_yaw,delta_pitch,delta_roll,delta_x,delta_y,delta_z,delta_roll_airspeed
2018-09-11 19:11:05.200,,,,,,,,,,0.0,,,,,,,-0.199999988079,-454.877471924,-37.6593017578,176.9914855957,-2.2078036069900002,40.40198183056,4.27230072021,21.5774326324,0.604939818382,15.0
2018-09-11 19:11:05.250,0.0159276822204,-0.0388077308583,-0.996085707281,0.917758345604,0.0294363256544,-0.0738326013088,-0.55897905,0.4511059,10.18910935,0.0,,,,,,,-0.199999988079,-454.877471924,-37.6593017578,176.9914855957,-2.2078036069900002,40.40198183056,4.27230072021,21.5774326324,0.604939818382,15.0
2018-09-11 19:11:05.300,0.0159276822204,-0.0388077308583,-0.996085707281,0.917758345604,0.0294363256544,-0.0738326013088,-0.55897905,0.4511059,10.18910935,0.0,,,,,,,-0.269999980927,-454.877471924,-35.4626502991,176.9914855957,-1.9278036356000001,40.40198183056,20.08517408371,21.497617721599998,0.596598088741002,15.0
2018-09-11 19:11:05.350,0.0159276822204,-0.0388077308583,-0.996085707281,0.917758345604,0.0294363256544,-0.0738326013088,-0.55897905,0.4511059,10.18910935,0.0,,,,,,,-0.269999980927,-454.877471924,-35.4626502991,176.9914855957,-1.8878036737500001,40.40198183056,19.98266386986,21.473783492999996,0.612871170044002,15.0
2018-09-11 19:11:05.400,0.0159276822204,-0.0388077308583,-0.996085707281,0.917758345604,0.0294363256544,-0.0738326013088,-0.55897905,0.4511059,10.18910935,0.0,-21.473783493,-3.98266386986,0.612871170044,0.917758345604,0.0294363256544,-0.0738326013088,-0.340000003576,-446.521362305,-37.0163993835,67.9914855957,-0.08780372143000004,40.40198183056,19.98266386986,21.473783492999996,0.612871170044002,15.0
2018-09-11 19:11:05.450,0.0159276822204,-0.0388077308583,-0.996085707281,0.917758345604,0.0294363256544,-0.0738326013088,-0.55897905,0.4511059,10.18910935,0.0,-21.473783493,-3.98266386986,0.612871170044,0.917758345604,0.0294363256544,-0.0738326013088,-0.340000003576,-446.521362305,-37.0163993835,67.9914855957,-0.05780375004000016,40.40198183056,19.74364757538,21.421188354499996,0.617330312729002,16.0
2018-09-11 19:11:05.500,0.0297258960275,-0.203602955977,-0.976524544083,0.900783777237,0.0314983651042,-0.0634310096502,-1.0983448,0.5099458,10.46369555,0.0,-21.473783493,-3.98266386986,0.612871170044,0.917758345604,0.0294363256544,-0.0738326013088,-0.419999986887,-346.521362305,-34.8777503967,68.8540802002,1.7496981993343,21.289085388199997,19.554971694949998,21.386169433599996,0.542300939560002,16.0
2018-09-11 19:11:05.550,0.0297258960275,-0.203602955977,-0.976524544083,0.900783777237,0.0314983651042,-0.0634310096502,-1.0983448,0.5099458,10.46369555,0.0,-21.473783493,-3.98266386986,0.612871170044,0.917758345604,0.0294363256544,-0.0738326013088,-0.419999986887,-346.521362305,-34.8777503967,68.8540802002,1.7496981993343,21.289085388199997,19.49270558357,21.374937057499995,0.503413319588002,16.0
2018-09-11 19:11:05.600,0.0297258960275,-0.203602955977,-0.976524544083,0.900783777237,0.0314983651042,-0.0634310096502,-1.0983448,0.5099458,10.46369555,0.0,-21.3380966187,-3.2816259861,0.411880195141,0.900783777237,0.0314983651042,-0.0634310096502,-0.489999979734,-325.477966309,-32.7391014099,70.8540802002,3.24969816208,21.299087524399997,19.2816259861,21.338096618699996,0.41188019514100194,16.0
2018-09-11 19:11:05.650,0.0297258960275,-0.203602955977,-0.976524544083,0.900783777237,0.0314983651042,-0.0634310096502,-1.0983448,0.5099458,10.46369555,0.0,-21.3380966187,-3.2816259861,0.411880195141,0.900783777237,0.0314983651042,-0.0634310096502,-0.489999979734,-325.477966309,-32.7391014099,70.8540802002,3.24969816208,21.299087524399997,19.06052923203,21.308977127099997,0.31329467892600193,16.0
2018-09-11 19:11:05.700,0.0297258960275,-0.203602955977,-0.976524544083,0.900783777237,0.0314983651042,-0.0634310096502,-1.0983448,0.5099458,10.46369555,0.0,-21.3380966187,-3.2816259861,0.411880195141,0.900783777237,0.0314983651042,-0.0634310096502,-0.569999992847,-325.477966309,-30.6089038849,71.8540802002,4.7396980524100005,21.299087524399997,18.80668568611,21.277297973599996,0.24618625640900196,16.0
2018-09-11 19:11:05.750,0.0297258960275,-0.203602955977,-0.976524544083,0.900783777237,0.0314983651042,-0.0634310096502,-1.0983448,0.5099458,10.46369555,0.0,-21.3380966187,-3.2816259861,0.411880195141,0.900783777237,0.0314983651042,-0.0634310096502,-0.569999992847,-325.477966309,-30.6089038849,71.8540802002,4.7396980524100005,21.299087524399997,18.71332240105,21.266181945799996,0.22596900165100198,16.0
2018-09-11 19:11:05.800,0.024485525433,-0.284451030919,-0.957520293231,0.374801874161,-0.171544104815,-0.185962826014,-0.8825985,0.8825985,9.95374975,0.0,-21.3380966187,-3.2816259861,0.411880195141,0.900783777237,0.0314983651042,-0.0634310096502,-0.629999995232,-300.82208252,-28.4956111908,71.2544555664,5.7055578231799995,11.8370742798,18.2031083107,21.226066589399995,0.18057601153900196,16.0
2018-09-11 19:11:05.850,0.024485525433,-0.284451030919,-0.957520293231,0.374801874161,-0.171544104815,-0.185962826014,-0.8825985,0.8825985,9.95374975,0.0,-21.2260665894,-2.2031083107,0.180576011539,0.374801874161,-0.171544104815,-0.185962826014,-0.629999995232,-300.82208252,-28.4956111908,71.2544555664,5.7055578231799995,11.8370742798,18.2031083107,21.226066589399995,0.18057601153900196,16.0
2018-09-11 19:11:05.900,0.024485525433,-0.284451030919,-0.957520293231,0.374801874161,-0.171544104815,-0.185962826014,-0.8825985,0.8825985,9.95374975,0.0,-21.2260665894,-2.2031083107,0.180576011539,0.374801874161,-0.171544104815,-0.185962826014,-0.680000007153,-300.82208252,-26.3738689423,73.2544555664,7.10555791855,10.847076416,17.86640310287,21.203252792399997,0.17851179838200196,16.0
2018-09-11 19:11:05.950,0.024485525433,-0.284451030919,-0.957520293231,0.374801874161,-0.171544104815,-0.185962826014,-0.8825985,0.8825985,9.95374975,0.0,-21.2260665894,-2.2031083107,0.180576011539,0.374801874161,-0.171544104815,-0.185962826014,-0.680000007153,-300.82208252,-26.3738689423,73.2544555664,7.11555814743,11.507076263400002,17.41138005257,21.173801422099995,0.12654609978200196,16.0
2018-09-11 19:11:06.000,0.024485525433,-0.284451030919,-0.957520293231,0.374801874161,-0.171544104815,-0.185962826014,-0.8825985,0.8825985,9.95374975,0.0,-21.2260665894,-2.2031083107,0.180576011539,0.374801874161,-0.171544104815,-0.185962826014,-0.740000009537,-277.777679443,-24.2690315247,75.2544555664,8.58555793762,11.507076263400002,17.28980541229,21.166561126699996,0.12184998393100195,16.0
2018-09-11 19:11:06.050,0.024485525433,-0.284451030919,-0.957520293231,0.374801874161,-0.171544104815,-0.185962826014,-0.8825985,0.8825985,9.95374975,0.0,-21.1451587677,-0.730648338795,0.206204161048,0.374801874161,-0.171544104815,-0.185962826014,-0.740000009537,-277.777679443,-24.2690315247,75.2544555664,8.58555793762,11.507076263400002,16.878133356571,21.150617599499995,0.17566093802500196,16.0
2018-09-11 19:11:06.100,0.024485525433,-0.284451030919,-0.957520293231,0.374801874161,-0.171544104815,-0.185962826014,-0.8825985,0.8825985,9.95374975,0.0,-21.1451587677,-0.730648338795,0.206204161048,0.374801874161,-0.171544104815,-0.185962826014,-0.740000009537,-277.777679443,-24.2690315247,75.2544555664,8.5955581665,11.507076263400002,16.592271625996,21.141376495399996,0.22366803884500197,16.0
2018-09-11 19:11:06.150,0.024485525433,-0.284451030919,-0.957520293231,0.374801874161,-0.171544104815,-0.185962826014,-0.8825985,0.8825985,9.95374975,0.0,-21.1451587677,-0.730648338795,0.206204161048,0.374801874161,-0.171544104815,-0.185962826014,-0.789999961853,-277.777679443,-22.1557407379,77.2544555664,9.97555780411,11.507076263400002,16.0530678704381,21.118272781399998,0.22333738207800197,16.0
2018-09-11 19:11:06.200,-5.9049789019e-05,-0.319346443046,-0.947526697323,0.0738962218165,-0.256363451481,-0.218438372016,-0.0784532,0.69627215,12.20927925,0.0,-21.1451587677,-0.730648338795,0.206204161048,0.374801874161,-0.171544104815,-0.185962826014,-0.849999964237,-251.444244385,-20.0931682587,71.4203643799,9.14516478777,7.416355133000003,15.9182164445519,21.110654830899996,0.21810196340100196,16.0
2018-09-11 19:11:06.250,-5.9049789019e-05,-0.319346443046,-0.947526697323,0.0738962218165,-0.256363451481,-0.218438372016,-0.0784532,0.69627215,12.20927925,0.0,-21.1451587677,-0.730648338795,0.206204161048,0.374801874161,-0.171544104815,-0.185962826014,-0.849999964237,-251.444244385,-20.0931682587,71.4203643799,10.64516478781,7.416355133000003,15.332010924816,21.068243026699996,0.2719354927540019,16.0
2018-09-11 19:11:06.300,-5.9049789019e-05,-0.319346443046,-0.947526697323,0.0738962218165,-0.256363451481,-0.218438372016,-0.0784532,0.69627215,12.20927925,0.0,-21.0535850525,0.843978822231,0.31915345788,0.0738962218165,-0.256363451481,-0.218438372016,-0.899999976158,-251.444244385,-17.9883308411,73.4203643799,12.12516433001,7.5263557434000035,14.96774125099,21.030818939199996,0.3865626752380019,16.0
2018-09-11 19:11:06.350,-5.9049789019e-05,-0.319346443046,-0.947526697323,0.0738962218165,-0.256363451481,-0.218438372016,-0.0784532,0.69627215,12.20927925,0.0,-21.0535850525,0.843978822231,0.31915345788,0.0738962218165,-0.256363451481,-0.218438372016,-0.899999976158,-251.444244385,-17.9883308411,73.4203643799,12.14516478781,7.516353607100001,14.39942145348,20.973577499399997,0.577686250210002,16.0
2018-09-11 19:11:06.400,-5.9049789019e-05,-0.319346443046,-0.947526697323,0.0738962218165,-0.256363451481,-0.218438372016,-0.0784532,0.69627215,12.20927925,0.0,-21.0535850525,0.843978822231,0.31915345788,0.0738962218165,-0.256363451481,-0.218438372016,-0.989999949932,-242.988769531,-15.9173059464,75.4203643799,13.455164253709999,7.496353149400001,13.84544062614,20.906532287599997,0.770747005939002,16.0
2018-09-11 19:11:06.450,-5.9049789019e-05,-0.319346443046,-0.947526697323,0.0738962218165,-0.256363451481,-0.218438372016,-0.0784532,0.69627215,12.20927925,0.0,-21.0535850525,0.843978822231,0.31915345788,0.0738962218165,-0.256363451481,-0.218438372016,-0.989999949932,-242.988769531,-15.9173059464,75.4203643799,13.455164253709999,7.496353149400001,13.84544062614,20.906532287599997,0.770747005939002,16.0
2018-09-11 19:11:06.500,-5.9049789019e-05,-0.319346443046,-0.947526697323,0.0738962218165,-0.256363451481,-0.218438372016,-0.0784532,0.69627215,12.20927925,0.0,-21.0535850525,0.843978822231,0.31915345788,0.0738962218165,-0.256363451481,-0.218438372016,-0.989999949932,-242.988769531,-15.9173059464,75.4203643799,13.46516448261,7.4863548278,13.324028491970001,20.826538085899998,0.925974547863002,16.0
2018-09-11 19:11:06.550,-0.048732086025,-0.344221646799,-0.935538727011,0.116720892489,-0.262916684151,-0.15443430841,0.5099458,2.12804305,13.9450563,0.0,-20.7699394226,2.96392202377,0.984803020954,0.0738962218165,-0.256363451481,-0.218438372016,-1.09000003338,-242.988769531,-13.8716402054,77.4203643799,14.825164139309999,7.476352691599999,13.03607797623,20.769939422599997,0.984803020954002,16.0
2018-09-11 19:11:06.600,-0.048732086025,-0.344221646799,-0.935538727011,0.116720892489,-0.262916684151,-0.15443430841,0.5099458,2.12804305,13.9450563,0.0,-20.7699394226,2.96392202377,0.984803020954,0.0738962218165,-0.256363451481,-0.218438372016,-1.09000003338,-242.988769531,-13.8716402054,77.4203643799,14.825164139309999,7.476352691599999,13.03607797623,20.769939422599997,0.984803020954002,16.0
2018-09-11 19:11:06.650,-0.048732086025,-0.344221646799,-0.935538727011,0.116720892489,-0.262916684151,-0.15443430841,0.5099458,2.12804305,13.9450563,0.0,-20.7699394226,2.96392202377,0.984803020954,0.0738962218165,-0.256363451481,-0.218438372016,-1.22000002861,-197.23777771,-11.8090686798,72.3364639282,12.91918992996,4.089710235599995,12.1785030365,20.570844650299996,1.173599123950002,16.0
2018-09-11 19:11:06.700,-0.048732086025,-0.344221646799,-0.935538727011,0.116720892489,-0.262916684151,-0.15443430841,0.5099458,2.12804305,13.9450563,0.0,-20.7699394226,2.96392202377,0.984803020954,0.0738962218165,-0.256363451481,-0.218438372016,-1.35000002384,-197.23777771,-9.78876304626,73.3364639282,13.72919034956,4.089710235599995,11.798344612120001,20.487211227399996,1.174346089360002,16.0
2018-09-11 19:11:06.750,-0.048732086025,-0.344221646799,-0.935538727011,0.116720892489,-0.262916684151,-0.15443430841,0.5099458,2.12804305,13.9450563,0.0,-20.3542938232,4.65030431747,1.26027941704,0.116720892489,-0.262916684151,-0.15443430841,-1.35000002384,-197.23777771,-9.78876304626,73.3364639282,13.72919034956,4.079708099400001,11.511346340180001,20.397747039799995,1.221704244610002,16.0
2018-09-11 19:11:06.800,-0.048732086025,-0.344221646799,-0.935538727011,0.116720892489,-0.262916684151,-0.15443430841,0.5099458,2.12804305,13.9450563,0.0,-20.3542938232,4.65030431747,1.26027941704,0.116720892489,-0.262916684151,-0.15443430841,-1.35000002384,-197.23777771,-9.78876304626,73.3364639282,13.719190120660002,4.079708099400001,11.04662179947,20.262832641599996,1.322512507440002,16.0
2018-09-11 19:11:06.850,-0.048732086025,-0.344221646799,-0.935538727011,0.116720892489,-0.262916684151,-0.15443430841,0.5099458,2.12804305,13.9450563,0.0,-20.3542938232,4.65030431747,1.26027941704,0.116720892489,-0.262916684151,-0.15443430841,-1.49000000954,-190.091888428,-7.76845693588,75.3364639282,13.27918958666,4.069709777899995,10.7411403656,20.157369613599997,1.372631669040002,16.0
2018-09-11 19:11:06.900,-0.048732086025,-0.344221646799,-0.935538727011,0.116720892489,-0.262916684151,-0.15443430841,0.5099458,2.12804305,13.9450563,0.0,-20.3542938232,4.65030431747,1.26027941704,0.116720892489,-0.262916684151,-0.15443430841,-1.49000000954,-190.091888428,-7.76845693588,75.3364639282,13.30919027326,4.059707641599999,10.42287063599,20.037015914899996,1.429312348370002,16.0
2018-09-11 19:11:06.950,-0.048732086025,-0.344221646799,-0.935538727011,0.116720892489,-0.262916684151,-0.15443430841,0.5099458,2.12804305,13.9450563,0.0,-20.3542938232,4.65030431747,1.26027941704,0.116720892489,-0.262916684151,-0.15443430841,-1.62000000477,-190.091888428,-5.80732297897,77.3364639282,12.889190196960001,4.039707183899999,9.75853824615,19.760536193799997,1.530455827710002,16.0
2018-09-11 19:11:07.000,-0.048732086025,-0.344221646799,-0.935538727011,0.116720892489,-0.262916684151,-0.15443430841,0.5099458,2.12804305,13.9450563,0.0,-20.3542938232,4.65030431747,1.26027941704,0.116720892489,-0.262916684151,-0.15443430841,-1.62000000477,-190.091888428,-5.80732297897,77.3364639282,12.889190196960001,4.029708862299998,9.75853824615,19.760536193799997,1.530455827710002,16.0
2018-09-11 19:11:07.050,-0.112294306326,-0.368936375572,-0.905821109866,0.275217622519,-0.3511929214,-0.304215073586,0.9022118,1.12776475,13.46453045,0.0,-19.5420513153,6.72430515289,1.56758391857,0.116720892489,-0.262916684151,-0.15443430841,-1.75999999046,-181.856155396,-3.87154865265,78.3364639282,12.41918992996,4.029708862299998,9.27569484711,19.542051315299997,1.567583918570002,16.0
2018-09-11 19:11:07.100,-0.112294306326,-0.368936375572,-0.905821109866,0.275217622519,-0.3511929214,-0.304215073586,0.9022118,1.12776475,13.46453045,0.0,-19.5420513153,6.72430515289,1.56758391857,0.116720892489,-0.262916684151,-0.15443430841,-1.75999999046,-181.856155396,-3.87154865265,78.3364639282,12.41918992996,4.029708862299998,9.27569484711,19.542051315299997,1.567583918570002,16.0
2018-09-11 19:11:07.150,-0.112294306326,-0.368936375572,-0.905821109866,0.275217622519,-0.3511929214,-0.304215073586,0.9022118,1.12776475,13.46453045,0.0,-19.5420513153,6.72430515289,1.56758391857,0.116720892489,-0.262916684151,-0.15443430841,-1.88999998569,-181.856155396,-1.96958696842,65.3144302368,10.525281906139998,-0.6021041870000019,8.491606712340001,19.146625518799997,1.613637804990002,16.0
2018-09-11 19:11:07.200,-0.112294306326,-0.368936375572,-0.905821109866,0.275217622519,-0.3511929214,-0.304215073586,0.9022118,1.12776475,13.46453045,0.0,-19.5420513153,6.72430515289,1.56758391857,0.116720892489,-0.262916684151,-0.15443430841,-2.03999996185,-171.180908203,-0.135250613093,66.3144302368,9.91528224944,-0.6521072387999993,7.486317634580001,18.565685272199996,1.881775140760002,16.0
2018-09-11 19:11:07.250,-0.112294306326,-0.368936375572,-0.905821109866,0.275217622519,-0.3511929214,-0.304215073586,0.9022118,1.12776475,13.46453045,0.0,-18.3032417297,8.91669940948,1.99336874485,0.275217622519,-0.3511929214,-0.304215073586,-2.03999996185,-171.180908203,-0.135250613093,66.3144302368,9.91528224944,-0.6521072387999993,7.486317634580001,18.565685272199996,1.881775140760002,16.0
2018-09-11 19:11:07.300,-0.112294306326,-0.368936375572,-0.905821109866,0.275217622519,-0.3511929214,-0.304215073586,0.9022118,1.12776475,13.46453045,0.0,-18.3032417297,8.91669940948,1.99336874485,0.275217622519,-0.3511929214,-0.304215073586,-2.20000004768,-171.180908203,1.66527307034,67.3144302368,9.16528224944,-0.732105255200004,6.51319313049,17.918943405199997,2.136761426930002,16.0
2018-09-11 19:11:07.350,-0.112294306326,-0.368936375572,-0.905821109866,0.275217622519,-0.3511929214,-0.304215073586,0.9022118,1.12776475,13.46453045,0.0,-18.3032417297,8.91669940948,1.99336874485,0.275217622519,-0.3511929214,-0.304215073586,-2.20000004768,-171.180908203,1.66527307034,67.3144302368,9.16528224944,-0.732105255200004,6.51319313049,17.918943405199997,2.136761426930002,16.0
2018-09-11 19:11:07.400,-0.112294306326,-0.368936375572,-0.905821109866,0.275217622519,-0.3511929214,-0.304215073586,0.9022118,1.12776475,13.46453045,0.0,-18.3032417297,8.91669940948,1.99336874485,0.275217622519,-0.3511929214,-0.304215073586,-2.39999985695,-156.407348633,3.3728120327,68.3144302368,8.375282287640001,-0.8221054078000023,5.8129081726,17.376461029099996,2.330581903460002,16.0
2018-09-11 19:11:07.450,-0.172940001951,-0.345935617304,-0.887404016552,-0.424947112799,-0.491739779711,-0.168511465192,1.18660465,1.2160246,17.2008641,0.0,-18.3032417297,8.91669940948,1.99336874485,0.275217622519,-0.3511929214,-0.304215073586,-2.39999985695,-156.407348633,3.3728120327,68.3144302368,8.36528205874,-0.8521041870000019,5.6244239807,17.220331191999996,2.402614593510002,16.0
2018-09-11 19:11:07.500,-0.172940001951,-0.345935617304,-0.887404016552,-0.424947112799,-0.491739779711,-0.168511465192,1.18660465,1.2160246,17.2008641,0.0,-18.3032417297,8.91669940948,1.99336874485,0.275217622519,-0.3511929214,-0.304215073586,-2.62999987602,-156.407348633,5.02117872238,59.2507896423,3.9757733344499995,-0.7658576966000012,4.7603912354,16.441398620599998,2.7179691791500016,16.0
2018-09-11 19:11:07.550,-0.172940001951,-0.345935617304,-0.887404016552,-0.424947112799,-0.491739779711,-0.168511465192,1.18660465,1.2160246,17.2008641,0.0,-16.4413986206,11.2396087646,2.71796917915,-0.424947112799,-0.491739779711,-0.168511465192,-2.62999987602,-156.407348633,5.02117872238,59.2507896423,3.9757733344499995,-0.7658576966000012,4.7603912354,16.441398620599998,2.7179691791500016,16.0
2018-09-11 19:11:07.600,-0.172940001951,-0.345935617304,-0.887404016552,-0.424947112799,-0.491739779711,-0.168511465192,1.18660465,1.2160246,17.2008641,0.0,-16.4413986206,11.2396087646,2.71796917915,-0.424947112799,-0.491739779711,-0.168511465192,-2.62999987602,-156.407348633,5.02117872238,59.2507896423,3.9757733344499995,-0.7658576966000012,4.7603912354,16.441398620599998,2.7179691791500016,16.0
2018-09-11 19:11:07.650,-0.172940001951,-0.345935617304,-0.887404016552,-0.424947112799,-0.491739779711,-0.168511465192,1.18660465,1.2160246,17.2008641,0.0,-16.4413986206,11.2396087646,2.71796917915,-0.424947112799,-0.491739779711,-0.168511465192,-2.62999987602,-156.407348633,5.02117872238,59.2507896423,3.9757733344499995,-0.7658576966000012,4.7603912354,16.441398620599998,2.7179691791500016,16.0
2018-09-11 19:11:07.700,-0.172940001951,-0.345935617304,-0.887404016552,-0.424947112799,-0.491739779711,-0.168511465192,1.18660465,1.2160246,17.2008641,0.0,-16.4413986206,11.2396087646,2.71796917915,-0.424947112799,-0.491739779711,-0.168511465192,-2.89999985695,-120.77331543,6.56810760498,60.2507896423,2.9657740592499993,-1.0158576966000012,3.6962556839000005,15.287232398999997,3.0794436931600018,16.0
2018-09-11 19:11:07.750,-0.172940001951,-0.345935617304,-0.887404016552,-0.424947112799,-0.491739779711,-0.168511465192,1.18660465,1.2160246,17.2008641,0.0,-16.4413986206,11.2396087646,2.71796917915,-0.424947112799,-0.491739779711,-0.168511465192,-3.17999982834,-120.77331543,8.05586051941,62.2507896423,1.9957737922600005,-1.0758590698999981,3.315362930299999,14.730853080699996,3.1601958274800017,16.0
2018-09-11 19:11:07.800,-0.172940001951,-0.345935617304,-0.887404016552,-0.424947112799,-0.491739779711,-0.168511465192,1.18660465,1.2160246,17.2008641,0.0,-14.7308530807,12.6846370697,3.16019582748,-0.424947112799,-0.491739779711,-0.168511465192,-3.17999982834,-120.77331543,8.05586051941,62.2507896423,1.9957737922600005,-1.0758590698999981,3.216652870200001,14.606322288499996,3.166417360310002,16.0
2018-09-11 19:11:07.850,-0.217522677871,-0.309678831289,-0.871557091615,-0.12074765563,-0.195877581835,-0.285650193691,0.89240515,1.52003075,11.9052731,0.0,-14.7308530807,12.6846370697,3.16019582748,-0.424947112799,-0.491739779711,-0.168511465192,-3.5,-113.967514038,9.4421787262,63.2507896423,1.02577352523,-1.0558586120999962,2.9702014922999993,14.212337493899996,3.1723897457100017,16.0
2018-09-11 19:11:07.900,-0.217522677871,-0.309678831289,-0.871557091615,-0.12074765563,-0.195877581835,-0.285650193691,0.89240515,1.52003075,11.9052731,0.0,-14.7308530807,12.6846370697,3.16019582748,-0.424947112799,-0.491739779711,-0.168511465192,-3.5,-113.967514038,9.4421787262,54.358089447,-2.0352087021200003,0.5231590271000002,2.8133754730000007,13.966826438899997,3.155080556870002,16.0
2018-09-11 19:11:07.950,-0.217522677871,-0.309678831289,-0.871557091615,-0.12074765563,-0.195877581835,-0.285650193691,0.89240515,1.52003075,11.9052731,0.0,-14.7308530807,12.6846370697,3.16019582748,-0.424947112799,-0.491739779711,-0.168511465192,-3.80999994278,-113.967514038,10.7946777344,55.358089447,-2.93520832065,0.5531578064000016,2.6065254211000006,13.590338706999997,3.1264097690600017,16.0
2018-09-11 19:11:08.000,-0.217522677871,-0.309678831289,-0.871557091615,-0.12074765563,-0.195877581835,-0.285650193691,0.89240515,1.52003075,11.9052731,0.0,-13.3370075226,13.5221652985,3.11674833298,-0.12074765563,-0.195877581835,-0.285650193691,-3.80999994278,-113.967514038,10.7946777344,55.358089447,-2.93520832065,0.583156585700003,2.477834701500001,13.337007522599997,3.1167483329800016,16.0
2018-09-11 19:11:08.050,-0.217522677871,-0.309678831289,-0.871557091615,-0.12074765563,-0.195877581835,-0.285650193691,0.89240515,1.52003075,11.9052731,0.0,-13.3370075226,13.5221652985,3.11674833298,-0.12074765563,-0.195877581835,-0.285650193691,-4.11999988556,-89.647102356,12.0626506805,57.358089447,-3.8352084160100004,0.6331558228000063,2.284511566200001,12.967829704299996,3.089607238770002,16.0
2018-09-11 19:11:08.100,-0.217522677871,-0.309678831289,-0.871557091615,-0.12074765563,-0.195877581835,-0.285650193691,0.89240515,1.52003075,11.9052731,0.0,-13.3370075226,13.5221652985,3.11674833298,-0.12074765563,-0.195877581835,-0.285650193691,-4.11999988556,-89.647102356,12.0626506805,57.358089447,-3.8352084160100004,0.6631584168000018,2.1621303558000005,12.713669776899996,3.072648763660002,16.0
2018-09-11 19:11:08.150,-0.217522677871,-0.309678831289,-0.871557091615,-0.12074765563,-0.195877581835,-0.285650193691,0.89240515,1.52003075,11.9052731,0.0,-13.3370075226,13.5221652985,3.11674833298,-0.12074765563,-0.195877581835,-0.285650193691,-4.42000007629,-89.647102356,13.2883558273,58.358089447,-4.715208530460001,0.7431564331000047,1.9408302306999996,12.198275566099996,3.023925304410002,16.0
2018-09-11 19:11:08.200,-0.226683429485,-0.300366589095,-0.844180872148,0.0281187146902,-0.197060450912,-0.387039899826,0.61781895,1.3140911,11.71894675,0.0,-13.3370075226,13.5221652985,3.11674833298,-0.12074765563,-0.195877581835,-0.285650193691,-4.71999979019,-108.275604248,14.4295310974,59.358089447,-4.715208530460001,0.7531585694,1.8881921768000005,12.064865112299996,3.0218513011900017,16.0
2018-09-11 19:11:08.250,-0.226683429485,-0.300366589095,-0.844180872148,0.0281187146902,-0.197060450912,-0.387039899826,0.61781895,1.3140911,11.71894675,0.0,-11.5473632812,14.3354921341,2.94678544998,0.0281187146902,-0.197060450912,-0.387039899826,-4.71999979019,-108.275604248,14.4295310974,50.8049888611,-3.6827321052499995,0.7297973631999994,1.7191352844,11.666951179499996,2.973958730700002,16.0
2018-09-11 19:11:08.300,-0.226683429485,-0.300366589095,-0.844180872148,0.0281187146902,-0.197060450912,-0.387039899826,0.61781895,1.3140911,11.71894675,0.0,-11.5473632812,14.3354921341,2.94678544998,0.0281187146902,-0.197060450912,-0.387039899826,-4.71999979019,-108.275604248,14.4295310974,50.8049888611,-3.6827321052499995,0.7497978210000014,1.6098337173000008,11.417886733999996,2.922394037250002,16.0
2018-09-11 19:11:08.350,-0.226683429485,-0.300366589095,-0.844180872148,0.0281187146902,-0.197060450912,-0.387039899826,0.61781895,1.3140911,11.71894675,0.0,-11.5473632812,14.3354921341,2.94678544998,0.0281187146902,-0.197060450912,-0.387039899826,-5.01999998093,-108.275604248,15.5453462601,52.8049888611,-4.50273227692,0.8097953796000041,1.3631658554000001,10.716665267899996,2.841418743130002,16.0
2018-09-11 19:11:08.400,-0.226683429485,-0.300366589095,-0.844180872148,0.0281187146902,-0.197060450912,-0.387039899826,0.61781895,1.3140911,11.71894675,0.0,-11.5473632812,14.3354921341,2.94678544998,0.0281187146902,-0.197060450912,-0.387039899826,-5.30999994278,-85.6245040894,16.5597171783,53.8049888611,-5.34273195267,0.8097953796000041,1.2673368453999991,10.449843406699996,2.785045862200002,16.0
2018-09-11 19:11:08.450,-0.226683429485,-0.300366589095,-0.844180872148,0.0281187146902,-0.197060450912,-0.387039899826,0.61781895,1.3140911,11.71894675,0.0,-11.5473632812,14.3354921341,2.94678544998,0.0281187146902,-0.197060450912,-0.387039899826,-5.30999994278,-85.6245040894,16.5597171783,53.8049888611,-5.34273195267,0.8097953796000041,1.2673368453999991,10.449843406699996,2.785045862200002,16.0
2018-09-11 19:11:08.500,-0.241756526563,-0.299424305747,-0.81182675451,0.00092077604495,-0.229396745563,-0.327281266451,0.38245935,0.9414384,11.03248125,0.0,-10.035993576,14.8771572113,2.70578861237,0.0281187146902,-0.197060450912,-0.387039899826,-5.58999967575,-85.6245040894,17.5487365723,47.110094070399995,-4.733921051019999,-0.4230079649999965,1.1228427886999999,10.035993575999996,2.705788612370002,16.0
2018-09-11 19:11:08.550,-0.241756526563,-0.299424305747,-0.81182675451,0.00092077604495,-0.229396745563,-0.327281266451,0.38245935,0.9414384,11.03248125,0.0,-10.035993576,14.8771572113,2.70578861237,0.0281187146902,-0.197060450912,-0.387039899826,-5.58999967575,-85.6245040894,17.5487365723,47.110094070399995,-4.733921051019999,-0.4230079649999965,1.0086507797,9.603344917299996,2.651025772090002,16.0
2018-09-11 19:11:08.600,-0.241756526563,-0.299424305747,-0.81182675451,0.00092077604495,-0.229396745563,-0.327281266451,0.38245935,0.9414384,11.03248125,0.0,-10.035993576,14.8771572113,2.70578861237,0.0281187146902,-0.197060450912,-0.387039899826,-5.86999988556,-62.1549606323,18.4363174438,48.110094070399995,-5.50392115116,-0.3930091857999969,0.8472166060999999,8.996299743649997,2.612470149990002,16.0
2018-09-11 19:11:08.650,-0.241756526563,-0.299424305747,-0.81182675451,0.00092077604495,-0.229396745563,-0.327281266451,0.38245935,0.9414384,11.03248125,0.0,-10.035993576,14.8771572113,2.70578861237,0.0281187146902,-0.197060450912,-0.387039899826,-5.86999988556,-62.1549606323,18.4363174438,48.110094070399995,-5.493921160699999,-0.35300827020000014,0.8472166060999999,8.996299743649997,2.612470149990002,16.0
2018-09-11 19:11:08.700,-0.241756526563,-0.299424305747,-0.81182675451,0.00092077604495,-0.229396745563,-0.327281266451,0.38245935,0.9414384,11.03248125,0.0,-10.035993576,14.8771572113,2.70578861237,0.0281187146902,-0.197060450912,-0.387039899826,-5.86999988556,-62.1549606323,18.4363174438,48.110094070399995,-5.493921160699999,-0.35300827020000014,0.7267265320000007,8.558186531069996,2.552534580230002,16.0
2018-09-11 19:11:08.750,-0.241756526563,-0.299424305747,-0.81182675451,0.00092077604495,-0.229396745563,-0.327281266451,0.38245935,0.9414384,11.03248125,0.0,-7.97555923462,15.4030714035,2.42815566063,0.00092077604495,-0.229396745563,-0.327281266451,-6.13999986649,-62.1549606323,19.2647171021,49.110094070399995,-6.25392115116,-0.32300949089999875,0.6311550140000008,8.116415977479997,2.465716838840002,16.0
2018-09-11 19:11:08.800,-0.241756526563,-0.299424305747,-0.81182675451,0.00092077604495,-0.229396745563,-0.327281266451,0.38245935,0.9414384,11.03248125,0.0,-7.97555923462,15.4030714035,2.42815566063,0.00092077604495,-0.229396745563,-0.327281266451,-6.13999986649,-62.1549606323,19.2647171021,49.110094070399995,-6.243921160699999,-0.3030090331999986,0.5675497054999994,7.839402675629996,2.389524459840002,16.0
2018-09-11 19:11:08.850,-0.241756526563,-0.299424305747,-0.81182675451,0.00092077604495,-0.229396745563,-0.327281266451,0.38245935,0.9414384,11.03248125,0.0,-7.97555923462,15.4030714035,2.42815566063,0.00092077604495,-0.229396745563,-0.327281266451,-6.39999961853,-48.2307434082,20.0170478821,50.110094070399995,-6.923921108243,-0.2730102538999972,0.45607185359999924,7.297386646269996,2.2268636226700016,16.0
2018-09-11 19:11:08.900,-0.259092686041,-0.304571903766,-0.773317154756,0.151474922895,-0.193663582206,-0.286634832621,0.1372931,1.0002783,10.4735022,0.0,-7.97555923462,15.4030714035,2.42815566063,0.00092077604495,-0.229396745563,-0.327281266451,-6.39999961853,-48.2307434082,20.0170478821,42.5524158478,-5.26723742485,-2.345706939700001,0.42465972900000004,7.156001567839996,2.188605785370002,16.0
2018-09-11 19:11:08.950,-0.259092686041,-0.304571903766,-0.773317154756,0.151474922895,-0.193663582206,-0.286634832621,0.1372931,1.0002783,10.4735022,0.0,-7.97555923462,15.4030714035,2.42815566063,0.00092077604495,-0.229396745563,-0.327281266451,-6.65999984741,-48.2307434082,20.7186489105,43.5524158478,-5.867237396538,-2.3157081604,0.3739204406999992,6.867616653439996,2.111742973330002,16.0
2018-09-11 19:11:09.000,-0.259092686041,-0.304571903766,-0.773317154756,0.151474922895,-0.193663582206,-0.286634832621,0.1372931,1.0002783,10.4735022,0.0,-6.43361759186,15.697057724,2.01416444778,0.151474922895,-0.193663582206,-0.286634832621,-6.88999986649,-50.8878707886,21.3357276917,44.5524158478,-6.457237362861,-2.3057098389000004,0.25414752960000087,6.150036811829996,1.939998388290002,16.0
2018-09-11 19:11:09.050,-0.259092686041,-0.304571903766,-0.773317154756,0.151474922895,-0.193663582206,-0.286634832621,0.1372931,1.0002783,10.4735022,0.0,-6.43361759186,15.697057724,2.01416444778,0.151474922895,-0.193663582206,-0.286634832621,-6.88999986649,-50.8878707886,21.3357276917,44.5524158478,-6.457237362861,-2.3057098389000004,0.25414752960000087,6.150036811829996,1.939998388290002,16.0
2018-09-11 19:11:09.100,-0.259092686041,-0.304571903766,-0.773317154756,0.151474922895,-0.193663582206,-0.286634832621,0.1372931,1.0002783,10.4735022,0.0,-6.43361759186,15.697057724,2.01416444778,0.151474922895,-0.193663582206,-0.286634832621,-6.88999986649,-50.8878707886,21.3357276917,44.5524158478,-6.437237381935,-2.275707244900005,0.17048072809999937,5.634866714479997,1.7358986139300019,16.0
2018-09-11 19:11:09.150,-0.259092686041,-0.304571903766,-0.773317154756,0.151474922895,-0.193663582206,-0.286634832621,0.1372931,1.0002783,10.4735022,0.0,-6.43361759186,15.697057724,2.01416444778,0.151474922895,-0.193663582206,-0.286634832621,-7.10999965668,-50.8878707886,21.9105262756,45.5524158478,-6.9472373724,-2.255706787100003,0.15628528589999924,5.512625694269996,1.679414033890002,16.0
2018-09-11 19:11:09.200,-0.277478456099,-0.314337453858,-0.732774729348,0.0255481433123,-0.21625252068,-0.328658789396,0.196133,1.176798,9.48303055,0.0,-6.43361759186,15.697057724,2.01416444778,0.151474922895,-0.193663582206,-0.286634832621,-7.2999997139,-36.3618850708,22.4008083344,46.5524158478,-7.34723734856,-2.2257080079000033,0.09741687770000063,4.994016170499997,1.461862087250002,16.0
2018-09-11 19:11:09.250,-0.277478456099,-0.314337453858,-0.732774729348,0.0255481433123,-0.21625252068,-0.328658789396,0.196133,1.176798,9.48303055,0.0,-4.74227714539,15.9360542297,1.34103274345,0.0255481433123,-0.21625252068,-0.328658789396,-7.2999997139,-36.3618850708,22.4008083344,39.7949886322,-5.5480289459300005,-4.8101272583,0.06394577030000015,4.742277145389997,1.341032743450002,16.0
2018-09-11 19:11:09.300,-0.277478456099,-0.314337453858,-0.732774729348,0.0255481433123,-0.21625252068,-0.328658789396,0.196133,1.176798,9.48303055,0.0,-4.74227714539,15.9360542297,1.34103274345,0.0255481433123,-0.21625252068,-0.328658789396,-7.46999979019,-36.3618850708,22.8488235474,40.7949886322,-5.5480289459300005,-4.7901268005999995,0.027505874599999203,4.467917919159996,1.234094142910002,16.0
2018-09-11 19:11:09.350,-0.277478456099,-0.314337453858,-0.732774729348,0.0255481433123,-0.21625252068,-0.328658789396,0.196133,1.176798,9.48303055,0.0,-4.74227714539,15.9360542297,1.34103274345,0.0255481433123,-0.21625252068,-0.328658789396,-7.46999979019,-36.3618850708,22.8488235474,40.7949886322,-5.89802896977,-5.270126342799998,0.006292343100000153,4.2049183845499964,1.134264111520002,16.0
2018-09-11 19:11:09.400,-0.277478456099,-0.314337453858,-0.732774729348,0.0255481433123,-0.21625252068,-0.328658789396,0.196133,1.176798,9.48303055,0.0,-4.74227714539,15.9360542297,1.34103274345,0.0255481433123,-0.21625252068,-0.328658789396,-7.46999979019,-36.3618850708,22.8488235474,40.7949886322,-5.89802896977,-5.270126342799998,0.006292343100000153,4.2049183845499964,1.134264111520002,16.0
2018-09-11 19:11:09.450,-0.277478456099,-0.314337453858,-0.732774729348,0.0255481433123,-0.21625252068,-0.328658789396,0.196133,1.176798,9.48303055,0.0,-4.74227714539,15.9360542297,1.34103274345,0.0255481433123,-0.21625252068,-0.328658789396,-7.60999965668,-62.7746582031,23.2207527161,40.7949886322,-6.21802902222,-6.410125732399997,-0.042543411299998724,3.5341815948499966,0.897006154060002,16.0
2018-09-11 19:11:09.500,-0.277478456099,-0.314337453858,-0.732774729348,0.0255481433123,-0.21625252068,-0.328658789396,0.196133,1.176798,9.48303055,0.0,-2.97936749458,16.0797634125,0.720755696297,0.0255481433123,-0.21625252068,-0.328658789396,-7.60999965668,-62.7746582031,23.2207527161,40.7949886322,-6.22802901268,-6.400127410899998,-0.07527160640000119,3.1263689994799964,0.760570108891002,16.0
2018-09-11 19:11:09.550,-0.277478456099,-0.314337453858,-0.732774729348,0.0255481433123,-0.21625252068,-0.328658789396,0.196133,1.176798,9.48303055,0.0,-2.97936749458,16.0797634125,0.720755696297,0.0255481433123,-0.21625252068,-0.328658789396,-7.73000001907,-62.7746582031,23.541973114,41.7949886322,-6.51802897454,-7.700126648000001,-0.09454917909999949,2.5063066482499963,0.633031904697002,16.0
2018-09-11 19:11:09.600,-0.277750525224,-0.294695786655,-0.691851741669,-0.141725346446,-0.252259582281,-0.340587973595,0.0980665,1.04931155,11.1207411,0.0,-2.97936749458,16.0797634125,0.720755696297,0.0255481433123,-0.21625252068,-0.328658789396,-7.81999969482,-42.1298980713,23.7786388397,33.5317735672,-4.61339390278,-7.7003517149999965,-0.10415077209999879,2.0429449081399964,0.560306847095002,16.0
2018-09-11 19:11:09.650,-0.277750525224,-0.294695786655,-0.691851741669,-0.141725346446,-0.252259582281,-0.340587973595,0.0980665,1.04931155,11.1207411,0.0,-2.97936749458,16.0797634125,0.720755696297,0.0255481433123,-0.21625252068,-0.328658789396,-7.81999969482,-42.1298980713,23.7786388397,33.5317735672,-4.61339390278,-7.7003517149999965,-0.10415077209999879,2.0429449081399964,0.560306847095002,16.0
2018-09-11 19:11:09.700,-0.277750525224,-0.294695786655,-0.691851741669,-0.141725346446,-0.252259582281,-0.340587973595,0.0980665,1.04931155,11.1207411,0.0,-2.97936749458,16.0797634125,0.720755696297,0.0255481433123,-0.21625252068,-0.328658789396,-7.90999984741,-42.1298980713,23.9561538696,34.5317735672,-4.86339390278,-9.430351257299996,-0.09056854250000157,1.3095016479499964,0.42340773344000193,16.0
2018-09-11 19:11:09.750,-0.277750525224,-0.294695786655,-0.691851741669,-0.141725346446,-0.252259582281,-0.340587973595,0.0980665,1.04931155,11.1207411,0.0,-1.1454975605,16.0836467743,0.410430639982,-0.141725346446,-0.252259582281,-0.340587973595,-7.90999984741,-42.1298980713,23.9561538696,34.5317735672,-4.86339390278,-9.430351257299996,-0.09056854250000157,1.3095016479499964,0.42340773344000193,16.0
2018-09-11 19:11:09.800,-0.277750525224,-0.294695786655,-0.691851741669,-0.141725346446,-0.252259582281,-0.340587973595,0.0980665,1.04931155,11.1207411,0.0,-1.1454975605,16.0836467743,0.410430639982,-0.141725346446,-0.252259582281,-0.340587973595,-7.98000001907,-62.2114181519,24.040687561,34.5317735672,-5.11339390278,-11.590351104699998,-0.0696468352999986,0.8149299025539964,0.38556638360000195,16.0
2018-09-11 19:11:09.850,-0.277750525224,-0.294695786655,-0.691851741669,-0.141725346446,-0.252259582281,-0.340587973595,0.0980665,1.04931155,11.1207411,0.0,-1.1454975605,16.0836467743,0.410430639982,-0.141725346446,-0.252259582281,-0.340587973595,-7.98000001907,-62.2114181519,24.040687561,34.5317735672,-5.13339388371,-11.590351104699998,-0.029617309599998976,0.19277909398099644,0.31500926613800195,16.0
2018-09-11 19:11:09.900,-0.277750525224,-0.294695786655,-0.691851741669,-0.141725346446,-0.252259582281,-0.340587973595,0.0980665,1.04931155,11.1207411,0.0,-1.1454975605,16.0836467743,0.410430639982,-0.141725346446,-0.252259582281,-0.340587973595,-8.03999996185,-62.2114181519,24.0575885773,34.5317735672,-5.36339390278,-13.8803520202,-0.002815246600000876,-0.08616168797020356,0.28863099217400195,16.0
2018-09-11 19:11:09.950,-0.277750525224,-0.294695786655,-0.691851741669,-0.141725346446,-0.252259582281,-0.340587973595,0.0980665,1.04931155,11.1207411,0.0,-1.1454975605,16.0836467743,0.410430639982,-0.141725346446,-0.252259582281,-0.340587973595,-8.03999996185,-62.2114181519,24.0575885773,34.5317735672,-5.36339390278,-13.8803520202,-0.002815246600000876,-0.08616168797020356,0.28863099217400195,16.0
2018-09-11 19:11:10.000,-0.277750525224,-0.294695786655,-0.691851741669,-0.141725346446,-0.252259582281,-0.340587973595,0.0980665,1.04931155,11.1207411,0.0,0.653192639351,15.9307031631,0.233168169856,-0.141725346446,-0.252259582281,-0.340587973595,-8.0999994278,-72.5868225098,23.9984169006,34.5317735672,-5.62339389324,-16.270351409899998,0.08929061889999979,-0.7954874634740036,0.21502743661400198,16.0
2018-09-11 19:11:10.050,-0.277750525224,-0.294695786655,-0.691851741669,-0.141725346446,-0.252259582281,-0.340587973595,0.0980665,1.04931155,11.1207411,0.0,0.653192639351,15.9307031631,0.233168169856,-0.141725346446,-0.252259582281,-0.340587973595,-8.0999994278,-72.5868225098,23.9984169006,34.5317735672,-5.65339386463,-16.270351409899998,0.14633941650000004,-1.1945087909700036,0.14485523104700196,16.0
2018-09-11 19:11:10.100,-0.262577673152,-0.249289360598,-0.633747424504,-0.338579207659,-0.163069546223,-0.311292380095,-0.04903325,1.01008495,11.11093445,0.0,0.653192639351,15.9307031631,0.233168169856,-0.141725346446,-0.252259582281,-0.340587973595,-8.14999961853,-72.5868225098,23.8716049194,22.84583520889,-3.5716812908640003,-13.5023326874,0.2170419693000003,-1.5887637138400035,0.09066989272830196,16.0
2018-09-11 19:11:10.150,-0.262577673152,-0.249289360598,-0.633747424504,-0.338579207659,-0.163069546223,-0.311292380095,-0.04903325,1.01008495,11.11093445,0.0,0.653192639351,15.9307031631,0.233168169856,-0.141725346446,-0.252259582281,-0.340587973595,-8.14999961853,-72.5868225098,23.8716049194,22.84583520889,-3.591681271794,-13.5023326874,0.26327419280000086,-1.8320165872600036,0.02819799073040196,16.0
2018-09-11 19:11:10.200,-0.262577673152,-0.249289360598,-0.633747424504,-0.338579207659,-0.163069546223,-0.311292380095,-0.04903325,1.01008495,11.11093445,0.0,0.653192639351,15.9307031631,0.233168169856,-0.141725346446,-0.252259582281,-0.340587973595,-8.14999961853,-72.5868225098,23.8716049194,22.84583520889,-3.591681271794,-13.5023326874,0.26327419280000086,-1.8320165872600036,0.02819799073040196,16.0
2018-09-11 19:11:10.250,-0.262577673152,-0.249289360598,-0.633747424504,-0.338579207659,-0.163069546223,-0.311292380095,-0.04903325,1.01008495,11.11093445,0.0,0.653192639351,15.9307031631,0.233168169856,-0.141725346446,-0.252259582281,-0.340587973595,-8.14999961853,-72.5868225098,23.8716049194,22.84583520889,-3.591681271794,-13.5023326874,0.26327419280000086,-1.8320165872600036,0.02819799073040196,16.0
2018-09-11 19:11:10.300,-0.262577673152,-0.249289360598,-0.633747424504,-0.338579207659,-0.163069546223,-0.311292380095,-0.04903325,1.01008495,11.11093445,0.0,2.3873860836,15.6065607071,-0.296532601118,-0.338579207659,-0.163069546223,-0.311292380095,-8.18999958038,-92.5045013428,23.6771831512,22.84583520889,-3.7216813862339997,-16.0723323822,0.3934392929000001,-2.3873860836000036,-0.29653260111799806,16.0
2018-09-11 19:11:10.350,-0.262577673152,-0.249289360598,-0.633747424504,-0.338579207659,-0.163069546223,-0.311292380095,-0.04903325,1.01008495,11.11093445,0.0,2.3873860836,15.6065607071,-0.296532601118,-0.338579207659,-0.163069546223,-0.311292380095,-8.21000003815,-92.5045013428,23.4404964447,22.84583520889,-3.7316816151139998,-18.222332000799998,0.5019655228000008,-2.7380819320700036,-0.526346683501998,16.0
2018-09-11 19:11:10.400,-0.262577673152,-0.249289360598,-0.633747424504,-0.338579207659,-0.163069546223,-0.311292380095,-0.04903325,1.01008495,11.11093445,0.0,2.3873860836,15.6065607071,-0.296532601118,-0.338579207659,-0.163069546223,-0.311292380095,-8.21000003815,-92.5045013428,23.4404964447,22.84583520889,-3.7316816151139998,-18.222332000799998,0.5019655228000008,-2.7380819320700036,-0.526346683501998,16.0
2018-09-11 19:11:10.450,-0.23927980455,-0.223349220111,-0.595683658466,-0.456024229527,-0.147670432925,-0.325782924891,-0.20593965,1.04931155,8.14932615,0.0,3.2191696167,15.3637943268,-0.717068910599,-0.456024229527,-0.147670432925,-0.325782924891,-8.21000003815,-101.08833313,23.1530914307,15.0048904419,-1.7194430828099998,-16.1965045929,0.6362056731999992,-3.2191696167000035,-0.717068910598998,16.0
2018-09-11 19:11:10.500,-0.23927980455,-0.223349220111,-0.595683658466,-0.456024229527,-0.147670432925,-0.325782924891,-0.20593965,1.04931155,8.14932615,0.0,3.2191696167,15.3637943268,-0.717068910599,-0.456024229527,-0.147670432925,-0.325782924891,-8.21000003815,-101.08833313,23.1530914307,15.0048904419,-1.7194430828099998,-16.1965045929,0.6362056731999992,-3.2191696167000035,-0.717068910598998,16.0
2018-09-11 19:11:10.550,-0.23927980455,-0.223349220111,-0.595683658466,-0.456024229527,-0.147670432925,-0.325782924891,-0.20593965,1.04931155,8.14932615,0.0,3.2191696167,15.3637943268,-0.717068910599,-0.456024229527,-0.147670432925,-0.325782924891,-8.1799993515,-101.08833313,22.831861496,15.0048904419,-1.7394430637399996,-18.916503906299997,0.7981300353999998,-3.7612352371200037,-0.772992491721998,16.0
2018-09-11 19:11:10.600,-0.23927980455,-0.223349220111,-0.595683658466,-0.456024229527,-0.147670432925,-0.325782924891,-0.20593965,1.04931155,8.14932615,0.0,3.2191696167,15.3637943268,-0.717068910599,-0.456024229527,-0.147670432925,-0.325782924891,-8.13999938965,-122.590255737,22.4599094391,15.0048904419,-1.7394430637399996,-22.0565032959,0.8973064422999997,-4.079181194310004,-0.768453299998998,16.0
2018-09-11 19:11:10.650,-0.23927980455,-0.223349220111,-0.595683658466,-0.456024229527,-0.147670432925,-0.325782924891,-0.20593965,1.04931155,8.14932615,0.0,3.2191696167,15.3637943268,-0.717068910599,-0.456024229527,-0.147670432925,-0.325782924891,-8.13999938965,-122.590255737,22.4599094391,15.0048904419,-1.7394430637399996,-22.0565032959,0.8973064422999997,-4.079181194310004,-0.768453299998998,16.0
2018-09-11 19:11:10.700,-0.23927980455,-0.223349220111,-0.595683658466,-0.456024229527,-0.147670432925,-0.325782924891,-0.20593965,1.04931155,8.14932615,0.0,4.48980855942,14.9683504105,-0.722042381763,-0.456024229527,-0.147670432925,-0.325782924891,-8.13999938965,-122.590255737,22.4599094391,15.0048904419,-1.77944302559,-22.0565032959,0.9962368011000002,-4.386739730830003,-0.743635714053998,16.0
2018-09-11 19:11:10.750,-0.23927980455,-0.223349220111,-0.595683658466,-0.456024229527,-0.147670432925,-0.325782924891,-0.20593965,1.04931155,8.14932615,0.0,4.48980855942,14.9683504105,-0.722042381763,-0.456024229527,-0.147670432925,-0.325782924891,-8.0999994278,-122.590255737,22.0288009644,14.0048904419,-1.8294432163299996,-25.3065032959,1.0991706848000007,-4.689853668210003,-0.707521080970998,16.0
2018-09-11 19:11:10.800,-0.23927980455,-0.223349220111,-0.595683658466,-0.456024229527,-0.147670432925,-0.325782924891,-0.20593965,1.04931155,8.14932615,0.0,4.48980855942,14.9683504105,-0.722042381763,-0.456024229527,-0.147670432925,-0.325782924891,-8.06999969482,-144.912338257,21.5638771057,14.0048904419,-1.8894431591099998,-28.516503334059998,1.2012901306000003,-4.936800479890003,-0.726739108561998,16.0
2018-09-11 19:11:10.850,-0.185408371551,-0.163116346877,-0.560663564497,-0.295255094767,-0.110311426222,-0.207042530179,-0.392266,0.77472535,9.75761675,0.0,4.48980855942,14.9683504105,-0.722042381763,-0.456024229527,-0.147670432925,-0.325782924891,-8.06999969482,-144.912338257,21.5638771057,14.0048904419,-1.9094431400299996,-28.516503334059998,1.2646999358999995,-5.0828638076800035,-0.765068352221998,16.0
2018-09-11 19:11:10.900,-0.185408371551,-0.163116346877,-0.560663564497,-0.295255094767,-0.110311426222,-0.207042530179,-0.392266,0.77472535,9.75761675,0.0,4.48980855942,14.9683504105,-0.722042381763,-0.456024229527,-0.147670432925,-0.325782924891,-8.06999969482,-144.912338257,21.5638771057,6.427991867100001,-1.4975323676999999,-18.83234691616,1.3234167099,-5.219813823700004,-0.804931759833998,16.0
2018-09-11 19:11:10.950,-0.185408371551,-0.163116346877,-0.560663564497,-0.295255094767,-0.110311426222,-0.207042530179,-0.392266,0.77472535,9.75761675,0.0,5.49569749832,14.5460739136,-0.871901810169,-0.295255094767,-0.110311426222,-0.207042530179,-7.98999977112,-154.418945312,20.4987850189,4.427991867100001,-1.4975323676999999,-21.632347106890002,1.3914928436,-5.3572597503700035,-0.847779631614998,16.0
2018-09-11 19:11:11.000,-0.185408371551,-0.163116346877,-0.560663564497,-0.295255094767,-0.110311426222,-0.207042530179,-0.392266,0.77472535,9.75761675,0.0,5.49569749832,14.5460739136,-0.871901810169,-0.295255094767,-0.110311426222,-0.207042530179,-7.98999977112,-154.418945312,20.4987850189,4.427991867100001,-1.4975323676999999,-21.632347106890002,1.5197973251000008,-5.650076866150004,-0.848668456077998,16.0
2018-09-11 19:11:11.050,-0.185408371551,-0.163116346877,-0.560663564497,-0.295255094767,-0.110311426222,-0.207042530179,-0.392266,0.77472535,9.75761675,0.0,5.49569749832,14.5460739136,-0.871901810169,-0.295255094767,-0.110311426222,-0.207042530179,-7.98999977112,-154.418945312,20.4987850189,4.427991867100001,-1.45753192901,-24.51234722133,1.5883569716999997,-5.810260295870004,-0.795696020125998,16.0
2018-09-11 19:11:11.100,-0.185408371551,-0.163116346877,-0.560663564497,-0.295255094767,-0.110311426222,-0.207042530179,-0.392266,0.77472535,9.75761675,0.0,5.49569749832,14.5460739136,-0.871901810169,-0.295255094767,-0.110311426222,-0.207042530179,-7.94999980927,-154.418945312,19.9239616394,4.427991867100001,-1.4775319099399997,-24.51234722133,1.6535491943,-5.942486286160004,-0.782906234263998,16.0
2018-09-11 19:11:11.150,-0.185408371551,-0.163116346877,-0.560663564497,-0.295255094767,-0.110311426222,-0.207042530179,-0.392266,0.77472535,9.75761675,0.0,5.49569749832,14.5460739136,-0.871901810169,-0.295255094767,-0.110311426222,-0.207042530179,-7.94999980927,-154.418945312,19.9239616394,4.427991867100001,-1.55753231048,-27.592347025832,1.7191619872999997,-6.056588649750004,-0.796258449553998,16.0
2018-09-11 19:11:11.200,-0.185408371551,-0.163116346877,-0.560663564497,-0.295255094767,-0.110311426222,-0.207042530179,-0.392266,0.77472535,9.75761675,0.0,6.26785421371,14.1592216492,-0.781081020832,-0.295255094767,-0.110311426222,-0.207042530179,-7.90999984741,-155.60836792,19.3068847656,3.427991867100001,-1.5475320816,-30.18234694,1.8407783508000009,-6.267854213710003,-0.781081020831998,16.0
2018-09-11 19:11:11.250,-0.185408371551,-0.163116346877,-0.560663564497,-0.295255094767,-0.110311426222,-0.207042530179,-0.392266,0.77472535,9.75761675,0.0,6.26785421371,14.1592216492,-0.781081020832,-0.295255094767,-0.110311426222,-0.207042530179,-7.90999984741,-155.60836792,19.3068847656,3.427991867100001,-1.55753231048,-30.18234694,1.9209136962999995,-6.417989730830003,-0.725524902343998,16.0
2018-09-11 19:11:11.300,-0.124816092339,-0.103508069877,-0.538557027729,-0.557935714722,-0.0999332740903,-0.133444055915,-0.16671305,0.7453054,11.571847,0.0,6.26785421371,14.1592216492,-0.781081020832,-0.295255094767,-0.110311426222,-0.207042530179,-7.86999988556,-155.60836792,18.6813564301,-2.5002994536999985,-2.4251711368500004,-22.78868484502,1.9771280288999993,-6.514098167420004,-0.663592636584998,16.0
2018-09-11 19:11:11.350,-0.124816092339,-0.103508069877,-0.538557027729,-0.557935714722,-0.0999332740903,-0.133444055915,-0.16671305,0.7453054,11.571847,0.0,6.26785421371,14.1592216492,-0.781081020832,-0.295255094767,-0.110311426222,-0.207042530179,-7.86999988556,-155.60836792,18.6813564301,-2.5002994536999985,-2.44517111778,-22.78868484502,2.0281820297,-6.597674846650004,-0.600191116332998,16.0
2018-09-11 19:11:11.400,-0.124816092339,-0.103508069877,-0.538557027729,-0.557935714722,-0.0999332740903,-0.133444055915,-0.16671305,0.7453054,11.571847,0.0,6.26785421371,14.1592216492,-0.781081020832,-0.295255094767,-0.110311426222,-0.207042530179,-7.84999990463,-173.788635254,18.0220031738,-2.5002994536999985,-2.6051714420299996,-25.0486850739,2.1163234710999994,-6.727579116820004,-0.46982529759399805,16.0
2018-09-11 19:11:11.450,-0.124816092339,-0.103508069877,-0.538557027729,-0.557935714722,-0.0999332740903,-0.133444055915,-0.16671305,0.7453054,11.571847,0.0,6.77828407288,13.846370697,-0.393173724413,-0.557935714722,-0.0999332740903,-0.133444055915,-7.84999990463,-173.788635254,18.0220031738,-2.5002994536999985,-2.6051714420299996,-25.0486850739,2.1163234710999994,-6.727579116820004,-0.46982529759399805,16.0
2018-09-11 19:11:11.500,-0.124816092339,-0.103508069877,-0.538557027729,-0.557935714722,-0.0999332740903,-0.133444055915,-0.16671305,0.7453054,11.571847,0.0,6.77828407288,13.846370697,-0.393173724413,-0.557935714722,-0.0999332740903,-0.133444055915,-7.84999990463,-173.788635254,17.3542098999,-3.5002994536999985,-2.8251712322199998,-26.928685188339998,2.1728487014999995,-6.8014631271400035,-0.3474033474919981,16.0
2018-09-11 19:11:11.550,-0.124816092339,-0.103508069877,-0.538557027729,-0.557935714722,-0.0999332740903,-0.133444055915,-0.16671305,0.7453054,11.571847,0.0,6.77828407288,13.846370697,-0.393173724413,-0.557935714722,-0.0999332740903,-0.133444055915,-7.84999990463,-173.788635254,17.3542098999,-3.5002994536999985,-2.8251712322199998,-26.928685188339998,2.2107038498,-6.8346753120400034,-0.28733539581299805,16.0
2018-09-11 19:11:11.600,-0.0447726007228,-0.0466044732956,-0.526892751612,-0.481946825981,0.0447895303369,-0.100145570934,-0.3138128,0.71588545,11.4541672,0.0,6.77828407288,13.846370697,-0.393173724413,-0.557935714722,-0.0999332740903,-0.133444055915,-7.85999965668,-201.922790527,16.6779518127,-7.145177841199999,-3.3270460367200005,-17.0543012619,2.2735033035,-6.883165359500004,-0.11395999044199805,16.0
2018-09-11 19:11:11.650,-0.0447726007228,-0.0466044732956,-0.526892751612,-0.481946825981,0.0447895303369,-0.100145570934,-0.3138128,0.71588545,11.4541672,0.0,6.77828407288,13.846370697,-0.393173724413,-0.557935714722,-0.0999332740903,-0.133444055915,-7.85999965668,-201.922790527,16.6779518127,-7.145177841199999,-3.3270460367200005,-17.0543012619,2.2735033035,-6.883165359500004,-0.11395999044199805,16.0
2018-09-11 19:11:11.700,-0.0447726007228,-0.0466044732956,-0.526892751612,-0.481946825981,0.0447895303369,-0.100145570934,-0.3138128,0.71588545,11.4541672,0.0,6.89284563065,13.7042865753,0.00527589395642,-0.481946825981,0.0447895303369,-0.100145570934,-7.88999986649,-201.922790527,16.0017032623,-8.145177841199999,-3.3370457887600002,-17.0543012619,2.2957134247000006,-6.892845630650004,0.005275893956421959,16.0
2018-09-11 19:11:11.750,-0.0447726007228,-0.0466044732956,-0.526892751612,-0.481946825981,0.0447895303369,-0.100145570934,-0.3138128,0.71588545,11.4541672,0.0,6.89284563065,13.7042865753,0.00527589395642,-0.481946825981,0.0447895303369,-0.100145570934,-7.88999986649,-201.922790527,16.0017032623,-8.145177841199999,-3.61704599857,-18.29430103304,2.3178310393999997,-6.881187438960003,0.06958987563850196,16.0
2018-09-11 19:11:11.800,-0.0447726007228,-0.0466044732956,-0.526892751612,-0.481946825981,0.0447895303369,-0.100145570934,-0.3138128,0.71588545,11.4541672,0.0,6.89284563065,13.7042865753,0.00527589395642,-0.481946825981,0.0447895303369,-0.100145570934,-7.88999986649,-201.922790527,16.0017032623,-8.145177841199999,-3.61704599857,-18.29430103304,2.3178310393999997,-6.881187438960003,0.06958987563850196,16.0
2018-09-11 19:11:11.850,-0.0447726007228,-0.0466044732956,-0.526892751612,-0.481946825981,0.0447895303369,-0.100145570934,-0.3138128,0.71588545,11.4541672,0.0,6.89284563065,13.7042865753,0.00527589395642,-0.481946825981,0.0447895303369,-0.100145570934,-7.92999982834,-193.311126709,15.3254566193,-9.145177841199999,-3.8170458078400005,-19.22430133824,2.3330259323,-6.830206394200004,0.05748859420420196,16.0
2018-09-11 19:11:11.900,-0.0447726007228,-0.0466044732956,-0.526892751612,-0.481946825981,0.0447895303369,-0.100145570934,-0.3138128,0.71588545,11.4541672,0.0,6.89284563065,13.7042865753,0.00527589395642,-0.481946825981,0.0447895303369,-0.100145570934,-7.96999979019,-193.311126709,14.6661119461,-9.145177841199999,-3.9870458841300005,-19.91430091854,2.3330259323,-6.830206394200004,0.05748859420420196,16.0
2018-09-11 19:11:11.950,-0.0447726007228,-0.0466044732956,-0.526892751612,-0.481946825981,0.0447895303369,-0.100145570934,-0.3138128,0.71588545,11.4541672,0.0,6.72526597977,13.6623220444,0.0528476834297,-0.481946825981,0.0447895303369,-0.100145570934,-7.96999979019,-193.311126709,14.6661119461,-9.145177841199999,-3.9870458841300005,-19.91430091854,2.3349437714000008,-6.763673305510004,0.06479057669640195,16.0
2018-09-11 19:11:12.000,0.0410312081369,0.000785890696861,-0.517997375312,-0.385288149118,0.0210474040359,-0.00508225429803,-0.44129925,0.3726527,9.7281968,0.0,6.72526597977,13.6623220444,0.0528476834297,-0.481946825981,0.0447895303369,-0.100145570934,-7.96999979019,-193.311126709,14.6661119461,-9.145177841199999,-3.9870458841300005,-19.91430091854,2.3404903412000007,-6.679665088650004,0.01651413366200196,16.0
2018-09-11 19:11:12.050,0.0410312081369,0.000785890696861,-0.517997375312,-0.385288149118,0.0210474040359,-0.00508225429803,-0.44129925,0.3726527,9.7281968,0.0,6.72526597977,13.6623220444,0.0528476834297,-0.481946825981,0.0447895303369,-0.100145570934,-8.01000022888,-185.935028076,14.0152235031,-11.6293087006,-3.5707414150299996,-9.17924928665,2.3348808288999994,-6.659248828890004,0.005573406349871959,16.0
2018-09-11 19:11:12.100,0.0410312081369,0.000785890696861,-0.517997375312,-0.385288149118,0.0210474040359,-0.00508225429803,-0.44129925,0.3726527,9.7281968,0.0,6.72526597977,13.6623220444,0.0528476834297,-0.481946825981,0.0447895303369,-0.100145570934,-8.01000022888,-185.935028076,14.0152235031,-11.6293087006,-3.56074166298,-9.17924928665,2.3230237960999993,-6.581545829770003,-0.02084334008399804,16.0
2018-09-11 19:11:12.150,0.0410312081369,0.000785890696861,-0.517997375312,-0.385288149118,0.0210474040359,-0.00508225429803,-0.44129925,0.3726527,9.7281968,0.0,6.72526597977,13.6623220444,0.0528476834297,-0.481946825981,0.0447895303369,-0.100145570934,-8.03999996185,-185.935028076,13.3727836609,-12.6293087006,-3.6707413196600003,-9.51924943925,2.3052692412999995,-6.496980667110003,-0.044891174882698046,16.0
2018-09-11 19:11:12.200,0.0410312081369,0.000785890696861,-0.517997375312,-0.385288149118,0.0210474040359,-0.00508225429803,-0.44129925,0.3726527,9.7281968,0.0,6.43344831467,13.7091035843,-0.046013366431,-0.385288149118,0.0210474040359,-0.00508225429803,-8.03999996185,-185.935028076,13.3727836609,-12.6293087006,-3.6707413196600003,-9.51924943925,2.2908964157000007,-6.433448314670003,-0.04601336643099804,16.0
2018-09-11 19:11:12.250,0.0690265866169,0.0173200718701,-0.522012434924,-0.255112439394,0.00756407622248,0.0830120593309,-0.44129925,0.26477955,10.22833595,0.0,6.43344831467,13.7091035843,-0.046013366431,-0.385288149118,0.0210474040359,-0.00508225429803,-8.05999946594,-181.026641846,12.7472553253,-12.6293087006,-3.7307412624399996,-9.68924856185,2.2656745911,-6.333367347720004,-0.05377881601449804,16.0
2018-09-11 19:11:12.300,0.0690265866169,0.0173200718701,-0.522012434924,-0.255112439394,0.00756407622248,0.0830120593309,-0.44129925,0.26477955,10.22833595,0.0,6.43344831467,13.7091035843,-0.046013366431,-0.385288149118,0.0210474040359,-0.00508225429803,-8.06999969482,-181.026641846,12.1301717758,-13.053314209,-3.6471641063699995,-5.96980810165,2.2414236068999998,-6.266717433930004,-0.06373476237059804,16.0
2018-09-11 19:11:12.350,0.0690265866169,0.0173200718701,-0.522012434924,-0.255112439394,0.00756407622248,0.0830120593309,-0.44129925,0.26477955,10.22833595,0.0,6.43344831467,13.7091035843,-0.046013366431,-0.385288149118,0.0210474040359,-0.00508225429803,-8.06999969482,-181.026641846,12.1301717758,-13.053314209,-3.72716450691,-6.039808750150001,2.2076683044000003,-6.147424221040003,-0.039429608732498046,16.0
2018-09-11 19:11:12.400,0.0690265866169,0.0173200718701,-0.522012434924,-0.255112439394,0.00756407622248,0.0830120593309,-0.44129925,0.26477955,10.22833595,0.0,6.43344831467,13.7091035843,-0.046013366431,-0.385288149118,0.0210474040359,-0.00508225429803,-8.07999992371,-177.733428955,11.5469093323,-14.053314209,-3.8171641826599996,-5.8598084449500005,2.168264389000001,-6.015513420100003,-0.00945627037435804,16.0
2018-09-11 19:11:12.450,0.0690265866169,0.0173200718701,-0.522012434924,-0.255112439394,0.00756407622248,0.0830120593309,-0.44129925,0.26477955,10.22833595,0.0,5.88160228729,13.8801383972,0.00182737933938,-0.255112439394,0.00756407622248,0.0830120593309,-8.07999992371,-177.733428955,11.5469093323,-14.053314209,-3.8171641826599996,-5.8598084449500005,2.1353101730000006,-5.927760601040004,-0.0029767076484880405,16.0
2018-09-11 19:11:12.500,0.0690265866169,0.0173200718701,-0.522012434924,-0.255112439394,0.00756407622248,0.0830120593309,-0.44129925,0.26477955,10.22833595,0.0,5.88160228729,13.8801383972,0.00182737933938,-0.255112439394,0.00756407622248,0.0830120593309,-8.09000015259,-177.733428955,10.9721002579,-15.053314209,-3.8171641826599996,-5.8598084449500005,2.1066265106,-5.8359680175800035,0.007345122285191959,16.0
2018-09-11 19:11:12.550,0.0936080695327,0.0286272883014,-0.535638155067,-0.156515076756,0.0302003473043,0.127579852939,-0.40207265,0.4707192,10.44408225,0.0,5.88160228729,13.8801383972,0.00182737933938,-0.255112439394,0.00756407622248,0.0830120593309,-8.09000015259,-177.733428955,10.9721002579,-15.053314209,-3.9271643161800003,-5.539808750150001,2.0588188171000006,-5.688305854800004,0.020524971187101962,16.0
