%time,field.orientation.x,field.orientation.y,field.orientation.z,field.angular_velocity.x,field.angular_velocity.y,field.angular_velocity.z,field.linear_acceleration.x,field.linear_acceleration.y,field.linear_acceleration.z,field.data,field.twist.linear.x,field.twist.linear.y,field.twist.linear.z,field.twist.angular.x,field.twist.angular.y,field.twist.angular.z,field.alt_error,field.aspd_error,field.xtrack_error,delta_yaw,delta_pitch,delta_roll,delta_x,delta_y,delta_z,delta_roll_airspeed
2018-09-11 18:46:35.350,,,,,,,,,,0.0,-15.6723070145,7.70268011093,-0.135654062033,0.486985057592,0.0108104050159,-0.085908010602,,,,,,,,,,
2018-09-11 18:46:35.400,,,,,,,,,,0.0,-15.6723070145,7.70268011093,-0.135654062033,0.486985057592,0.0108104050159,-0.085908010602,-0.179999992251,-350.749206543,-31.1838378906,172.9783401489,-1.7691899538000002,29.076824665110003,-7.88269090652,15.5375337601,-0.223500669003,15.0
2018-09-11 18:46:35.450,-0.0363409916173,-0.177389255158,-0.94295672906,0.525028407574,0.0142416050658,-0.0556326210499,-0.22555295,0.2157463,8.97308475,0.0,-15.6723070145,7.70268011093,-0.135654062033,0.486985057592,0.0108104050159,-0.085908010602,-0.159999996424,-339.113220215,-29.455450058,172.3160667419,-0.82780218125,16.1058425904,-8.07527256012,15.3914442062,-0.303207397461,15.0
2018-09-11 18:46:35.500,-0.0363409916173,-0.177389255158,-0.94295672906,0.525028407574,0.0142416050658,-0.0556326210499,-0.22555295,0.2157463,8.97308475,0.0,-15.6723070145,7.70268011093,-0.135654062033,0.486985057592,0.0108104050159,-0.085908010602,-0.140000000596,-339.113220215,-27.717250824,172.3160667419,-0.6978023052200002,17.7158432007,-8.23567581177,15.2783193588,-0.377761363983,15.0
2018-09-11 18:46:35.550,-0.0363409916173,-0.177389255158,-0.94295672906,0.525028407574,0.0142416050658,-0.0556326210499,-0.22555295,0.2157463,8.97308475,0.0,-15.2431907654,8.29117965698,-0.399968385696,0.525028407574,0.0142416050658,-0.0556326210499,-0.140000000596,-339.113220215,-27.717250824,172.3160667419,-0.6778020858800002,17.7158432007,7.63735485077,15.196722984299996,-0.40849462151499805,15.0
2018-09-11 18:46:35.600,-0.0363409916173,-0.177389255158,-0.94295672906,0.525028407574,0.0142416050658,-0.0556326210499,-0.22555295,0.2157463,8.97308475,0.0,-15.2431907654,8.29117965698,-0.399968385696,0.525028407574,0.0142416050658,-0.0556326210499,-0.109999999404,-339.408691406,-275.201141357,13.316066741900002,-2.1778020858800002,2.0158443450999997,7.44729995728,15.068429946899997,-0.4347404539589981,16.0
2018-09-11 18:46:35.650,-0.0363409916173,-0.177389255158,-0.94295672906,0.525028407574,0.0142416050658,-0.0556326210499,-0.22555295,0.2157463,8.97308475,0.0,-15.2431907654,8.29117965698,-0.399968385696,0.525028407574,0.0142416050658,-0.0556326210499,-0.109999999404,-339.408691406,-275.201141357,13.316066741900002,-2.15780210495,2.0158443450999997,7.31468963623,14.973750114399996,-0.44926431775099807,16.0
2018-09-11 18:46:35.700,-0.0363409916173,-0.177389255158,-0.94295672906,0.525028407574,0.0142416050658,-0.0556326210499,-0.22555295,0.2157463,8.97308475,0.0,-15.2431907654,8.29117965698,-0.399968385696,0.525028407574,0.0142416050658,-0.0556326210499,-0.109999999404,-339.408691406,-275.201141357,13.316066741900002,-2.1378021240300003,2.0158443450999997,7.182976722719999,14.890084266699997,-0.47363981604599803,16.0
2018-09-11 18:46:35.750,-0.0363409916173,-0.177389255158,-0.94295672906,0.525028407574,0.0142416050658,-0.0556326210499,-0.22555295,0.2157463,8.97308475,0.0,-14.7622680664,9.01398849487,-0.53160071373,0.525028407574,0.0142416050658,-0.0556326210499,-0.070000000298,-239.408691406,-273.713378906,13.316066741900002,-3.68780231476,0.26584434509999966,6.91529083252,14.717037200899997,-0.549913227557998,16.0
2018-09-11 18:46:35.800,-0.0558112875974,-0.239630868488,-0.92342820164,-0.0337844379246,-0.0294070877135,-0.15509968996,-0.1569064,0.8041453,10.03220295,0.0,-14.7622680664,9.01398849487,-0.53160071373,0.525028407574,0.0142416050658,-0.0556326210499,-0.070000000298,-239.408691406,-273.713378906,13.316066741900002,-3.68780231476,0.26584434509999966,6.91529083252,14.717037200899997,-0.549913227557998,16.0
2018-09-11 18:46:35.850,-0.0558112875974,-0.239630868488,-0.92342820164,-0.0337844379246,-0.0294070877135,-0.15509968996,-0.1569064,0.8041453,10.03220295,0.0,-14.7622680664,9.01398849487,-0.53160071373,0.525028407574,0.0142416050658,-0.0556326210499,-0.019999999553,-234.152404785,-272.242523193,11.173030853299998,-4.7778143882799995,-9.1104106903,6.667469024660001,14.547141075099997,-0.632762730121998,16.0
2018-09-11 18:46:35.900,-0.0558112875974,-0.239630868488,-0.92342820164,-0.0337844379246,-0.0294070877135,-0.15509968996,-0.1569064,0.8041453,10.03220295,0.0,-14.7622680664,9.01398849487,-0.53160071373,0.525028407574,0.0142416050658,-0.0556326210499,-0.019999999553,-234.152404785,-272.242523193,11.173030853299998,-4.7778143882799995,-9.1104106903,6.54747676849,14.468235015899996,-0.678975760936998,16.0
2018-09-11 18:46:35.950,-0.0558112875974,-0.239630868488,-0.92342820164,-0.0337844379246,-0.0294070877135,-0.15509968996,-0.1569064,0.8041453,10.03220295,0.0,-14.7622680664,9.01398849487,-0.53160071373,0.525028407574,0.0142416050658,-0.0556326210499,0.0299999993294,-234.152404785,-270.79699707,11.173030853299998,-6.307814121250001,-10.8104095459,6.31174564362,14.297907829299996,-0.772461175918998,16.0
2018-09-11 18:46:36.000,-0.0558112875974,-0.239630868488,-0.92342820164,-0.0337844379246,-0.0294070877135,-0.15509968996,-0.1569064,0.8041453,10.03220295,0.0,-14.216427803,9.79506015778,-0.839650094509,-0.0337844379246,-0.0294070877135,-0.15509968996,0.0299999993294,-234.152404785,-270.79699707,11.173030853299998,-6.31781435013,-10.8104095459,6.31174564362,14.297907829299996,-0.772461175918998,16.0
2018-09-11 18:46:36.050,-0.0558112875974,-0.239630868488,-0.92342820164,-0.0337844379246,-0.0294070877135,-0.15509968996,-0.1569064,0.8041453,10.03220295,0.0,-14.216427803,9.79506015778,-0.839650094509,-0.0337844379246,-0.0294070877135,-0.15509968996,0.0999999940395,-234.859085083,-269.376861572,11.173030853299998,-7.837813854229999,-12.4904098511,6.0483903884900005,14.091782569899996,-0.941377818583998,16.0
2018-09-11 18:46:36.100,-0.0558112875974,-0.239630868488,-0.92342820164,-0.0337844379246,-0.0294070877135,-0.15509968996,-0.1569064,0.8041453,10.03220295,0.0,-14.216427803,9.79506015778,-0.839650094509,-0.0337844379246,-0.0294070877135,-0.15509968996,0.0999999940395,-234.859085083,-269.376861572,11.173030853299998,-7.837813854229999,-12.4904098511,6.0483903884900005,14.091782569899996,-0.941377818583998,16.0
2018-09-11 18:46:36.150,-0.0558112875974,-0.239630868488,-0.92342820164,-0.0337844379246,-0.0294070877135,-0.15509968996,-0.1569064,0.8041453,10.03220295,0.0,-14.216427803,9.79506015778,-0.839650094509,-0.0337844379246,-0.0294070877135,-0.15509968996,0.179999992251,-234.859085083,-267.973480225,11.173030853299998,-9.33781385423,-14.0704097748,5.8038330078,13.887945175199997,-1.116994738579998,16.0
2018-09-11 18:46:36.200,-0.0558112875974,-0.239630868488,-0.92342820164,-0.0337844379246,-0.0294070877135,-0.15509968996,-0.1569064,0.8041453,10.03220295,0.0,-14.216427803,9.79506015778,-0.839650094509,-0.0337844379246,-0.0294070877135,-0.15509968996,0.179999992251,-234.859085083,-267.973480225,11.173030853299998,-9.33781385423,-14.0704097748,5.8038330078,13.887945175199997,-1.116994738579998,16.0
2018-09-11 18:46:36.250,-0.0558112875974,-0.239630868488,-0.92342820164,-0.0337844379246,-0.0294070877135,-0.15509968996,-0.1569064,0.8041453,10.03220295,0.0,-13.7323074341,10.372171402,-1.27912187576,-0.0337844379246,-0.0294070877135,-0.15509968996,0.280000001192,-248.155975342,-266.587188721,11.173030853299998,-10.80781412123,-15.6004104615,5.627828598000001,13.732307434099997,-1.279121875759998,16.0
2018-09-11 18:46:36.300,-0.0295702887072,-0.211533137109,-0.913687447437,-0.1702683568,0.0618203058839,-0.239322766662,-0.7453054,0.75511205,8.6494653,0.0,-13.7323074341,10.372171402,-1.27912187576,-0.0337844379246,-0.0294070877135,-0.15509968996,0.280000001192,-248.155975342,-266.587188721,11.173030853299998,-10.80781412123,-15.6004104615,5.546780586200001,13.655034065199997,-1.349307537079998,16.0
2018-09-11 18:46:36.350,-0.0295702887072,-0.211533137109,-0.913687447437,-0.1702683568,0.0618203058839,-0.239322766662,-0.7453054,0.75511205,8.6494653,0.0,-13.7323074341,10.372171402,-1.27912187576,-0.0337844379246,-0.0294070877135,-0.15509968996,0.399999976158,-248.155975342,-265.217773438,5.675590515099998,-9.12715721131,-12.795831680299997,5.394452095,13.499609947199996,-1.501703739169998,16.0
2018-09-11 18:46:36.400,-0.0295702887072,-0.211533137109,-0.913687447437,-0.1702683568,0.0618203058839,-0.239322766662,-0.7453054,0.75511205,8.6494653,0.0,-13.7323074341,10.372171402,-1.27912187576,-0.0337844379246,-0.0294070877135,-0.15509968996,0.539999961853,-243.251800537,-263.873626709,5.675590515099998,-10.50715637211,-14.105832099899999,5.2967214584,13.396105766299996,-1.647915840149998,16.0
2018-09-11 18:46:36.450,-0.0295702887072,-0.211533137109,-0.913687447437,-0.1702683568,0.0618203058839,-0.239322766662,-0.7453054,0.75511205,8.6494653,0.0,-13.7323074341,10.372171402,-1.27912187576,-0.0337844379246,-0.0294070877135,-0.15509968996,0.539999961853,-243.251800537,-263.873626709,5.675590515099998,-10.52715682981,-14.115831375099999,5.244334220900001,13.328149795499996,-1.746101260189998,16.0
2018-09-11 18:46:36.500,-0.0295702887072,-0.211533137109,-0.913687447437,-0.1702683568,0.0618203058839,-0.239322766662,-0.7453054,0.75511205,8.6494653,0.0,-13.2955389023,10.7852210999,-1.81683695316,-0.1702683568,0.0618203058839,-0.239322766662,0.539999961853,-243.251800537,-263.873626709,5.675590515099998,-10.52715682981,-14.115831375099999,5.244334220900001,13.328149795499996,-1.746101260189998,16.0
2018-09-11 18:46:36.550,-0.0295702887072,-0.211533137109,-0.913687447437,-0.1702683568,0.0618203058839,-0.239322766662,-0.7453054,0.75511205,8.6494653,0.0,-13.2955389023,10.7852210999,-1.81683695316,-0.1702683568,0.0618203058839,-0.239322766662,0.699999988079,-243.251800537,-262.537994385,5.675590515099998,-11.82715606691,-15.285831451409999,5.105102539100001,13.163702011099996,-2.001593351359998,16.0
2018-09-11 18:46:36.600,-0.0295702887072,-0.211533137109,-0.913687447437,-0.1702683568,0.0618203058839,-0.239322766662,-0.7453054,0.75511205,8.6494653,0.0,-13.2955389023,10.7852210999,-1.81683695316,-0.1702683568,0.0618203058839,-0.239322766662,0.699999988079,-243.251800537,-262.537994385,5.675590515099998,-13.02715682981,-16.405831813809996,5.105102539100001,13.163702011099996,-2.001593351359998,16.0
2018-09-11 18:46:36.650,0.00562540409773,-0.179835210327,-0.907513325772,-0.209669008851,0.114427752793,-0.233106359839,-1.26505785,0.63743225,7.9041599,0.0,-13.2955389023,10.7852210999,-1.81683695316,-0.1702683568,0.0618203058839,-0.239322766662,0.889999985695,-248.245620728,-261.23614502,2.0239295959000003,-9.89322471618,-11.29555225375,4.975240707399999,13.009050369299997,-2.287968635559998,16.0
2018-09-11 18:46:36.700,0.00562540409773,-0.179835210327,-0.907513325772,-0.209669008851,0.114427752793,-0.233106359839,-1.26505785,0.63743225,7.9041599,0.0,-12.9305505753,11.0786895752,-2.46355867386,-0.209669008851,0.114427752793,-0.233106359839,1.09000003338,-248.245620728,-259.951293945,2.0239295959000003,-9.903224945079998,-11.305552482629999,4.955958366400001,12.980308532699997,-2.3482868671399983,16.0
2018-09-11 18:46:36.750,0.00562540409773,-0.179835210327,-0.907513325772,-0.209669008851,0.114427752793,-0.233106359839,-1.26505785,0.63743225,7.9041599,0.0,-12.9305505753,11.0786895752,-2.46355867386,-0.209669008851,0.114427752793,-0.233106359839,1.09000003338,-248.245620728,-259.951293945,2.0239295959000003,-10.99322509768,-12.255552291899999,4.8937501907000005,12.900870323199996,-2.5195415019999983,16.0
2018-09-11 18:46:36.800,0.00562540409773,-0.179835210327,-0.907513325772,-0.209669008851,0.114427752793,-0.233106359839,-1.26505785,0.63743225,7.9041599,0.0,-12.9305505753,11.0786895752,-2.46355867386,-0.209669008851,0.114427752793,-0.233106359839,1.33999991417,-240.804107666,-258.64944458,2.0239295959000003,-11.973224639880002,-13.125552654299998,4.837472915599999,12.818695068399997,-2.6786828041099984,16.0
2018-09-11 18:46:36.850,0.00562540409773,-0.179835210327,-0.907513325772,-0.209669008851,0.114427752793,-0.233106359839,-1.26505785,0.63743225,7.9041599,0.0,-12.9305505753,11.0786895752,-2.46355867386,-0.209669008851,0.114427752793,-0.233106359839,1.33999991417,-240.804107666,-258.64944458,2.0239295959000003,-11.983224868779999,-13.125552654299998,4.767022132899999,12.732262611399996,-2.837663412089998,16.0
2018-09-11 18:46:36.900,0.00562540409773,-0.179835210327,-0.907513325772,-0.209669008851,0.114427752793,-0.233106359839,-1.26505785,0.63743225,7.9041599,0.0,-12.9305505753,11.0786895752,-2.46355867386,-0.209669008851,0.114427752793,-0.233106359839,1.59999990463,-240.804107666,-257.389923096,2.0239295959000003,-12.89322471618,-13.98555231097,4.739036560100001,12.682846069299996,-2.9498271942099983,16.0
2018-09-11 18:46:36.950,0.00562540409773,-0.179835210327,-0.907513325772,-0.209669008851,0.114427752793,-0.233106359839,-1.26505785,0.63743225,7.9041599,0.0,-12.9305505753,11.0786895752,-2.46355867386,-0.209669008851,0.114427752793,-0.233106359839,1.59999990463,-240.804107666,-257.389923096,2.0239295959000003,-12.89322471618,-14.005552291899999,4.739036560100001,12.682846069299996,-2.9498271942099983,16.0
2018-09-11 18:46:37.000,0.0531628293844,-0.153993546427,-0.898171253209,-0.158287316561,0.140641331673,-0.143889978528,-1.53964405,0.588399,6.63910205,0.0,-12.6197347641,11.2943439484,-3.13682460785,-0.209669008851,0.114427752793,-0.233106359839,1.59999990463,-240.804107666,-257.389923096,2.0239295959000003,-12.903224945079998,-14.005552291899999,4.682769775400001,12.589953422499997,-3.205006599429998,16.0
2018-09-11 18:46:37.050,0.0531628293844,-0.153993546427,-0.898171253209,-0.158287316561,0.140641331673,-0.143889978528,-1.53964405,0.588399,6.63910205,0.0,-12.6197347641,11.2943439484,-3.13682460785,-0.209669008851,0.114427752793,-0.233106359839,1.89999997616,-225.477981567,-256.113525391,-1.3399162292,-9.296682357800002,-9.51546478268,4.6188526154,12.486129760699997,-3.457427024839998,16.0
2018-09-11 18:46:37.100,0.0531628293844,-0.153993546427,-0.898171253209,-0.158287316561,0.140641331673,-0.143889978528,-1.53964405,0.588399,6.63910205,0.0,-12.6197347641,11.2943439484,-3.13682460785,-0.209669008851,0.114427752793,-0.233106359839,1.89999997616,-225.477981567,-256.113525391,-1.3399162292,-9.3066825867,-9.51546478268,4.610633850099999,12.465723037699997,-3.527313470839998,16.0
2018-09-11 18:46:37.150,0.0531628293844,-0.153993546427,-0.898171253209,-0.158287316561,0.140641331673,-0.143889978528,-1.53964405,0.588399,6.63910205,0.0,-12.6197347641,11.2943439484,-3.13682460785,-0.209669008851,0.114427752793,-0.233106359839,2.22000002861,-225.477981567,-254.862258911,-1.3399162292,-9.946681976300003,-10.2254645824,4.5826749802,12.409270286599996,-3.729812622069998,16.0
2018-09-11 18:46:37.200,0.0531628293844,-0.153993546427,-0.898171253209,-0.158287316561,0.140641331673,-0.143889978528,-1.53964405,0.588399,6.63910205,0.0,-12.6197347641,11.2943439484,-3.13682460785,-0.209669008851,0.114427752793,-0.233106359839,2.57999992371,-232.058532715,-253.636566162,-1.3399162292,-10.476682663000002,-10.73546457287,4.551878929100001,12.356335639999996,-3.9093933105499983,16.0
2018-09-11 18:46:37.250,0.0531628293844,-0.153993546427,-0.898171253209,-0.158287316561,0.140641331673,-0.143889978528,-1.53964405,0.588399,6.63910205,0.0,-12.322552681,11.4687290192,-4.02663898468,-0.158287316561,0.140641331673,-0.143889978528,2.57999992371,-232.058532715,-253.636566162,-1.3399162292,-10.476682663000002,-10.73546457287,4.522842407200001,12.307769775399997,-4.089335918429998,16.0
2018-09-11 18:46:37.300,0.0531628293844,-0.153993546427,-0.898171253209,-0.158287316561,0.140641331673,-0.143889978528,-1.53964405,0.588399,6.63910205,0.0,-12.322552681,11.4687290192,-4.02663898468,-0.158287316561,0.140641331673,-0.143889978528,2.57999992371,-232.058532715,-253.636566162,-1.3399162292,-10.486680984500001,-10.74546456333,4.5101537704000005,12.290856361399996,-4.147020339969998,16.0
2018-09-11 18:46:37.350,0.0868434396318,-0.139716476139,-0.895639156987,-0.160601705313,0.142871588469,-0.0266260262579,-1.8828768,0.77472535,6.44296905,0.0,-12.322552681,11.4687290192,-4.02663898468,-0.158287316561,0.140641331673,-0.143889978528,2.96000003815,-232.058532715,-252.393936157,-1.3399162292,-10.926681518600002,-11.21546459194,4.4873638153,12.248001098599996,-4.344126701349998,16.0
2018-09-11 18:46:37.400,0.0868434396318,-0.139716476139,-0.895639156987,-0.160601705313,0.142871588469,-0.0266260262579,-1.8828768,0.77472535,6.44296905,0.0,-12.322552681,11.4687290192,-4.02663898468,-0.158287316561,0.140641331673,-0.143889978528,3.37999987602,-220.55015564,-251.168182373,-2.0564041137999993,-7.984200477600002,-8.0766427517,4.4739437103,12.217602729799996,-4.491914749149998,16.0
2018-09-11 18:46:37.450,0.0868434396318,-0.139716476139,-0.895639156987,-0.160601705313,0.142871588469,-0.0266260262579,-1.8828768,0.77472535,6.44296905,0.0,-12.1774482727,11.5512781143,-4.70847892761,-0.160601705313,0.142871588469,-0.0266260262579,3.37999987602,-220.55015564,-251.168182373,-2.0564041137999993,-8.284201622000001,-8.466642618189999,4.4487218856999995,12.177448272699996,-4.708478927609998,16.0
2018-09-11 18:46:37.500,0.0868434396318,-0.139716476139,-0.895639156987,-0.160601705313,0.142871588469,-0.0266260262579,-1.8828768,0.77472535,6.44296905,0.0,-12.1774482727,11.5512781143,-4.70847892761,-0.160601705313,0.142871588469,-0.0266260262579,3.37999987602,-220.55015564,-251.168182373,-2.0564041137999993,-8.284201622000001,-8.466642618189999,4.422202110300001,12.148988723799997,-4.824731349949999,16.0
2018-09-11 18:46:37.550,0.0868434396318,-0.139716476139,-0.895639156987,-0.160601705313,0.142871588469,-0.0266260262579,-1.8828768,0.77472535,6.44296905,0.0,-12.1774482727,11.5512781143,-4.70847892761,-0.160601705313,0.142871588469,-0.0266260262579,3.82999992371,-220.55015564,-249.959381104,-2.0564041137999993,-8.4942007065,-8.896642684949999,4.3898210526,12.119065284699996,-4.918752193449998,16.0
2018-09-11 18:46:37.600,0.0868434396318,-0.139716476139,-0.895639156987,-0.160601705313,0.142871588469,-0.0266260262579,-1.8828768,0.77472535,6.44296905,0.0,-12.1774482727,11.5512781143,-4.70847892761,-0.160601705313,0.142871588469,-0.0266260262579,3.82999992371,-220.55015564,-249.959381104,-2.0564041137999993,-8.504200935300002,-8.896642684949999,4.337318420400001,12.087064742999997,-5.052038192749999,16.0
2018-09-11 18:46:37.650,0.0868434396318,-0.139716476139,-0.895639156987,-0.160601705313,0.142871588469,-0.0266260262579,-1.8828768,0.77472535,6.44296905,0.0,-12.0803289413,11.710773468,-5.21363830566,-0.160601705313,0.142871588469,-0.0266260262579,4.30999994278,-214.772796631,-248.750549316,-2.0564041137999993,-8.674201011600001,-9.416642665869999,4.289226532000001,12.080328941299996,-5.213638305659998,16.0
2018-09-11 18:46:37.700,0.0868434396318,-0.139716476139,-0.895639156987,-0.160601705313,0.142871588469,-0.0266260262579,-1.8828768,0.77472535,6.44296905,0.0,-12.0803289413,11.710773468,-5.21363830566,-0.160601705313,0.142871588469,-0.0266260262579,4.30999994278,-214.772796631,-248.750549316,-2.0564041137999993,-8.674201011600001,-9.416642665869999,4.289226532000001,12.080328941299996,-5.213638305659998,16.0
2018-09-11 18:46:37.750,0.128952013775,-0.113206318517,-0.89577323749,-0.249116286635,0.132003650069,-0.00875977054238,-1.8632635,0.97085835,8.18855275,0.0,-12.0803289413,11.710773468,-5.21363830566,-0.160601705313,0.142871588469,-0.0266260262579,4.7999997139,-214.772796631,-247.533294678,-2.0564041137999993,-8.7941999435,-9.646642684949999,4.2589473724,12.096013069199996,-5.307138919829998,16.0
2018-09-11 18:46:37.800,0.128952013775,-0.113206318517,-0.89577323749,-0.249116286635,0.132003650069,-0.00875977054238,-1.8632635,0.97085835,8.18855275,0.0,-12.0803289413,11.710773468,-5.21363830566,-0.160601705313,0.142871588469,-0.0266260262579,5.30999994278,-288.177490234,-246.315887451,-2.212814331099999,-5.7231483459999986,-4.9682446718249995,4.2265329361,12.101263046299996,-5.417233467099998,16.0
2018-09-11 18:46:37.850,0.128952013775,-0.113206318517,-0.89577323749,-0.249116286635,0.132003650069,-0.00875977054238,-1.8632635,0.97085835,8.18855275,0.0,-12.0803289413,11.710773468,-5.21363830566,-0.160601705313,0.142871588469,-0.0266260262579,5.30999994278,-288.177490234,-246.315887451,-2.212814331099999,-5.7231483459999986,-4.9682446718249995,4.2126636505,12.095888137799996,-5.596508502959998,16.0
2018-09-11 18:46:37.900,0.128952013775,-0.113206318517,-0.89577323749,-0.249116286635,0.132003650069,-0.00875977054238,-1.8632635,0.97085835,8.18855275,0.0,-12.0803289413,11.710773468,-5.21363830566,-0.160601705313,0.142871588469,-0.0266260262579,5.30999994278,-288.177490234,-246.315887451,-2.212814331099999,-5.7231483459999986,-4.9682446718249995,4.220040321400001,12.103534698499997,-5.738546371459998,16.0
2018-09-11 18:46:37.950,0.128952013775,-0.113206318517,-0.89577323749,-0.249116286635,0.132003650069,-0.00875977054238,-1.8632635,0.97085835,8.18855275,0.0,-12.1288833618,11.7800111771,-5.92118883133,-0.249116286635,0.132003650069,-0.00875977054238,5.84999990463,-288.177490234,-245.107086182,-2.212814331099999,-5.643148422299998,-4.988244652752,4.2199888228999995,12.128883361799996,-5.9211888313299985,16.0
2018-09-11 18:46:38.000,0.128952013775,-0.113206318517,-0.89577323749,-0.249116286635,0.132003650069,-0.00875977054238,-1.8632635,0.97085835,8.18855275,0.0,-12.1288833618,11.7800111771,-5.92118883133,-0.249116286635,0.132003650069,-0.00875977054238,6.39999961853,-299.35949707,-243.90675354,-2.212814331099999,-5.523149490399998,-4.928244650368,4.1874551773,12.154052734399997,-6.0980157852199985,16.0
2018-09-11 18:46:38.050,0.128952013775,-0.113206318517,-0.89577323749,-0.249116286635,0.132003650069,-0.00875977054238,-1.8632635,0.97085835,8.18855275,0.0,-12.1288833618,11.7800111771,-5.92118883133,-0.249116286635,0.132003650069,-0.00875977054238,6.39999961853,-299.35949707,-243.90675354,-2.212814331099999,-5.523149490399998,-4.928244650368,4.1874551773,12.154052734399997,-6.0980157852199985,16.0
2018-09-11 18:46:38.100,0.128952013775,-0.113206318517,-0.89577323749,-0.249116286635,0.132003650069,-0.00875977054238,-1.8632635,0.97085835,8.18855275,0.0,-12.1288833618,11.7800111771,-5.92118883133,-0.249116286635,0.132003650069,-0.00875977054238,6.98999977112,-299.35949707,-242.672515869,-2.212814331099999,-5.323148727499998,-4.82824468613,4.1874551773,12.154052734399997,-6.0980157852199985,16.0
2018-09-11 18:46:38.150,0.166327064082,-0.0880508426435,-0.891934937184,-0.181512534618,0.0728363469243,-0.0535440929234,-2.06920315,9.25946523283e-16,7.56092715,0.0,-12.2351837158,11.8435153961,-6.36978340149,-0.181512534618,0.0728363469243,-0.0535440929234,6.98999977112,-299.35949707,-242.672515869,-3.255237579300001,-2.5593872070999986,-0.20185267924999994,4.1648168564,12.222001075699996,-6.329547882079998,16.0
2018-09-11 18:46:38.200,0.166327064082,-0.0880508426435,-0.891934937184,-0.181512534618,0.0728363469243,-0.0535440929234,-2.06920315,9.25946523283e-16,7.56092715,0.0,-12.2351837158,11.8435153961,-6.36978340149,-0.181512534618,0.0728363469243,-0.0535440929234,7.59999990463,-299.74041748,-241.438369751,-3.255237579300001,-2.3393878936999997,-0.1218526363400001,4.132287979099999,12.293053626999997,-6.544953346249998,16.0
2018-09-11 18:46:38.250,0.166327064082,-0.0880508426435,-0.891934937184,-0.181512534618,0.0728363469243,-0.0535440929234,-2.06920315,9.25946523283e-16,7.56092715,0.0,-12.2351837158,11.8435153961,-6.36978340149,-0.181512534618,0.0728363469243,-0.0535440929234,7.59999990463,-299.74041748,-241.438369751,-3.255237579300001,-2.3393878936999997,-0.1218526363400001,4.132287979099999,12.293053626999997,-6.544953346249998,16.0
2018-09-11 18:46:38.300,0.166327064082,-0.0880508426435,-0.891934937184,-0.181512534618,0.0728363469243,-0.0535440929234,-2.06920315,9.25946523283e-16,7.56092715,0.0,-12.2351837158,11.8435153961,-6.36978340149,-0.181512534618,0.0728363469243,-0.0535440929234,8.22999954224,-299.74041748,-240.221008301,-3.255237579300001,-2.049386978200001,0.07814729213999994,4.105474471999999,12.351382255599997,-6.712150573729998,16.0
2018-09-11 18:46:38.350,0.166327064082,-0.0880508426435,-0.891934937184,-0.181512534618,0.0728363469243,-0.0535440929234,-2.06920315,9.25946523283e-16,7.56092715,0.0,-12.3932008743,11.9130277634,-6.85866928101,-0.181512534618,0.0728363469243,-0.0535440929234,8.22999954224,-299.74041748,-240.221008301,-3.255237579300001,-2.049386978200001,0.07814729213999994,4.0891618729,12.377673149099996,-6.804217815399999,16.0
2018-09-11 18:46:38.400,0.166327064082,-0.0880508426435,-0.891934937184,-0.181512534618,0.0728363469243,-0.0535440929234,-2.06920315,9.25946523283e-16,7.56092715,0.0,-12.3932008743,11.9130277634,-6.85866928101,-0.181512534618,0.0728363469243,-0.0535440929234,8.88999938965,-316.394226074,-238.969940186,-3.255237579300001,-1.6693878174000005,0.21814727782999999,4.0640707016,12.443056106599997,-6.984204769129998,16.0
2018-09-11 18:46:38.450,0.166327064082,-0.0880508426435,-0.891934937184,-0.181512534618,0.0728363469243,-0.0535440929234,-2.06920315,9.25946523283e-16,7.56092715,0.0,-12.3932008743,11.9130277634,-6.85866928101,-0.181512534618,0.0728363469243,-0.0535440929234,8.88999938965,-316.394226074,-238.969940186,-3.255237579300001,-1.6693878174000005,0.21814727782999999,4.038995742799999,12.467391967799996,-7.061953544619998,16.0
2018-09-11 18:46:38.500,0.166327064082,-0.0880508426435,-0.891934937184,-0.181512534618,0.0728363469243,-0.0535440929234,-2.06920315,9.25946523283e-16,7.56092715,0.0,-12.3932008743,11.9130277634,-6.85866928101,-0.181512534618,0.0728363469243,-0.0535440929234,9.55999946594,-316.394226074,-237.718780518,-3.255237579300001,-1.6693878174000005,0.21814727782999999,4.0289754868,12.477596282999997,-7.1035375595099985,16.0
2018-09-11 18:46:38.550,0.183352624051,-0.0862583930902,-0.886448440988,0.0772076100111,0.0257041845471,0.0159577783197,-2.1770763,-0.00980665,7.46286065,0.0,-12.3932008743,11.9130277634,-6.85866928101,-0.181512534618,0.0728363469243,-0.0535440929234,9.55999946594,-316.394226074,-237.718780518,-3.255237579300001,-1.2693881988999998,0.25814735889000007,4.0074253082,12.522453308099996,-7.245014667509998,16.0
2018-09-11 18:46:38.600,0.183352624051,-0.0862583930902,-0.886448440988,0.0772076100111,0.0257041845471,0.0159577783197,-2.1770763,-0.00980665,7.46286065,0.0,-12.5650863647,12.0506677628,-7.391685009,0.0772076100111,0.0257041845471,0.0159577783197,9.55999946594,-316.394226074,-237.718780518,-4.287929534900002,0.4515190123999986,1.4790124297142,3.9804544448999994,12.543828964199996,-7.316875457759998,16.0
2018-09-11 18:46:38.650,0.183352624051,-0.0862583930902,-0.886448440988,0.0772076100111,0.0257041845471,0.0159577783197,-2.1770763,-0.00980665,7.46286065,0.0,-12.5650863647,12.0506677628,-7.391685009,0.0772076100111,0.0257041845471,0.0159577783197,10.2699995041,-323.65838623,-236.459274292,-4.287929534900002,1.8915195464999996,1.5390123724942,3.9804544448999994,12.543828964199996,-7.316875457759998,16.0
2018-09-11 18:46:38.700,0.183352624051,-0.0862583930902,-0.886448440988,0.0772076100111,0.0257041845471,0.0159577783197,-2.1770763,-0.00980665,7.46286065,0.0,-12.5650863647,12.0506677628,-7.391685009,0.0772076100111,0.0257041845471,0.0159577783197,10.9899997711,-323.65838623,-235.19972229,-4.287929534900002,4.381519317599999,1.5890124440242,3.9205532073999994,12.617354392999996,-7.503793716429998,16.0
2018-09-11 18:46:38.750,0.183352624051,-0.0862583930902,-0.886448440988,0.0772076100111,0.0257041845471,0.0159577783197,-2.1770763,-0.00980665,7.46286065,0.0,-12.5650863647,12.0506677628,-7.391685009,0.0772076100111,0.0257041845471,0.0159577783197,10.9899997711,-323.65838623,-235.19972229,-4.287929534900002,4.381519317599999,1.5890124440242,3.8429803848000006,12.675458908099996,-7.5944266319299985,16.0
2018-09-11 18:46:38.800,0.183352624051,-0.0862583930902,-0.886448440988,0.0772076100111,0.0257041845471,0.0159577783197,-2.1770763,-0.00980665,7.46286065,0.0,-12.5650863647,12.0506677628,-7.391685009,0.0772076100111,0.0257041845471,0.0159577783197,11.7299995422,-344.124023438,-233.931762695,-4.287929534900002,6.7715206146,1.5190123915642,3.8101825714000004,12.710392951999996,-7.640084266659998,16.0
2018-09-11 18:46:38.850,0.183352624051,-0.0862583930902,-0.886448440988,0.0772076100111,0.0257041845471,0.0159577783197,-2.1770763,-0.00980665,7.46286065,0.0,-12.7702102661,12.2418222427,-7.69278764725,0.0772076100111,0.0257041845471,0.0159577783197,11.7299995422,-344.124023438,-233.931762695,-4.287929534900002,6.7715206146,1.5190123915642,3.7785501480000008,12.754138946499996,-7.677625656129998,16.0
2018-09-11 18:46:38.900,0.183352624051,-0.0862583930902,-0.886448440988,0.0772076100111,0.0257041845471,0.0159577783197,-2.1770763,-0.00980665,7.46286065,0.0,-12.7702102661,12.2418222427,-7.69278764725,0.0772076100111,0.0257041845471,0.0159577783197,12.4799995422,-344.124023438,-232.655319214,-4.287929534900002,9.251519203199999,1.5290123820342,3.7150077820000007,12.797833442699996,-7.716288089749998,16.0
2018-09-11 18:46:38.950,0.183352624051,-0.0862583930902,-0.886448440988,0.0772076100111,0.0257041845471,0.0159577783197,-2.1770763,-0.00980665,7.46286065,0.0,-12.7702102661,12.2418222427,-7.69278764725,0.0772076100111,0.0257041845471,0.0159577783197,12.4799995422,-344.124023438,-232.655319214,-4.287929534900002,9.251519203199999,1.5290123820342,3.7150077820000007,12.797833442699996,-7.716288089749998,16.0
2018-09-11 18:46:39.000,0.183352624051,-0.0862583930902,-0.886448440988,0.0772076100111,0.0257041845471,0.0159577783197,-2.1770763,-0.00980665,7.46286065,0.0,-12.7702102661,12.2418222427,-7.69278764725,0.0772076100111,0.0257041845471,0.0159577783197,12.4799995422,-344.124023438,-232.655319214,-4.287929534900002,9.251519203199999,1.5290123820342,3.638811111500001,12.862998008699996,-7.775585174559998,16.0
2018-09-11 18:46:39.050,0.174220460476,-0.101124652115,-0.890801406814,-0.0312567874789,-0.0783939287066,0.0521790608764,-2.28494945,0.6276256,9.0417313,0.0,-12.7702102661,12.2418222427,-7.69278764725,0.0772076100111,0.0257041845471,0.0159577783197,13.25,-362.013244629,-231.35345459,-2.654842376700003,11.396839141900001,-0.89336919784,3.5777740479,12.956786155699996,-7.799400806429999,16.0
2018-09-11 18:46:39.100,0.174220460476,-0.101124652115,-0.890801406814,-0.0312567874789,-0.0783939287066,0.0521790608764,-2.28494945,0.6276256,9.0417313,0.0,-13.00922966,12.4626588821,-7.78483247757,-0.0312567874789,-0.0783939287066,0.0521790608764,13.25,-362.013244629,-231.35345459,-2.654842376700003,11.396839141900001,-0.89336919784,3.5583782196,12.982941627499997,-7.792746067049999,16.0
2018-09-11 18:46:39.150,0.174220460476,-0.101124652115,-0.890801406814,-0.0312567874789,-0.0783939287066,0.0521790608764,-2.28494945,0.6276256,9.0417313,0.0,-13.00922966,12.4626588821,-7.78483247757,-0.0312567874789,-0.0783939287066,0.0521790608764,14.0099992752,-362.013244629,-230.068588257,-2.654842376700003,13.83683872225,-0.75336921215,3.5211753844999993,13.037929534899996,-7.776448249819998,16.0
2018-09-11 18:46:39.200,0.174220460476,-0.101124652115,-0.890801406814,-0.0312567874789,-0.0783939287066,0.0521790608764,-2.28494945,0.6276256,9.0417313,0.0,-13.00922966,12.4626588821,-7.78483247757,-0.0312567874789,-0.0783939287066,0.0521790608764,14.0099992752,-362.013244629,-230.068588257,-2.654842376700003,13.83683872225,-0.75336921215,3.4296112061000006,13.115179061899996,-7.7159929275499985,16.0
2018-09-11 18:46:39.250,0.174220460476,-0.101124652115,-0.890801406814,-0.0312567874789,-0.0783939287066,0.0521790608764,-2.28494945,0.6276256,9.0417313,0.0,-13.00922966,12.4626588821,-7.78483247757,-0.0312567874789,-0.0783939287066,0.0521790608764,14.7699995041,-384.970275879,-228.749725342,-2.654842376700003,16.16683864595,-0.73336923122,3.3619995117000006,13.218684196499996,-7.617754936219998,16.0
2018-09-11 18:46:39.300,0.174220460476,-0.101124652115,-0.890801406814,-0.0312567874789,-0.0783939287066,0.0521790608764,-2.28494945,0.6276256,9.0417313,0.0,-13.00922966,12.4626588821,-7.78483247757,-0.0312567874789,-0.0783939287066,0.0521790608764,14.7699995041,-384.970275879,-228.749725342,-2.654842376700003,16.16683864595,-0.7233692407599999,3.3014097214000007,13.298895835899996,-7.520750045779998,16.0
2018-09-11 18:46:39.350,0.159533025313,-0.0786778430196,-0.895365834769,-0.134852200747,-0.191816061735,-0.0623387098312,-1.95152335,0.8433719,12.50347875,0.0,-13.331776619,12.7332706451,-7.46709442139,-0.0312567874789,-0.0783939287066,0.0521790608764,15.5199995041,-384.970275879,-227.439498901,-2.9060478210000014,15.71263170237,1.209956049924,3.2106523514000003,13.420068740799996,-7.340971946719998,16.0
2018-09-11 18:46:39.400,0.159533025313,-0.0786778430196,-0.895365834769,-0.134852200747,-0.191816061735,-0.0623387098312,-1.95152335,0.8433719,12.50347875,0.0,-13.331776619,12.7332706451,-7.46709442139,-0.0312567874789,-0.0783939287066,0.0521790608764,15.5199995041,-384.970275879,-227.439498901,-2.9060478210000014,15.71263170237,1.209956049924,3.1372776030999994,13.496984481799997,-7.217765331269998,16.0
2018-09-11 18:46:39.450,0.159533025313,-0.0786778430196,-0.895365834769,-0.134852200747,-0.191816061735,-0.0623387098312,-1.95152335,0.8433719,12.50347875,0.0,-13.331776619,12.7332706451,-7.46709442139,-0.0312567874789,-0.0783939287066,0.0521790608764,15.5199995041,-384.970275879,-227.439498901,-2.9060478210000014,15.71263170237,1.209956049924,3.1372776030999994,13.496984481799997,-7.217765331269998,16.0
2018-09-11 18:46:39.500,0.159533025313,-0.0786778430196,-0.895365834769,-0.134852200747,-0.191816061735,-0.0623387098312,-1.95152335,0.8433719,12.50347875,0.0,-13.331776619,12.7332706451,-7.46709442139,-0.0312567874789,-0.0783939287066,0.0521790608764,16.2399997711,-412.636169434,-226.095428467,-2.9060478210000014,17.77263164515,1.349956035614,2.9839715958,13.702130317699996,-6.866065978999998,16.0
2018-09-11 18:46:39.550,0.159533025313,-0.0786778430196,-0.895365834769,-0.134852200747,-0.191816061735,-0.0623387098312,-1.95152335,0.8433719,12.50347875,0.0,-13.8679866791,13.1547422409,-6.53806972504,-0.134852200747,-0.191816061735,-0.0623387098312,16.9400005341,-412.636169434,-224.726043701,-2.9060478210000014,19.722631692837,1.5399560928339997,2.8888673782000005,13.826157569899996,-6.6426305770899985,16.0
2018-09-11 18:46:39.600,0.159533025313,-0.0786778430196,-0.895365834769,-0.134852200747,-0.191816061735,-0.0623387098312,-1.95152335,0.8433719,12.50347875,0.0,-13.8679866791,13.1547422409,-6.53806972504,-0.134852200747,-0.191816061735,-0.0623387098312,16.9400005341,-412.636169434,-224.726043701,-2.9060478210000014,19.722631692837,1.549956083294,2.8148727417000003,13.912015914899996,-6.4540848731999985,16.0
2018-09-11 18:46:39.650,0.159533025313,-0.0786778430196,-0.895365834769,-0.134852200747,-0.191816061735,-0.0623387098312,-1.95152335,0.8433719,12.50347875,0.0,-13.8679866791,13.1547422409,-6.53806972504,-0.134852200747,-0.191816061735,-0.0623387098312,17.5799999237,-461.352172852,-223.348175049,-2.9060478210000014,21.4826316833,1.699955940244,2.6893997192000008,14.040310859699996,-6.127436637879998,16.0
2018-09-11 18:46:39.700,0.159533025313,-0.0786778430196,-0.895365834769,-0.134852200747,-0.191816061735,-0.0623387098312,-1.95152335,0.8433719,12.50347875,0.0,-13.8679866791,13.1547422409,-6.53806972504,-0.134852200747,-0.191816061735,-0.0623387098312,17.5799999237,-461.352172852,-223.348175049,-2.9060478210000014,21.4826316833,1.699955940244,2.612636566200001,14.115283966099996,-5.910475730899998,16.0
2018-09-11 18:46:39.750,0.113821271628,-0.0588100474474,-0.898116202501,0.074221521616,-0.302595049143,-0.00654804240912,-1.0591182,0.2157463,15.54354025,0.0,-13.8679866791,13.1547422409,-6.53806972504,-0.134852200747,-0.191816061735,-0.0623387098312,18.1999988556,-461.352172852,-221.927963257,-4.121761321999998,17.320199251200002,1.78523439169,2.4902992248999993,14.230299949599997,-5.564043998719998,16.0
2018-09-11 18:46:39.800,0.113821271628,-0.0588100474474,-0.898116202501,0.074221521616,-0.302595049143,-0.00654804240912,-1.0591182,0.2157463,15.54354025,0.0,-14.3444051743,13.6332406998,-5.18710851669,0.074221521616,-0.302595049143,-0.00654804240912,18.1999988556,-461.352172852,-221.927963257,-4.121761321999998,17.320199251200002,1.78523439169,2.400999069199999,14.308152198799997,-5.308859825129998,16.0
2018-09-11 18:46:39.850,0.113821271628,-0.0588100474474,-0.898116202501,0.074221521616,-0.302595049143,-0.00654804240912,-1.0591182,0.2157463,15.54354025,0.0,-14.3444051743,13.6332406998,-5.18710851669,0.074221521616,-0.302595049143,-0.00654804240912,18.1999988556,-461.352172852,-221.927963257,-4.121761321999998,17.320199251200002,1.78523439169,2.400999069199999,14.308152198799997,-5.308859825129998,16.0
2018-09-11 18:46:39.900,0.113821271628,-0.0588100474474,-0.898116202501,0.074221521616,-0.302595049143,-0.00654804240912,-1.0591182,0.2157463,15.54354025,0.0,-14.3444051743,13.6332406998,-5.18710851669,0.074221521616,-0.302595049143,-0.00654804240912,18.7399997711,-510.507568359,-220.490936279,-4.121761321999998,18.7101993561,1.74523442984,2.202883720399999,14.492554664599997,-4.625230789179998,16.0
2018-09-11 18:46:39.950,0.113821271628,-0.0588100474474,-0.898116202501,0.074221521616,-0.302595049143,-0.00654804240912,-1.0591182,0.2157463,15.54354025,0.0,-14.3444051743,13.6332406998,-5.18710851669,0.074221521616,-0.302595049143,-0.00654804240912,18.7399997711,-510.507568359,-220.490936279,-4.121761321999998,18.7101993561,1.74523442984,2.202883720399999,14.492554664599997,-4.625230789179998,16.0
2018-09-11 18:46:40.000,0.113821271628,-0.0588100474474,-0.898116202501,0.074221521616,-0.302595049143,-0.00654804240912,-1.0591182,0.2157463,15.54354025,0.0,-14.3444051743,13.6332406998,-5.18710851669,0.074221521616,-0.302595049143,-0.00654804240912,19.2299995422,-510.507568359,-219.070678711,-4.121761321999998,19.90019941332,1.70523446798,2.0375156403000005,14.665882110599997,-3.896188974379998,16.0
2018-09-11 18:46:40.050,0.113821271628,-0.0588100474474,-0.898116202501,0.074221521616,-0.302595049143,-0.00654804240912,-1.0591182,0.2157463,15.54354025,0.0,-14.3444051743,13.6332406998,-5.18710851669,0.074221521616,-0.302595049143,-0.00654804240912,19.6399993896,-569.756347656,-217.608306885,-4.121761321999998,20.89019918444,1.74523442984,2.0375156403000005,14.665882110599997,-3.896188974379998,16.0
2018-09-11 18:46:40.100,0.113821271628,-0.0588100474474,-0.898116202501,0.074221521616,-0.302595049143,-0.00654804240912,-1.0591182,0.2157463,15.54354025,0.0,-14.8174657822,14.1030254364,-3.0888273716,0.074221521616,-0.302595049143,-0.00654804240912,19.9899997711,-569.756347656,-216.128997803,-4.121761321999998,21.670199394249998,1.7952343821499999,1.8969745636000006,14.817465782199996,-3.088827371599998,16.0
2018-09-11 18:46:40.150,0.0577034260431,-0.0365362526603,-0.908091661838,-0.0755302608013,-0.337747603655,0.080401442945,-0.32361945,0.7256921,18.05404265,0.0,-14.8174657822,14.1030254364,-3.0888273716,0.074221521616,-0.302595049143,-0.00654804240912,19.9899997711,-569.756347656,-216.128997803,-2.856048584,14.71809768677,1.3000811338399998,1.8282995224,14.939837455699996,-2.4627208709699984,16.0
2018-09-11 18:46:40.200,0.0577034260431,-0.0365362526603,-0.908091661838,-0.0755302608013,-0.337747603655,0.080401442945,-0.32361945,0.7256921,18.05404265,0.0,-14.8174657822,14.1030254364,-3.0888273716,0.074221521616,-0.302595049143,-0.00654804240912,20.25,-618.815429688,-214.615753174,-2.856048584,15.27809762955,1.57008111477,1.8083314896000005,14.996726989699997,-2.159614562989998,16.0
2018-09-11 18:46:40.250,0.0577034260431,-0.0365362526603,-0.908091661838,-0.0755302608013,-0.337747603655,0.080401442945,-0.32361945,0.7256921,18.05404265,0.0,-14.8174657822,14.1030254364,-3.0888273716,0.074221521616,-0.302595049143,-0.00654804240912,20.25,-618.815429688,-214.615753174,-2.856048584,15.27809762955,1.58008110523,1.7882137299000007,15.081139564499997,-1.692841529849998,16.0
2018-09-11 18:46:40.300,0.0577034260431,-0.0365362526603,-0.908091661838,-0.0755302608013,-0.337747603655,0.080401442945,-0.32361945,0.7256921,18.05404265,0.0,-15.1312551498,14.2175855637,-1.39613223076,-0.0755302608013,-0.337747603655,0.080401442945,20.25,-618.815429688,-214.615753174,-2.856048584,15.27809762955,1.58008110523,1.7828378676999996,15.105589866599997,-1.545630216599998,16.0
2018-09-11 18:46:40.350,0.0577034260431,-0.0365362526603,-0.908091661838,-0.0755302608013,-0.337747603655,0.080401442945,-0.32361945,0.7256921,18.05404265,0.0,-15.1312551498,14.2175855637,-1.39613223076,-0.0755302608013,-0.337747603655,0.080401442945,20.4499988556,-618.815429688,-213.119552612,-2.856048584,15.70809745789,1.96008121967,1.7998771667,15.183295249899997,-1.082918763159998,16.0
2018-09-11 18:46:40.400,0.0577034260431,-0.0365362526603,-0.908091661838,-0.0755302608013,-0.337747603655,0.080401442945,-0.32361945,0.7256921,18.05404265,0.0,-15.1312551498,14.2175855637,-1.39613223076,-0.0755302608013,-0.337747603655,0.080401442945,20.4499988556,-618.815429688,-213.119552612,-2.856048584,15.70809745789,1.96008121967,1.805598259,15.205223083499996,-0.943114757537998,16.0
2018-09-11 18:46:40.450,0.0577034260431,-0.0365362526603,-0.908091661838,-0.0755302608013,-0.337747603655,0.080401442945,-0.32361945,0.7256921,18.05404265,0.0,-15.1312551498,14.2175855637,-1.39613223076,-0.0755302608013,-0.337747603655,0.080401442945,20.5699996948,-654.615600586,-211.60635376,-2.856048584,15.938097000119999,2.5200811624500004,1.8209066391000004,15.268015861499997,-0.503395617007998,16.0
2018-09-11 18:46:40.500,0.0577034260431,-0.0365362526603,-0.908091661838,-0.0755302608013,-0.337747603655,0.080401442945,-0.32361945,0.7256921,18.05404265,0.0,-15.1312551498,14.2175855637,-1.39613223076,-0.0755302608013,-0.337747603655,0.080401442945,20.5699996948,-654.615600586,-211.60635376,-2.856048584,15.938097000119999,2.5200811624500004,1.8378019332999997,15.313870429999996,-0.24268607795199804,16.0
2018-09-11 18:46:40.550,0.0577034260431,-0.0365362526603,-0.908091661838,-0.0755302608013,-0.337747603655,0.080401442945,-0.32361945,0.7256921,18.05404265,0.0,-15.1312551498,14.2175855637,-1.39613223076,-0.0755302608013,-0.337747603655,0.080401442945,20.5699996948,-654.615600586,-211.60635376,-2.856048584,15.938097000119999,2.5200811624500004,1.8378019332999997,15.313870429999996,-0.24268607795199804,16.0
2018-09-11 18:46:40.600,0.0577034260431,-0.0365362526603,-0.908091661838,-0.0755302608013,-0.337747603655,0.080401442945,-0.32361945,0.7256921,18.05404265,0.0,-15.4101810455,14.0460968018,0.68928861618,-0.0755302608013,-0.337747603655,0.080401442945,20.6199989319,-654.615600586,-210.059432983,-2.856048584,16.058097839349998,3.06008112431,1.9377822875999993,15.397453308099996,0.566003680229002,16.0
2018-09-11 18:46:40.650,0.0577034260431,-0.0365362526603,-0.908091661838,-0.0755302608013,-0.337747603655,0.080401442945,-0.32361945,0.7256921,18.05404265,0.0,-15.4101810455,14.0460968018,0.68928861618,-0.0755302608013,-0.337747603655,0.080401442945,20.6000003815,-666.282836914,-208.537887573,-2.856048584,15.98809719086,3.5900813341099997,2.011941909800001,15.428731918299997,0.964923858643002,16.0
2018-09-11 18:46:40.700,-0.00649772469933,0.0139175672535,-0.912162859318,0.0371370390058,-0.245101690292,-0.007662858814,0.3726527,0.28439285,16.60265845,0.0,-15.4101810455,14.0460968018,0.68928861618,-0.0755302608013,-0.337747603655,0.080401442945,20.6000003815,-666.282836914,-208.537887573,-2.344573974600003,6.8975481987,5.82020115852,2.0433807372999997,15.435552596999996,1.227367520330002,16.0
2018-09-11 18:46:40.750,-0.00649772469933,0.0139175672535,-0.912162859318,0.0371370390058,-0.245101690292,-0.007662858814,0.3726527,0.28439285,16.60265845,0.0,-15.4101810455,14.0460968018,0.68928861618,-0.0755302608013,-0.337747603655,0.080401442945,20.5399990082,-666.282836914,-206.9740448,-2.344573974600003,6.69754838943,6.3402011394499995,2.1491279601999995,15.452408790599996,1.6973266601600019,16.0
2018-09-11 18:46:40.800,-0.00649772469933,0.0139175672535,-0.912162859318,0.0371370390058,-0.245101690292,-0.007662858814,0.3726527,0.28439285,16.60265845,0.0,-15.4524087906,13.8508720398,1.69732666016,0.0371370390058,-0.245101690292,-0.007662858814,20.5399990082,-666.282836914,-206.9740448,-2.344573974600003,6.69754838943,6.3402011394499995,2.1491279601999995,15.452408790599996,1.6973266601600019,16.0
2018-09-11 18:46:40.850,-0.00649772469933,0.0139175672535,-0.912162859318,0.0371370390058,-0.245101690292,-0.007662858814,0.3726527,0.28439285,16.60265845,0.0,-15.4524087906,13.8508720398,1.69732666016,0.0371370390058,-0.245101690292,-0.007662858814,20.3899993896,-678.856445312,-205.444015503,-2.344573974600003,6.35754871368,6.87020087242,2.254020690899999,15.438508987399997,2.164364576340002,16.0
2018-09-11 18:46:40.900,-0.00649772469933,0.0139175672535,-0.912162859318,0.0371370390058,-0.245101690292,-0.007662858814,0.3726527,0.28439285,16.60265845,0.0,-15.4524087906,13.8508720398,1.69732666016,0.0371370390058,-0.245101690292,-0.007662858814,20.2199993134,-678.856445312,-203.896957397,-2.344573974600003,6.0275483131400005,7.21020102501,2.3149557113999997,15.422179222099997,2.327771663670002,16.0
2018-09-11 18:46:40.950,-0.0377054156646,0.016945481547,-0.912143021589,0.154674291611,-0.163280040026,0.0270991399884,0.38245935,0.08825985,13.89602305,0.0,-15.4524087906,13.8508720398,1.69732666016,0.0371370390058,-0.245101690292,-0.007662858814,20.2199993134,-678.856445312,-203.896957397,-2.344573974600003,6.01754856109,7.21020102501,2.3550882339,15.397306442299996,2.497742176060002,16.0
2018-09-11 18:46:41.000,-0.0377054156646,0.016945481547,-0.912143021589,0.154674291611,-0.163280040026,0.0270991399884,0.38245935,0.08825985,13.89602305,0.0,-15.4524087906,13.8508720398,1.69732666016,0.0371370390058,-0.245101690292,-0.007662858814,20.2199993134,-678.856445312,-203.896957397,-2.344573974600003,6.01754856109,7.21020102501,2.3550882339,15.397306442299996,2.497742176060002,16.0
2018-09-11 18:46:41.050,-0.0377054156646,0.016945481547,-0.912143021589,0.154674291611,-0.163280040026,0.0270991399884,0.38245935,0.08825985,13.89602305,0.0,-15.3404798508,13.5327033997,2.77204322815,0.154674291611,-0.163280040026,0.0270991399884,19.9899997711,-664.672851562,-202.358505249,-2.1745758057000018,2.1816492080599996,6.23932621534565,2.5107564926000006,15.302897453299996,2.910067319870002,16.0
2018-09-11 18:46:41.100,-0.0377054156646,0.016945481547,-0.912143021589,0.154674291611,-0.163280040026,0.0270991399884,0.38245935,0.08825985,13.89602305,0.0,-15.3404798508,13.5327033997,2.77204322815,0.154674291611,-0.163280040026,0.0270991399884,19.9899997711,-664.672851562,-202.358505249,-2.1745758057000018,2.1816492080599996,6.23932621534565,2.5107564926000006,15.302897453299996,2.910067319870002,16.0
2018-09-11 18:46:41.150,-0.0377054156646,0.016945481547,-0.912143021589,0.154674291611,-0.163280040026,0.0270991399884,0.38245935,0.08825985,13.89602305,0.0,-15.3404798508,13.5327033997,2.77204322815,0.154674291611,-0.163280040026,0.0270991399884,19.7399997711,-664.672851562,-200.820037842,-2.1745758057000018,1.6916489601099993,6.38932583387565,2.6125583649,15.220627784699996,3.1647436618800016,16.0
2018-09-11 18:46:41.200,-0.0377054156646,0.016945481547,-0.912143021589,0.154674291611,-0.163280040026,0.0270991399884,0.38245935,0.08825985,13.89602305,0.0,-15.3404798508,13.5327033997,2.77204322815,0.154674291611,-0.163280040026,0.0270991399884,19.7399997711,-664.672851562,-200.820037842,-2.1745758057000018,1.6916489601099993,6.38932583387565,2.7094230651999993,15.146079063399997,3.3454487323800017,16.0
2018-09-11 18:46:41.250,-0.0377054156646,0.016945481547,-0.912143021589,0.154674291611,-0.163280040026,0.0270991399884,0.38245935,0.08825985,13.89602305,0.0,-15.3404798508,13.5327033997,2.77204322815,0.154674291611,-0.163280040026,0.0270991399884,19.4599990845,-642.756286621,-199.298431396,-2.1745758057000018,1.13164901733,6.519325948315649,2.7820291518999998,15.064059257499997,3.516834974290002,16.0
2018-09-11 18:46:41.300,-0.0377054156646,0.016945481547,-0.912143021589,0.154674291611,-0.163280040026,0.0270991399884,0.38245935,0.08825985,13.89602305,0.0,-15.0640592575,13.2179708481,3.51683497429,0.154674291611,-0.163280040026,0.0270991399884,19.4599990845,-642.756286621,-199.298431396,-2.1745758057000018,1.13164901733,6.50932619627565,2.8080015181999993,15.038919448899996,3.5647702217100017,16.0
2018-09-11 18:46:41.350,-0.0377054156646,0.016945481547,-0.912143021589,0.154674291611,-0.163280040026,0.0270991399884,0.38245935,0.08825985,13.89602305,0.0,-15.0640592575,13.2179708481,3.51683497429,0.154674291611,-0.163280040026,0.0270991399884,19.1599998474,-642.756286621,-197.819137573,-2.1745758057000018,0.54164886474,6.47932598646565,2.9037055969,14.950508117699997,3.709547519680002,16.0
2018-09-11 18:46:41.400,-0.0768241370346,-0.000673933454977,-0.914064524252,0.0918229296803,-0.0656351149082,0.00143518159166,0.2157463,0.40207265,12.11121275,0.0,-15.0640592575,13.2179708481,3.51683497429,0.154674291611,-0.163280040026,0.0270991399884,19.1599998474,-642.756286621,-197.819137573,-2.1745758057000018,0.54164886474,6.47932598646565,2.9613790512,14.894517898599997,3.792359352110002,16.0
2018-09-11 18:46:41.450,-0.0768241370346,-0.000673933454977,-0.914064524252,0.0918229296803,-0.0656351149082,0.00143518159166,0.2157463,0.40207265,12.11121275,0.0,-15.0640592575,13.2179708481,3.51683497429,0.154674291611,-0.163280040026,0.0270991399884,18.8400001526,-613.638671875,-196.339736938,-1.336277008099998,-3.4225044250499987,2.88575029373,3.0447263717999995,14.802112579299996,3.884093284610002,16.0
2018-09-11 18:46:41.500,-0.0768241370346,-0.000673933454977,-0.914064524252,0.0918229296803,-0.0656351149082,0.00143518159166,0.2157463,0.40207265,12.11121275,0.0,-15.0640592575,13.2179708481,3.51683497429,0.154674291611,-0.163280040026,0.0270991399884,18.5100002289,-613.638671875,-194.885803223,-1.336277008099998,-4.0325045585699995,2.82575035095,3.0447263717999995,14.802112579299996,3.884093284610002,16.0
2018-09-11 18:46:41.550,-0.0768241370346,-0.000673933454977,-0.914064524252,0.0918229296803,-0.0656351149082,0.00143518159166,0.2157463,0.40207265,12.11121275,0.0,-14.6392126083,12.8393955231,3.95831513405,0.0918229296803,-0.0656351149082,0.00143518159166,18.5100002289,-613.638671875,-194.885803223,-1.336277008099998,-4.0325045585699995,2.82575035095,3.1606044768999997,14.639212608299996,3.9583151340500016,16.0
2018-09-11 18:46:41.600,-0.0768241370346,-0.000673933454977,-0.914064524252,0.0918229296803,-0.0656351149082,0.00143518159166,0.2157463,0.40207265,12.11121275,0.0,-14.6392126083,12.8393955231,3.95831513405,0.0918229296803,-0.0656351149082,0.00143518159166,18.5100002289,-613.638671875,-194.885803223,-1.336277008099998,-4.022504329679999,2.82575035095,3.2085475922000004,14.574877738999996,3.9716975688900016,16.0
2018-09-11 18:46:41.650,-0.0768241370346,-0.000673933454977,-0.914064524252,0.0918229296803,-0.0656351149082,0.00143518159166,0.2157463,0.40207265,12.11121275,0.0,-14.6392126083,12.8393955231,3.95831513405,0.0918229296803,-0.0656351149082,0.00143518159166,18.1499996185,-591.047302246,-193.423431396,-1.336277008099998,-4.672504425049999,2.6157503128000004,3.2970409393000004,14.436264038099996,3.975822210310002,16.0
2018-09-11 18:46:41.700,-0.0768241370346,-0.000673933454977,-0.914064524252,0.0918229296803,-0.0656351149082,0.00143518159166,0.2157463,0.40207265,12.11121275,0.0,-14.6392126083,12.8393955231,3.95831513405,0.0918229296803,-0.0656351149082,0.00143518159166,17.8099994659,-591.047302246,-192.003219604,-1.336277008099998,-5.2625043392199995,2.39575004577,3.3378162384000003,14.364072799699997,3.973387002940002,16.0
2018-09-11 18:46:41.750,-0.0768241370346,-0.000673933454977,-0.914064524252,0.0918229296803,-0.0656351149082,0.00143518159166,0.2157463,0.40207265,12.11121275,0.0,-14.2444162369,12.6078720093,3.96393656731,0.0918229296803,-0.0656351149082,0.00143518159166,17.8099994659,-591.047302246,-192.003219604,-1.336277008099998,-5.2625043392199995,2.39575004577,3.3783292770000006,14.285309791599996,3.9686987400100016,16.0
2018-09-11 18:46:41.800,-0.0937496206737,-0.0191995588538,-0.91073269786,0.0853365510702,-0.00542278075591,-0.0366598628461,-0.1176798,0.2157463,9.9831697,0.0,-14.2444162369,12.6078720093,3.96393656731,0.0918229296803,-0.0656351149082,0.00143518159166,17.4599990845,-548.945617676,-190.591552734,-2.109428405800003,-6.77620220185,-0.7907667159999994,3.4472970963,14.126453399699997,3.9369208812700016,16.0
2018-09-11 18:46:41.850,-0.0937496206737,-0.0191995588538,-0.91073269786,0.0853365510702,-0.00542278075591,-0.0366598628461,-0.1176798,0.2157463,9.9831697,0.0,-14.2444162369,12.6078720093,3.96393656731,0.0918229296803,-0.0656351149082,0.00143518159166,17.4599990845,-548.945617676,-190.591552734,-2.109428405800003,-6.77620220185,-0.7907667159999994,3.4472970963,14.126453399699997,3.9369208812700016,16.0
2018-09-11 18:46:41.900,-0.0937496206737,-0.0191995588538,-0.91073269786,0.0853365510702,-0.00542278075591,-0.0366598628461,-0.1176798,0.2157463,9.9831697,0.0,-14.2444162369,12.6078720093,3.96393656731,0.0918229296803,-0.0656351149082,0.00143518159166,17.4599990845,-548.945617676,-190.591552734,-2.109428405800003,-6.77620220185,-0.7907667159999994,3.5063858032000006,14.012948989899996,3.912989139560002,16.0
2018-09-11 18:46:41.950,-0.0937496206737,-0.0191995588538,-0.91073269786,0.0853365510702,-0.00542278075591,-0.0366598628461,-0.1176798,0.2157463,9.9831697,0.0,-14.2444162369,12.6078720093,3.96393656731,0.0918229296803,-0.0656351149082,0.00143518159166,17.109998703,-548.945617676,-189.188293457,-2.109428405800003,-7.38620209694,-1.1307668685899994,3.5627260207999996,13.900606155399997,3.8777515888200016,16.0
2018-09-11 18:46:42.000,-0.0937496206737,-0.0191995588538,-0.91073269786,0.0853365510702,-0.00542278075591,-0.0366598628461,-0.1176798,0.2157463,9.9831697,0.0,-13.8262052536,12.4041471481,3.84495377541,0.0853365510702,-0.00542278075591,-0.0366598628461,17.109998703,-548.945617676,-189.188293457,-2.109428405800003,-7.37620210648,-1.1307668685899994,3.5958528519,13.826205253599996,3.844953775410002,16.0
2018-09-11 18:46:42.050,-0.0937496206737,-0.0191995588538,-0.91073269786,0.0853365510702,-0.00542278075591,-0.0366598628461,-0.1176798,0.2157463,9.9831697,0.0,-13.8262052536,12.4041471481,3.84495377541,0.0853365510702,-0.00542278075591,-0.0366598628461,16.7700004578,-521.305297852,-187.818893433,-2.109428405800003,-7.976202070718,-1.48076677322,3.6347579955999993,13.712034225499997,3.7777490615800016,16.0
2018-09-11 18:46:42.100,-0.0937496206737,-0.0191995588538,-0.91073269786,0.0853365510702,-0.00542278075591,-0.0366598628461,-0.1176798,0.2157463,9.9831697,0.0,-13.8262052536,12.4041471481,3.84495377541,0.0853365510702,-0.00542278075591,-0.0366598628461,16.7700004578,-521.305297852,-187.818893433,-2.109428405800003,-7.976202070718,-1.48076677322,3.6656599045,13.643628352099874,3.711410522460002,16.0
2018-09-11 18:46:42.150,-0.0937496206737,-0.0191995588538,-0.91073269786,0.0853365510702,-0.00542278075591,-0.0366598628461,-0.1176798,0.2157463,9.9831697,0.0,-13.8262052536,12.4041471481,3.84495377541,0.0853365510702,-0.00542278075591,-0.0366598628461,16.4400005341,-521.305297852,-186.466293335,-2.109428405800003,-8.516202062373,-1.8807668685899994,3.7132968903000005,13.504767649499874,3.5823793411300016,16.0
2018-09-11 18:46:42.200,-0.094488867468,-0.0358773120159,-0.907952596019,0.022085910663,0.0535590685904,-0.0543515309691,-0.12748645,0.5099458,8.62004535,0.0,-13.8262052536,12.4041471481,3.84495377541,0.0853365510702,-0.00542278075591,-0.0366598628461,16.1199989319,-480.848876953,-185.147613525,-2.109428405800003,-8.996202047918901,-2.2907667159999994,3.7132968903000005,13.504767649499874,3.5823793411300016,16.0
2018-09-11 18:46:42.250,-0.094488867468,-0.0358773120159,-0.907952596019,0.022085910663,0.0535590685904,-0.0543515309691,-0.12748645,0.5099458,8.62004535,0.0,-13.3755435944,12.2321100235,3.44661569595,0.022085910663,0.0535590685904,-0.0543515309691,16.1199989319,-480.848876953,-185.147613525,-2.8497314453000016,-8.2467513643189,-4.12866401672,3.7678899764999993,13.375548594399874,3.4466156959500016,16.0
2018-09-11 18:46:42.300,-0.094488867468,-0.0358773120159,-0.907952596019,0.022085910663,0.0535590685904,-0.0543515309691,-0.12748645,0.5099458,8.62004535,0.0,-13.3755435944,12.2321100235,3.44661569595,0.022085910663,0.0535590685904,-0.0543515309691,15.8099994659,-480.848876953,-183.820480347,-2.8497314453000016,-8.726751327513,-4.5086638927400005,3.8049354553000008,13.234750025599874,3.320294618610002,16.0
2018-09-11 18:46:42.350,-0.094488867468,-0.0358773120159,-0.907952596019,0.022085910663,0.0535590685904,-0.0543515309691,-0.12748645,0.5099458,8.62004535,0.0,-13.3755435944,12.2321100235,3.44661569595,0.022085910663,0.0535590685904,-0.0543515309691,15.8099994659,-480.848876953,-183.820480347,-2.8497314453000016,-8.726751327513,-4.5086638927400005,3.8286523818999996,13.173899155119791,3.252405166630002,16.0
2018-09-11 18:46:42.400,-0.094488867468,-0.0358773120159,-0.907952596019,0.022085910663,0.0535590685904,-0.0543515309691,-0.12748645,0.5099458,8.62004535,0.0,-13.3755435944,12.2321100235,3.44661569595,0.022085910663,0.0535590685904,-0.0543515309691,15.5199995041,-441.358001709,-182.520446777,-2.8497314453000016,-8.726751327513,-4.5086638927400005,3.838933944700001,13.14536712691979,3.2164988517800017,16.0
2018-09-11 18:46:42.450,-0.094488867468,-0.0358773120159,-0.907952596019,0.022085910663,0.0535590685904,-0.0543515309691,-0.12748645,0.5099458,8.62004535,0.0,-13.0060739517,12.1239738464,3.09086537361,0.022085910663,0.0535590685904,-0.0543515309691,15.5199995041,-441.358001709,-182.520446777,-2.8497314453000016,-9.176751315592,-4.888664007180001,3.8624877929999997,13.041007500119791,3.121747493740002,16.0
2018-09-11 18:46:42.500,-0.094488867468,-0.0358773120159,-0.907952596019,0.022085910663,0.0535590685904,-0.0543515309691,-0.12748645,0.5099458,8.62004535,0.0,-13.0060739517,12.1239738464,3.09086537361,0.022085910663,0.0535590685904,-0.0543515309691,15.5199995041,-441.358001709,-182.520446777,-2.8497314453000016,-9.176751315592,-4.888664007180001,3.8908424377,12.98218582201979,3.0611782074000016,16.0
2018-09-11 18:46:42.550,-0.094488867468,-0.0358773120159,-0.907952596019,0.022085910663,0.0535590685904,-0.0543515309691,-0.12748645,0.5099458,8.62004535,0.0,-13.0060739517,12.1239738464,3.09086537361,0.022085910663,0.0535590685904,-0.0543515309691,15.2399997711,-441.358001709,-181.23550415,-2.8497314453000016,-9.62675130367,-5.288663864130001,3.9279270173,12.85906510705839,2.919672250750002,16.0
2018-09-11 18:46:42.600,-0.094488867468,-0.0358773120159,-0.907952596019,0.022085910663,0.0535590685904,-0.0543515309691,-0.12748645,0.5099458,8.62004535,0.0,-13.0060739517,12.1239738464,3.09086537361,0.022085910663,0.0535590685904,-0.0543515309691,14.9699993134,-414.503662109,-179.971176147,-2.8497314453000016,-10.01675128937,-5.618664026260001,3.953733444300001,12.77505116815839,2.7957885265400018,16.0
2018-09-11 18:46:42.650,-0.0776538323266,-0.0342760263509,-0.904559739816,-0.0985307693481,0.0862182453275,-0.0416143499315,-0.12748645,0.22555295,8.20816605,0.0,-13.0060739517,12.1239738464,3.09086537361,0.022085910663,0.0535590685904,-0.0543515309691,14.9699993134,-414.503662109,-179.971176147,-3.996112823499999,-8.26157879829,-4.706704854970001,3.953733444300001,12.77505116815839,2.7957885265400018,16.0
