%time,field.orientation.x_fft_peak_frequency,field.orientation.x_fft_peak_power,field.orientation.x_fft_band_power,field.orientation.x_fft_mean,field.orientation.x_fft_p25,field.orientation.x_fft_p50,field.orientation.x_fft_p75,field.orientation.y_fft_peak_frequency,field.orientation.y_fft_peak_power,field.orientation.y_fft_band_power,field.orientation.y_fft_mean,field.orientation.y_fft_p25,field.orientation.y_fft_p50,field.orientation.y_fft_p75,field.orientation.z_fft_peak_frequency,field.orientation.z_fft_peak_power,field.orientation.z_fft_band_power,field.orientation.z_fft_mean,field.orientation.z_fft_p25,field.orientation.z_fft_p50,field.orientation.z_fft_p75,field.angular_velocity.x_fft_peak_frequency,field.angular_velocity.x_fft_peak_power,field.angular_velocity.x_fft_band_power,field.angular_velocity.x_fft_mean,field.angular_velocity.x_fft_p25,field.angular_velocity.x_fft_p50,field.angular_velocity.x_fft_p75,field.angular_velocity.y_fft_peak_frequency,field.angular_velocity.y_fft_peak_power,field.angular_velocity.y_fft_band_power,field.angular_velocity.y_fft_mean,field.angular_velocity.y_fft_p25,field.angular_velocity.y_fft_p50,field.angular_velocity.y_fft_p75,field.angular_velocity.z_fft_peak_frequency,field.angular_velocity.z_fft_peak_power,field.angular_velocity.z_fft_band_power,field.angular_velocity.z_fft_mean,field.angular_velocity.z_fft_p25,field.angular_velocity.z_fft_p50,field.angular_velocity.z_fft_p75,field.linear_acceleration.x_fft_peak_frequency,field.linear_acceleration.x_fft_peak_power,field.linear_acceleration.x_fft_band_power,field.linear_acceleration.x_fft_mean,field.linear_acceleration.x_fft_p25,field.linear_acceleration.x_fft_p50,field.linear_acceleration.x_fft_p75,field.linear_acceleration.y_fft_peak_frequency,field.linear_acceleration.y_fft_peak_power,field.linear_acceleration.y_fft_band_power,field.linear_acceleration.y_fft_mean,field.linear_acceleration.y_fft_p25,field.linear_acceleration.y_fft_p50,field.linear_acceleration.y_fft_p75,field.linear_acceleration.z_fft_peak_frequency,field.linear_acceleration.z_fft_peak_power,field.linear_acceleration.z_fft_band_power,field.linear_acceleration.z_fft_mean,field.linear_acceleration.z_fft_p25,field.linear_acceleration.z_fft_p50,field.linear_acceleration.z_fft_p75,field.twist.linear.x_fft_peak_frequency,field.twist.linear.x_fft_peak_power,field.twist.linear.x_fft_band_power,field.twist.linear.x_fft_mean,field.twist.linear.x_fft_p25,field.twist.linear.x_fft_p50,field.twist.linear.x_fft_p75,field.twist.linear.y_fft_peak_frequency,field.twist.linear.y_fft_peak_power,field.twist.linear.y_fft_band_power,field.twist.linear.y_fft_mean,field.twist.linear.y_fft_p25,field.twist.linear.y_fft_p50,field.twist.linear.y_fft_p75,field.twist.linear.z_fft_peak_frequency,field.twist.linear.z_fft_peak_power,field.twist.linear.z_fft_band_power,field.twist.linear.z_fft_mean,field.twist.linear.z_fft_p25,field.twist.linear.z_fft_p50,field.twist.linear.z_fft_p75,field.twist.angular.x_fft_peak_frequency,field.twist.angular.x_fft_peak_power,field.twist.angular.x_fft_band_power,field.twist.angular.x_fft_mean,field.twist.angular.x_fft_p25,field.twist.angular.x_fft_p50,field.twist.angular.x_fft_p75,field.twist.angular.y_fft_peak_frequency,field.twist.angular.y_fft_peak_power,field.twist.angular.y_fft_band_power,field.twist.angular.y_fft_mean,field.twist.angular.y_fft_p25,field.twist.angular.y_fft_p50,field.twist.angular.y_fft_p75,field.twist.angular.z_fft_peak_frequency,field.twist.angular.z_fft_peak_power,field.twist.angular.z_fft_band_power,field.twist.angular.z_fft_mean,field.twist.angular.z_fft_p25,field.twist.angular.z_fft_p50,field.twist.angular.z_fft_p75,field.alt_error_fft_peak_frequency,field.alt_error_fft_peak_power,field.alt_error_fft_band_power,field.alt_error_fft_mean,field.alt_error_fft_p25,field.alt_error_fft_p50,field.alt_error_fft_p75,field.aspd_error_fft_peak_frequency,field.aspd_error_fft_peak_power,field.aspd_error_fft_band_power,field.aspd_error_fft_mean,field.aspd_error_fft_p25,field.aspd_error_fft_p50,field.aspd_error_fft_p75,field.xtrack_error_fft_peak_frequency,field.xtrack_error_fft_peak_power,field.xtrack_error_fft_band_power,field.xtrack_error_fft_mean,field.xtrack_error_fft_p25,field.xtrack_error_fft_p50,field.xtrack_error_fft_p75,delta_yaw_fft_peak_frequency,delta_yaw_fft_peak_power,delta_yaw_fft_band_power,delta_yaw_fft_mean,delta_yaw_fft_p25,delta_yaw_fft_p50,delta_yaw_fft_p75,delta_pitch_fft_peak_frequency,delta_pitch_fft_peak_power,delta_pitch_fft_band_power,delta_pitch_fft_mean,delta_pitch_fft_p25,delta_pitch_fft_p50,delta_pitch_fft_p75,delta_roll_fft_peak_frequency,delta_roll_fft_peak_power,delta_roll_fft_band_power,delta_roll_fft_mean,delta_roll_fft_p25,delta_roll_fft_p50,delta_roll_fft_p75,delta_x_fft_peak_frequency,delta_x_fft_peak_power,delta_x_fft_band_power,delta_x_fft_mean,delta_x_fft_p25,delta_x_fft_p50,delta_x_fft_p75,delta_y_fft_peak_frequency,delta_y_fft_peak_power,delta_y_fft_band_power,delta_y_fft_mean,delta_y_fft_p25,delta_y_fft_p50,delta_y_fft_p75,delta_z_fft_peak_frequency,delta_z_fft_peak_power,delta_z_fft_band_power,delta_z_fft_mean,delta_z_fft_p25,delta_z_fft_p50,delta_z_fft_p75,label
2018-09-11 18:46:35.450,0.0,10036.49650270775,1500.5337293023647,49.138463898068046,23.91544769800678,41.00195932512466,80.83088754013606,0.0,20099.85349727497,1076.5654485318169,43.59546867573325,19.64521679888545,41.566692776835275,59.717843604922926,0.0,2064742.6110286822,-27339.714006290065,187.61287905050156,68.73906892069817,89.47073675078346,129.51101306747918,0.45,35994.998449427345,23.918410712425043,45.40451368874581,14.940773338273868,37.070189146292925,57.02960004491872,0.0,29677.902847306228,2490.9938861131213,53.79638584482037,27.05030980098119,46.89400377316962,64.33550271596104,0.0,34023.82387855129,2081.751318087312,46.06592323613244,15.537029625629078,31.14286530939199,48.233851145577276,0.4,268006.40998279944,11601.454863921488,208.219810612328,100.01880245386826,193.6940345998501,273.22930695858344,0.0,1957412.3355668143,29100.419410828526,139.75187671555489,38.98207548869732,58.22909153319817,96.93487647878354,0.0,758587480.5964859,1901199.2381909085,2014.856897202992,298.9747499996727,629.1888242291977,1116.8899741713083,0.1,536802734.5045548,6692554.885472626,3473.53016207092,1043.9466900758093,1905.4453583024472,4172.367645035361,0.1,289299091.7643432,-4875180.938309381,2759.0212889050263,879.2315084920522,1360.3903733450124,2845.409272128486,0.1,1783764.6493166555,156185.57208999427,605.7248933406158,314.1560504700463,383.43040472690404,993.5147511950477,0.45,37588.67793013298,-37.62546070680634,45.96723391315114,14.930966685556104,35.936948182764475,57.96223936296212,0.0,28733.149223516033,2535.430691895635,52.99726592547951,25.76995837967224,45.18173385655972,62.28561924980714,0.0,33692.17111767844,2105.2713047530133,45.897132498235855,15.744463292563944,30.914295453114114,47.67012544540029,0.0,1472798667.2140937,-3804324.0351777766,2950.7171399935505,549.3686751220955,1140.5460257625416,1820.063807103373,0.0,250785949965.87695,12547398558.233541,105180.34846376674,51785.5000554907,76251.911951153,104923.35532672585,0.1,1740027358.3213334,68336170.28656727,19745.455468421944,7489.334409225375,13344.87477928026,34255.52887318472,0.05,1190957797.4971082,269024714.9409816,17481.60498884586,11341.521627226672,17480.252084440905,23746.25681808565,0.25,32910352.331204392,7749263.343118489,3089.783627563665,1964.6401350790497,2808.56038322909,3984.8398579424,0.45,101840179.24935754,1659805.5515000024,2675.2603601136293,946.0571926092406,2229.5869206594416,3033.5261033958022,0.35000000000000003,15173853.841035252,1125402.8759989091,1657.9016844699831,868.246734913501,1531.5151583511943,2324.840862910998,0.1,29351002.892742734,1762098.5767791597,2086.5736017463123,1030.3978833896474,1619.0580934700133,3032.094869475807,0.1,1830056.8679278267,156261.70348752805,605.971656849274,317.9064186529143,365.14063269603776,1015.9991291863053,0.0
2018-09-11 18:46:35.950,0.45,8189.11378034695,758.0056965351027,28.172500839678236,7.959910345074432,22.40108394368823,32.71547731989583,0.15000000000000002,4918.94380349746,613.4613684724841,24.412125419130287,12.308012876259195,20.893877462224992,30.228689711005835,0.15000000000000002,21280.641424447258,5316.421821382107,66.13159875392438,38.579409587580855,60.69157576569215,87.32202367883679,0.05,35994.998449427345,2365.7314851174406,44.24511087788544,20.481974717606754,37.79479239995964,48.39978073523674,0.05,12628.56629870212,1506.0922964580598,43.13169888440579,19.27542902306981,37.932665773491976,58.39155378153204,0.05,20620.97412254218,946.9584973781778,22.43183848955912,9.278717792079123,14.120467266008582,22.67913365239533,0.45,140941.09272158035,15794.93115466646,155.74316787405215,64.05017398875913,141.45414988790426,212.9552162504412,0.05,57613.9283915294,3244.5572867836463,57.43641951022023,26.77869581204428,39.249700328206345,67.84746492272545,0.45,1879176.782044676,209450.24750466025,671.3761361347576,309.9438641734788,569.9677185292763,1085.328089904166,0.15000000000000002,17207615.306453787,1087488.102584488,946.0305248764073,285.70268791177534,566.0328313450307,1392.961720869833,0.15000000000000002,18857482.09345866,570228.5265002314,838.4677497103951,434.2237603584273,638.5516403064476,964.4276081254565,0.4,1783764.6493166555,131471.44308071345,662.460848321188,309.31519533318385,510.49969311808474,1080.3853513020174,0.05,37588.67793013298,2520.1959536374316,45.41431273535092,21.90483225817359,38.589457043080955,52.163521032257385,0.05,12423.353257103963,1483.4339164571184,42.719640695426406,19.483720796102233,37.526917321252334,57.534455974991815,0.05,20381.646112166905,940.420090712461,22.536947702281488,9.096715703263712,13.650234738353292,23.332314621330596,0.25,4821235.981706382,381418.417489031,1090.3374411081786,501.04343612235687,1110.4171037920546,1504.2180208859313,0.15000000000000002,8015775789.126755,1430015543.105464,40525.960744353695,16128.538394083269,46536.86538875484,59441.67815380071,0.0,108530709.28242454,2573650.6915172553,5827.1844472144485,3678.884211629198,5800.664909915631,7372.462310821788,0.45,1190957797.4971082,373526885.36874133,18232.672613415816,12149.047234106107,17913.070943168437,23058.889398893116,0.25,32910352.331204392,8018425.059441244,3083.303525494375,1602.529917322253,3107.311698449659,4335.920184412607,0.05,101840179.24935754,7343672.075016507,2615.0718250125087,1275.0689833680926,2229.5869206594416,2777.799126065818,0.15000000000000002,15173853.841035252,488851.7051603731,1090.0308118590715,527.8912939740626,855.4196297455748,1280.6479130185812,0.15000000000000002,13562078.9662542,901332.2141836863,1074.3475428073436,570.0772710099264,872.2136427230685,1431.5256873874723,0.4,1830056.8679278267,138441.1723982389,675.1865349596892,320.7341035939406,522.8450871010969,1097.7654220883528,0.0
2018-09-11 18:46:36.450,0.0,708.1153860709778,44.01499247518693,10.951546088936274,5.65607144301222,9.47800307907648,14.661480464665408,0.30000000000000004,1266.39285390773,149.62806341868637,13.536590295780533,8.32746845495299,11.261557423592292,20.454970845439494,0.05,7513.190568276097,1662.5137423891958,41.327632449968654,25.423489005185782,42.90445097569773,55.96800059669787,0.0,2641.9679472701923,-223.84220535180634,25.959884462768297,14.112535818940898,22.99043274884972,42.62616472753693,0.05,4190.07335184824,101.66939763548388,19.52913850556564,8.879663890642059,14.161086104957828,21.11438859117362,0.0,477.4972622114711,-52.44633820595166,10.070448936807145,4.888307920767427,10.253564420301863,12.934386622197108,0.0,32797.57721155623,-634.9777773372357,69.13666462701843,37.38556295535837,58.23499377249448,82.9862185884296,0.2,4101.975130359107,-142.05345779899724,27.302192315592077,13.736070285328905,25.6479636324594,34.50146753673692,0.05,1160947.8817402876,13174.783561368373,328.3227136647906,166.5559305002282,280.5305304817862,380.48744644088856,0.05,1812674.8125895858,138024.81352862663,305.875033252939,128.862086611908,216.24588880484674,299.8706422513121,0.05,1331686.881055138,113661.796934538,343.8663430154849,113.08669905073025,220.1672095102436,493.193247607506,0.05,1265574.0443805277,34732.56634775752,331.8898351852048,142.57607356527797,280.9528663964598,335.96592079216225,0.0,2760.5126542360495,-169.23517811037925,27.531220178683604,13.659394530685498,23.79118733304043,43.49781548672311,0.05,4386.024925058495,65.85177355972898,19.208425931186774,8.257246533558583,13.474940520387793,20.752344497880653,0.0,512.7998479672427,-36.60989576845233,10.299236532971298,5.0246318712446705,11.225385527841546,12.752748018441114,0.05,1875099.1338107612,54928.54801006882,409.1060657805726,223.4458646064488,281.49448367500145,434.99671287055725,0.05,2553149450.927321,185228189.19426906,17417.165454983555,10720.169746797963,15753.476511288103,18310.9673311645,0.05,52700365.966973506,1832540.6038693502,4010.703854726746,3022.6683752646686,3848.404531175677,4391.63964820355,0.05,781638418.6668823,282363051.7819717,17009.271461875556,12523.001938050416,16896.732019885516,21799.532260289852,0.05,17387590.047888495,1076878.8765737733,1261.6067417462864,684.5927191276276,857.3376180233586,1502.3532528373776,0.2,8939926.075745972,31904.857803708903,1520.7450441473288,1024.2994145591233,1455.669068365734,2118.456425736539,0.05,2407480.215754647,202303.75340568376,497.0294694411797,250.22673415043585,333.8295597184861,601.6420538327772,0.05,3270615.606523412,273795.48788462917,503.80672081116984,194.2285437701957,389.68845588567603,618.5445500419052,0.05,1305459.178836082,36581.41773379409,336.823589524064,141.41373609648474,291.4596981504852,346.06791462000746,0.0
2018-09-11 18:46:36.950,0.45,198.08456577256948,49.832784827019424,7.238656659949162,4.245561831976628,6.62028627439459,10.945559024098879,0.25,600.5528155400821,57.624524018483726,8.429473141119491,4.978236265714769,6.698333195883151,9.945099966618686,0.35000000000000003,3326.1565472499265,1343.196428277075,32.66035625528739,21.024718810284824,28.547179202632122,50.60544808253462,0.25,2054.056115635229,211.4731092423266,20.552514390785763,9.154412860854455,17.377902783958717,28.09924797918763,0.4,347.5629740751723,35.658319284720505,9.685987264111345,5.814466373889726,9.654977343112872,12.77808653604648,0.0,417.5604612390118,-62.07079006290154,7.955513766526019,4.412321218899785,7.835091163331965,10.189032547061855,0.25,8004.169129938983,1221.064565108868,44.57938113993446,28.1500468030072,36.78729528121109,60.14520014096864,0.1,1945.2558204043912,-555.7046109426499,22.821841843571015,12.063082171413813,19.188395807209158,34.17561758984067,0.4,192348.11951827156,10508.10507299316,189.85240342183337,105.11185851682482,190.1833911707589,228.57996562358807,0.2,81374.22972352506,-1432.4590799947907,97.98578488015661,40.86373004184433,80.62313184141173,132.1631906171888,0.15000000000000002,151076.36881180637,12053.680955030713,114.33381475921945,59.93964262347799,76.50006199546618,124.58778352641724,0.4,113522.80209545114,2901.1659623226324,190.70561456584844,124.89948514034386,151.8323476652664,270.98134959643835,0.15000000000000002,2427.0206053391125,296.0278808516947,21.130021591666516,10.904087287297472,18.832180093579776,27.35023674462706,0.4,341.11472091743406,31.926206863892215,9.048401370626951,5.778487069126544,8.401399013689229,11.458554254414876,0.0,328.0606391728047,-48.19376486101115,7.844931515342253,4.2565489534974335,7.267970556906441,11.138796972101934,0.4,88718.59112808232,2545.509607248197,203.50248270402378,171.63380612630584,180.9504198702578,228.909060493407,0.25,375408751.70516956,8663986.71116661,9646.003818901461,5557.011909574015,7443.204056660255,15480.101058978185,0.1,21255536.161796708,578006.1467162957,3142.277882125861,2507.1572699477133,3046.7744250608757,4032.3902559150474,0.45,781638418.6668823,284149512.9304788,15169.742928052254,8935.948485266535,13727.862675342516,21336.116962877997,0.4,1320737.0623039512,-92619.40019533517,610.8144148998578,464.98363239351346,574.7111276972252,734.5380449382872,0.15000000000000002,5314742.269351448,422015.20652348513,1064.260952145663,556.2164429658974,783.070550143404,1599.3809635867883,0.05,206765.10747027947,40253.477815591665,212.99802903715135,119.90215338567342,213.85059579759,280.61860772966133,0.35000000000000003,177093.60831424614,793.5553005938432,181.88971512992725,94.34925804551926,160.35998093462504,224.26019371515738,0.4,118652.84479215698,3093.4902393023112,191.5751136538018,124.1755553011012,150.2201982455267,269.022055797429,0.0
2018-09-11 18:46:37.450,0.05,198.08456577256948,26.257079353844176,5.814489650729532,4.138806155997375,5.684559633588583,6.77758507707922,0.2,109.81679072220575,31.243602130843414,5.639229800030252,4.396846424370144,5.584798572134618,7.746762050927519,0.05,3295.107836541534,680.9894153491324,23.490484006337724,15.064817367881192,21.096332179746234,28.3216049059808,0.05,1226.554566079206,120.23172481203419,14.437634735629311,7.541052778921207,14.49243815741502,17.997748497880316,0.35000000000000003,275.1509096439137,38.064708960891025,7.14971398347249,4.418319479235691,6.29610177720029,8.173432964853003,0.25,120.33966839079041,-1.5051782032167114,5.6817275116883,3.2170410839537262,5.925799352299013,8.427429896920323,0.1,3466.8667246538166,429.1755855535148,26.402120434179086,13.95904921931881,22.11840447262978,36.05815442295723,0.35000000000000003,2493.519773317467,-698.5754307389518,23.48612403386338,12.573336224801146,22.199870651245373,30.50580364896079,0.35000000000000003,100469.96752213445,1654.2669444657258,135.17378664309317,83.79388011919379,109.5421066922712,194.33013432365306,0.0,17402.395028277686,1086.862175537909,46.88414790698401,27.09009149978778,41.00776671731879,59.50351628696055,0.25,7711.989165022994,1001.3553064517452,48.116690243921134,30.320856018042658,54.475959360879436,63.92220208733832,0.25,40970.316433236345,674.1395883804385,113.08613882239794,88.93815233172742,103.17429024001473,135.94260395534377,0.05,1119.654023430767,141.9429768031658,14.62702279538982,9.610325329852973,13.232334278983906,18.644377942556943,0.35000000000000003,203.32108095336764,27.8028384824706,6.061141348250419,2.964371843621257,5.838187259335424,8.399371585025435,0.25,118.25657678775947,1.5726359337990727,5.620739186598826,2.934093675016526,5.327245075997078,8.000388350913674,0.1,42603.61620042413,465.6043048812729,149.28375170135732,118.90030400783967,153.0073786138472,173.44288068098416,0.2,78227007.12022406,-377673.14156016556,5396.391545551797,3681.7472401058412,5798.677080013695,6570.30653434472,0.30000000000000004,10470808.909860872,144857.05671674226,2304.726400853088,1811.0728212559725,2361.523997588375,2784.3154997847637,0.05,651241562.402694,134891255.11874914,10940.372094207492,7969.7739057949975,9469.439385738371,11807.461316486482,0.25,565325.3544531872,11009.987231304456,437.2073234747265,320.641347821311,458.32561581922255,526.604346978019,0.05,2429326.9133216348,209010.01620735924,612.2128448940528,328.2801247252351,593.6607787106857,667.914627556839,0.0,52586.87442700456,973.2854992024115,121.07824885945192,82.43860131421275,119.5570068509417,153.43678888120976,0.0,99610.75187348455,2714.269963961019,139.04779530351027,83.99453498045463,143.45046007653764,181.52479157853958,0.25,41376.709780447716,830.0815731827872,109.27269179797524,83.78581169127457,100.01161696964371,131.32679956134433,0.0
2018-09-11 18:46:37.950,0.2,79.52589004243092,19.713025701444394,4.655295645395821,2.5564803815000166,4.888129751608513,6.350078477464831,0.30000000000000004,109.81679072220575,24.749410766220414,5.270560357607189,3.1807044067372794,4.78701434088784,7.7433610817751255,0.35000000000000003,705.5122573016644,304.08002535115213,16.24937123519063,11.81842195170976,17.224987643586086,21.353092877120172,0.25,491.7029099750764,35.08722929292334,11.950744750418739,7.581441891561041,13.277056916792823,14.671459469632266,0.15000000000000002,275.1509096439137,31.115466125940603,5.361905263228765,3.437000523793462,4.937867483179875,7.025574900447949,0.25,120.33966839079041,0.5440161595586144,6.27529287679529,3.3268070405461927,6.246128874561683,8.581927208938493,0.35000000000000003,1734.20461067976,-270.51619547927686,21.537890701065216,13.010422175453263,20.39108387186768,28.100068144893104,0.15000000000000002,2493.519773317467,-726.2048354753294,22.7327691511182,18.614892799352376,21.402564867355995,24.83633765484103,0.15000000000000002,100469.96752213445,-1351.6847403595507,117.39730676825495,78.82123672807165,109.77980915400173,145.9313650075934,0.0,4963.843820995326,329.4461544649735,34.67383388829306,19.15393983928818,35.21905305830734,44.7605413667015,0.25,7173.421723758277,189.9250045824067,31.239137537894457,20.2714842668434,26.660084324191835,36.370430234801255,0.25,18291.521596128096,480.276888383702,87.33077129414856,73.9059439127129,89.94683252298583,99.5560234631179,0.1,397.87700735051413,9.481052862025908,12.045054144121755,9.466404548487072,11.630379457773529,14.617364314949569,0.15000000000000002,203.32108095336764,24.78111498430502,4.664541652735086,1.7996034824573726,4.778389123904146,6.271275109940274,0.25,118.25657678775947,-7.043530651518996,6.378470362504055,3.520136313355083,6.451425783699011,9.289879226728072,0.0,22730.88524665155,-27.773976680449323,116.10705531789672,108.70018990142692,115.55808544716015,120.08381250587121,0.30000000000000004,78227007.12022406,-2164313.293944533,4676.881185353503,3188.8398205620574,4927.16617004372,5931.55549456032,0.45,6269736.383210778,139759.33265237347,1791.805754383863,1416.3259915058784,1752.406814418761,2167.157128422375,0.30000000000000004,101052715.72425547,62038977.94613789,7751.637531342091,5997.952461092444,8379.948426646826,9202.651253696433,0.05,311299.73848071997,-478.19075142128975,389.0533561238716,320.641347821311,364.2080728379403,487.10147201901526,0.35000000000000003,606647.1033877613,79047.23582957331,409.7294527307452,285.5001583750317,413.67996497633544,546.9977020052363,0.15000000000000002,24078.752121999463,4673.265265334046,110.51540593731787,82.43860131421275,116.02723463417169,140.83584536811787,0.1,42090.25544134068,1592.6148549655343,115.53367829995072,88.50280501719168,118.17556717564692,146.62792375616584,0.25,16198.648803020023,342.1448648135357,80.2479567734669,67.59746779949558,81.71369995498901,93.29735092823594,0.0
2018-09-11 18:46:38.450,0.1,46.29084011634829,9.677292697138205,3.5154557729060043,2.11042798179613,2.547557773032245,5.257806271392536,0.0,59.99090150996995,15.976782905632923,3.7615850416521184,2.4026239205174456,3.538399360611912,5.017255754454632,0.15000000000000002,705.5122573016644,219.4351454184595,13.226766423653885,7.5017710575435315,12.791714229019972,16.91483222497067,0.25,402.61651762587945,0.2954756248477062,10.797709493287915,6.739529104831452,10.970043073283676,15.09970611200296,0.30000000000000004,60.91476571806261,12.8848513285989,4.083455832054735,2.328339240602221,4.07461076053976,5.4997278056902665,0.1,141.5999687481272,16.96596543366187,5.927335456538811,4.503934934022144,5.692711584134851,6.8312383339098925,0.15000000000000002,1734.20461067976,-25.41741381770177,21.168338357210786,16.022841856198838,22.393193603133454,23.81179857006057,0.1,1496.207216116414,-18.329754217141993,23.20987377976938,17.76635496498285,21.631049408841356,27.70008157976322,0.25,41461.5650299926,7364.135293486864,116.2442361774713,85.13442453485007,120.05909426231065,149.22641292141114,0.4,1999.7123016083588,333.0527728788013,25.736241406691125,13.696021184982305,25.87457783794394,36.580523919242786,0.0,2078.5422302530555,204.01975226802801,20.076613803641713,10.798561294860793,21.677103598637743,25.74373987263664,0.25,13118.547700302614,442.6250695464947,73.96941548105141,56.327730575879016,73.61836636480842,93.16956014900131,0.25,391.1042898223776,11.3275783739689,10.975661269180492,7.95259215477767,11.055397342235528,14.617364314949569,0.1,70.58241329485286,10.663798124488396,4.2158182015033985,2.9946882876048626,4.149903767996028,5.1202029119838,0.1,165.97167780509918,8.60936398879833,6.034452737010886,3.8717381545323217,5.461910817376716,8.175827811429512,0.30000000000000004,14595.372614838503,86.83802117544289,102.93121736131602,94.07814590020706,102.92553311580194,111.12734081988211,0.1,32487656.483645454,652397.0218522951,3078.2190094491402,1533.2797672051024,2970.636181252712,4627.300165332455,0.0,5869780.6534241745,144031.36907844408,1655.0107110309011,1284.6045548828547,1664.0858691948283,1985.97098389799,0.1,81165285.08135207,32581262.52302871,5456.230438057709,4132.443393683705,4830.832723325324,5946.150587014596,0.45,311299.73848071997,8611.047350100434,410.9490367696806,350.796844626238,426.84535465622037,455.08835123135816,0.25,421413.1469281144,50880.73180349291,298.0633614569604,144.65811162751595,286.24918045028255,409.9019185568212,0.05,20426.533864953177,2512.4031906390264,101.48719691059777,78.01433173364053,106.40445858562919,122.5532410527117,0.30000000000000004,21987.36150329403,921.9801376610944,91.16652488432767,68.11266235401726,87.57472832369561,130.5530640136597,0.25,10777.876623556573,334.7092058608169,70.62589378069153,55.39096507157281,69.62498814680805,90.80724282186057,0.0
2018-09-11 18:46:38.950,0.30000000000000004,39.80168373501286,8.179598338461041,3.0679203943359203,2.0338782941425118,2.4338882691584534,4.004423203531956,0.2,39.655530754195084,12.99222909291865,3.3784392143510615,2.0828082587138943,3.318109850783736,4.499577315856862,0.05,241.4606746530212,82.58607937716036,8.106315998040056,4.542012263578373,7.470545240464928,11.876761528910393,0.2,480.7094083094631,-96.31493244033572,12.037822716639372,6.739529104831452,12.382541090148592,17.536448190126183,0.5,33.73268183415901,10.667979536193004,3.727270409442697,2.8662053938136283,3.6760809226141324,4.659092737927037,0.2,170.50025437560024,26.693599028172763,5.729880706957079,4.3584630718758355,5.136634232389275,6.557459433617167,0.25,791.2379027354368,-129.63386936163536,16.746428255866473,10.391524606687886,15.470308438258435,22.916705816886935,0.4,3197.8207612466454,144.12774412601166,26.728303073911047,17.753843436525475,24.527648727616228,32.72307498606057,0.25,40194.46466590986,2481.215525714122,95.18757112752643,43.71085407424415,96.51527793327341,127.35892714123406,0.05,1967.0481482670912,29.998820968833023,18.064066417565872,11.294365704814636,15.147160262174776,22.57978177251251,0.2,831.6521997512665,114.97450620624284,15.24041049921706,9.825304223091186,14.092230419172587,20.99094290983615,0.25,8631.935426680266,54.55828663490624,57.68171177413924,48.30360662083308,55.667619051265,64.6906954296141,0.4,479.2974381925852,-49.41948631633218,11.454634558255693,7.149486663086487,11.885159600897694,16.276240030403212,0.5,51.89673051116809,7.046386845907737,3.9943173634661866,3.41384027225317,3.967597324539764,4.837707207517401,0.2,182.14859764898,29.820322771273386,5.3653266196578775,3.1149594547941266,4.5460611576764025,5.72376690627638,0.1,12840.812552751207,81.25831056524375,88.1532683905991,79.90247693371809,88.88508630628755,93.84636227387946,0.4,27680866.160380922,3003500.1442395537,2700.057326227806,1533.2797672051024,2665.8977929103075,3577.1353370749425,0.15000000000000002,4351407.450152216,92077.81961519268,1547.3326381465477,1310.443592084391,1576.9579550098083,1744.8069903841347,0.4,32106807.096527617,17039455.098832656,4078.088271145972,3509.0156376911073,3976.028743196672,4939.540192357223,0.2,223151.215247156,8764.430021089453,316.1880703031745,238.5639392665359,277.1458750740435,412.9803046452777,0.2,279553.67033774435,31645.723731653532,264.5960756697981,176.77136986204766,266.20796589715104,353.11804779206733,0.2,17115.486224562537,1696.7538926151988,82.4790238902767,71.17894467565304,83.7602732377884,96.25110796325518,0.35000000000000003,17330.91216225951,769.4936334626218,71.10619469110787,45.134243955759246,76.56951204775865,96.68845673423463,0.1,8841.023751379527,-19.631561317898964,57.84596936173123,47.96862265125965,58.11856109392252,66.71582013834544,0.0
2018-09-11 18:46:39.450,0.0,34.070733866347354,5.581232957033764,2.7473639275958184,2.0229405804204,2.6879292672135255,3.3927671646672994,0.30000000000000004,39.655530754195084,8.809125591709735,2.936482188753522,1.7339039500521056,2.666212405043194,3.960179418443766,0.15000000000000002,331.1476583050799,101.44339843846632,9.661491419860976,4.841906279539417,10.0601951112499,13.366466715032955,0.30000000000000004,480.7094083094631,-46.55105517513735,13.589838063841132,10.188336141004836,13.517134368642296,18.985288114819156,0.15000000000000002,54.51998752422254,4.3370990302095915,3.3351038749788566,2.1266863220550682,3.05279763553438,4.262573515620895,0.30000000000000004,170.50025437560024,0.33229234600507496,6.316793582756279,4.200211662722502,5.996060225910763,8.58808398673264,0.05,741.9587603464893,-160.3307950129405,11.616809169565173,8.597668438073931,10.266053189614627,14.043832758948824,0.1,3197.8207612466454,49.23081761407206,30.058681785693057,19.771598237974498,30.327552321912137,36.53529563300566,0.0,34008.21716372118,3085.1174334934053,85.64161686573301,42.163548559539386,69.08803099049155,133.72584454123916,0.1,941.4342845511773,28.028499868119567,16.71673164757157,10.900345078407362,16.348058532268,23.47965419865247,0.30000000000000004,695.4399225262899,67.82206361702956,13.022066766213618,8.80216004452338,13.384307094844111,16.133418908897905,0.35000000000000003,5837.861111338217,-214.09160314283255,50.617619589287024,45.412022347645,49.79976865504527,55.34644484443555,0.1,479.2974381925852,-58.696878889400836,12.49451479615864,9.663418564623566,13.089077800488216,16.044867640439413,0.0,51.89673051116809,4.686656271773056,3.5866975058100152,2.7394457929314306,3.4899737460927804,4.524508369825468,0.30000000000000004,182.14859764898,-12.507448689318686,5.714861500327119,2.9409607085928338,4.998339518892607,7.858694510911122,0.0,8462.351503955997,-1.3738823680613363,75.1855638078175,70.77642579012536,74.991771046765,79.53596860654383,0.5,17862628.4018226,-266242.4777107432,2613.739235054876,2074.8798875836283,2461.0601797939426,3140.5012304963802,0.25,2963844.9249290857,41203.566233539226,1291.17525140314,1057.6365920742605,1322.6114048964298,1522.5573702094719,0.15000000000000002,74544864.0166002,23282292.803662226,4694.173373467372,3344.0770259052,4285.947851930119,5754.53407973941,0.05,81354.48125187833,-2573.354400077411,238.84745577712602,225.256536644109,242.68939076110482,257.9952015398611,0.5,308918.06583914784,32852.82358451198,287.10451323327015,188.02826320026648,260.4967099896777,366.47760145095924,0.4,9703.143392090873,1154.937199782675,63.84174711157226,47.53654802418192,59.322858888431746,82.28639709407874,0.05,12454.862265007727,665.0538203669663,68.33459326019803,32.852169703276616,79.27785031727998,101.66474037394607,0.35000000000000003,7262.191573464639,-227.71945688013355,51.40709677500828,43.47760735802638,51.82973346162845,58.87257822618854,0.0
2018-09-11 18:46:39.950,0.15000000000000002,14.634920066881595,3.438043514916415,2.4968061927710474,1.8059698296707856,2.727070456243064,3.125300378093779,0.05,26.23439553878864,6.039456931683493,2.613750831129371,1.5512523754278411,2.7890508399676857,3.6429086807402977,0.35000000000000003,331.1476583050799,149.68444961176488,11.565375791037596,8.987706000805984,12.524038590061256,14.692064205024915,0.5,522.7780882024239,-108.44489446975743,13.018209058759533,8.67279620446207,12.633328684869976,17.289145632980865,0.35000000000000003,54.51998752422254,-6.839301173958266,3.0177153935663603,2.0178876854748657,2.7980740977579597,3.7370013505087796,0.30000000000000004,166.70418389955023,-65.85882756452307,5.940609845697111,3.2627269460205803,6.151542308141864,7.896646406216178,0.5,299.88502922057654,75.59761826061134,10.244594318203806,8.597668438073931,10.951534564645435,13.377456818618287,0.0,2756.465395332132,328.8536153171393,29.878596135229014,18.6245114094798,33.18525165749435,41.312624957134574,0.35000000000000003,25235.622390488676,5937.096476718328,83.92176582761964,52.43942638846666,81.60695834784724,129.42935079455026,0.25,706.9219369402069,-86.41188382958508,15.45006847108355,10.724654655191692,15.906849947851082,19.531215585185386,0.2,695.4399225262899,45.67229072015251,11.746014302973611,5.6597168551367245,10.643858334536699,16.457729705894,0.30000000000000004,3384.8975765087494,-39.329491261833624,44.459176357257874,37.83167391175612,46.898104579675675,49.634484591787384,0.5,488.48445482300946,-122.1562916340013,12.810941135406264,9.663418564623566,12.50697770286477,15.855403354890782,0.15000000000000002,26.245460588321098,-3.1451987127170216,2.9735790305818797,2.215264576287903,2.9791805607733757,3.6230796026765337,0.30000000000000004,159.4450232299216,-58.35987562256326,5.80149094414214,4.376781476781788,5.787876344383177,7.025448067624325,0.15000000000000002,5854.397781397531,26.439181588064994,67.0438085288246,62.050442780595766,67.23405170518666,71.06349425249002,0.1,18566615.543395404,-1401192.577352416,2630.3005633178773,1962.701578385616,2461.0601797939426,3124.834884351246,0.45,2300287.4861682295,36772.30045959236,1063.7993501920846,843.0663770324954,1049.333995184491,1260.0616485628384,0.45,80090411.5797333,33429601.789328564,5504.938766192972,3887.6869530576187,5592.835928316933,6708.45459750738,0.45,81354.48125187833,331.1524662564837,221.8745964567833,200.45316096341483,229.09087309307444,245.87891939668629,0.0,308918.06583914784,-35748.59782064947,257.2954346257162,178.20083800414704,223.21829669244107,286.2046999778343,0.0,6765.61710720023,1140.8877130410285,60.453131475369354,46.800807909472724,61.20286256886716,76.49230539389573,0.1,11262.072363127001,18.717069363517908,73.73330279673489,60.20090290655917,77.26363289787676,100.59926578547648,0.30000000000000004,3832.194367233648,-46.20137807859096,45.543485825537694,37.52388441101534,43.98618576669848,52.180044915658485,0.0
2018-09-11 18:46:40.450,0.15000000000000002,15.116319911996758,3.0169611257280704,2.274623536089325,1.3765222696799329,2.562183592013495,3.082604478402269,0.0,22.191894661861756,6.155532369999721,2.553661777902703,1.899058089276347,2.7445075775850998,3.3037083575254913,0.05,349.8248216657906,109.66979418371508,10.795426440804404,8.497116839751467,10.764152622253814,13.442380944462645,0.4,648.3655742171281,124.72862998210691,13.821497658120213,9.504062787523583,12.465927522498294,17.993907277563284,0.2,25.004187972997613,-10.610740372636924,3.129729990548969,2.3090662464639427,3.435867998482281,3.896675814170809,0.4,129.06297019446643,-29.61154683085412,5.30739460637478,3.4948775642653667,4.982470033711062,6.823869695842716,0.0,299.88502922057654,47.36425303302701,9.557467963091607,3.9939377420276947,10.829929712105798,13.436109779937293,0.25,2447.371646225888,555.0703255968803,27.05144515643779,16.880025161487765,23.966428482568745,41.4126937222577,0.15000000000000002,25235.622390488676,-10751.161382369966,70.97658531242749,37.85592893139825,65.80435774449408,95.25305171219595,0.25,409.2967005561554,2.070393032330391,13.137296459352024,11.437887971712321,13.209546319456152,15.572453391920888,0.2,693.026884038135,58.956295495501784,11.758187635874837,7.123441728269652,10.149917100205403,18.167427543933773,0.15000000000000002,2569.6467780308626,-210.68820159679456,40.72094846601785,36.775827849974945,41.78957164417427,46.813472112458754,0.4,594.0519258407977,72.31987916185167,12.91966977322834,9.684232789376571,12.766592030249296,15.700830068083045,0.5,33.50765826190608,-5.775769084755127,3.310487862488509,2.2704856097102684,3.48646837499873,4.777775774875929,0.4,150.31088831501546,-28.85035250868182,5.136744546807866,3.0127033417301563,5.313394219974587,6.12549890336338,0.0,5259.126403908422,14.017985659594764,59.64752514891834,55.70769275881246,57.50448823200449,61.95714276616859,0.4,18566615.543395404,-1087020.5861040389,2674.211587421022,1784.1488743481548,2648.8125040292875,3461.073273886947,0.0,1934904.2189983537,51604.48206893579,1003.2559371600843,739.9477937535625,1049.333995184491,1219.1985383595513,0.05,80090411.5797333,21020675.855888717,4575.138446116593,3170.379571132092,4494.474109027848,6058.105243142185,0.25,72408.2109701302,-581.7320926763159,205.71153834658577,182.0240989269185,204.57373729571412,225.18418663588687,0.25,167186.54532210543,-36252.47425290107,232.8649438084101,172.5800202021475,228.32769062453156,282.8028334013619,0.30000000000000004,8508.691149069806,1172.4671672785921,60.751659243930156,46.858671768609575,62.298791994437636,76.29313956958975,0.15000000000000002,11254.764040704335,254.17830697870218,64.84349960997723,50.641258552564096,66.71063629334046,83.95719876842425,0.35000000000000003,3733.9776674137397,-288.64704239273135,40.88129656312985,33.15325969758102,40.65143936536428,45.07313528177479,0.0
2018-09-11 18:46:40.950,0.45,17.451176473869204,4.013868124479444,2.104558591659882,1.4221465925607804,1.859798048870593,2.7965885164941424,0.35000000000000003,12.669822845951087,3.3293954236138696,2.0296468292783767,1.5709734816693846,2.0255256646595896,2.944896965498745,0.45,349.8248216657906,140.59471241501694,10.769290886406248,7.549506695916459,10.326617810070491,15.639535181878193,0.1,648.3655742171281,125.8390942536629,12.663446557305477,9.158576412328369,11.758792326680073,16.527678652988705,0.30000000000000004,21.28860796928546,4.910853751328096,2.5792122461489853,1.6702633485444933,2.543299266558878,3.5921377566039983,0.1,129.06297019446643,12.908005977210625,4.508539407163295,2.8839253416569237,3.6182931359404664,5.886535579459446,0.35000000000000003,251.26987875323172,14.04925853776794,8.771875701626339,6.829246109103951,8.819214037706455,11.59632597714349,0.25,3409.3035418470567,739.0411849012048,27.791079077385213,17.140046284268116,24.3367469621995,38.69634934072282,0.4,27484.108751186734,1973.2800545140085,68.63988494767959,37.85592893139825,58.16770123618565,102.93296184542663,0.15000000000000002,460.8033584858468,35.562295868789825,12.318032310054978,9.332716018854544,12.761561323069813,14.798235019526912,0.2,453.2014569499466,57.004948579691316,12.529527727255642,8.57721939083088,11.778300861613497,15.684622431501413,0.25,3004.63872486425,53.53121500456446,39.94266998725273,34.22139184266271,39.442021519804,43.944224634638445,0.1,594.0519258407977,74.82820788710485,11.284214432695187,7.9938517744051625,11.131133797204573,13.328800605746526,0.0,33.50765826190608,7.809185859410553,3.0380951149808193,1.5967652446022806,3.062071591361014,4.730854234996589,0.1,150.31088831501546,12.148265879032992,4.495979844603845,2.8771658498423425,3.3175777110723894,6.031672089249852,0.2,3574.0100158670666,7.419797077699084,54.10066994433466,52.196603167070634,55.25377752962774,56.01855342368347,0.0,17438923.785186153,-853231.8384041741,2132.0269822211512,1125.9775195677512,2170.4142266772565,2738.5654344609056,0.1,1708358.4485917415,38436.91361027046,987.6827402468771,815.5195162919507,1038.5412458989313,1171.4593129493944,0.35000000000000003,36597873.16130427,11037239.499905631,2960.3811053394893,1723.7152302977263,2755.7070846066626,4171.699270391493,0.25,72408.2109701302,1255.2974300799533,190.13617412884497,167.3570454397739,193.71522216016575,209.28292272036634,0.2,97078.37977232246,-736.0422445852093,189.89635076890585,123.92237522730278,189.93413989856293,271.32886776032547,0.2,8508.691149069806,889.92567892295,54.806763671275164,41.21356771621009,51.9956353131411,67.41598034361164,0.4,7596.048948165411,513.0843270953966,48.76061690026183,32.74899861131138,47.77960463064057,68.99966621866689,0.25,2749.1698261559623,85.68291226992412,37.83801060579325,32.10534796994182,36.15562846325966,43.320243364649265,0.0
2018-09-11 18:46:41.450,0.05,17.451176473869204,1.2030715312137217,1.8983911117237227,1.1260656705552172,1.859798048870593,2.720141682737496,0.15000000000000002,12.669822845951087,3.8083161871803997,1.8730206797251803,1.1656331364997174,1.8374089761694559,2.473271245888128,0.05,340.8671782565679,83.29651746489236,8.469535906353464,5.607353796740565,8.241532554511902,9.951496571447471,0.25,529.5461966854338,82.24758234100872,9.03923225045814,5.8346560937253775,8.947630653442587,11.709823776594249,0.35000000000000003,18.429900275837184,-2.6191881505798857,2.2615865711380545,1.5796331349815358,2.1251879650033207,3.3205462229772933,0.0,78.75918046249349,-6.066714547722989,3.428067783012353,2.3785853233032253,3.3631548096799255,3.8030587704036733,0.05,435.5036500679902,-14.017752977458318,10.175607458051633,7.434068365839564,10.084608129352489,11.851373232283589,0.25,3409.3035418470567,369.0291831472795,27.356585253562322,16.949647812081288,24.63819459494073,35.5568149228844,0.1,27484.108751186734,3439.513261206624,66.89583612611908,44.42537759059684,57.7434728639111,73.67412391991967,0.35000000000000003,460.8033584858468,34.241718005405424,10.298272200279731,7.186452172847992,9.937261801101702,12.569051544401564,0.05,434.5736606123677,52.90340648931534,11.714900307382731,7.150006450611016,12.987161773550316,15.127107528033786,0.25,3004.63872486425,45.001804383540694,39.531702389916305,34.22139184266271,39.06176365620762,45.09959759448238,0.25,441.8594257129106,70.76032686631405,9.119372141531525,6.454724503600003,9.203793301496653,11.400012386391516,0.25,26.14059345433818,0.9081934663187874,2.8714289385632243,1.9066931666877986,2.7583363404738943,3.758552372541449,0.0,72.06694975228737,-4.656752892386451,3.6173322483304573,2.611087786586377,3.204558960387912,4.340486604098868,0.1,3430.2151873141966,6.285158010707795,51.39812255416833,48.96309623318626,51.167342961016146,52.64082568977917,0.2,9931563.248760724,712118.2520585502,1832.5393579362658,1114.2026783010915,1913.8261841510391,2493.7249364602644,0.30000000000000004,1366918.4043205846,24010.69773226684,870.1327270720587,679.1150414051025,920.0005656795755,1023.8049925076582,0.05,28900665.893418733,4789440.105071614,2082.003176713967,1505.7927797887041,1883.2486285609436,2361.9212367190876,0.0,44844.868190207366,697.1861470608696,161.09329877797458,146.91140198087413,158.85971019429792,176.66056800931045,0.30000000000000004,97078.37977232246,-18453.020459339525,132.1034189318027,90.38805061278052,110.23773983297382,146.59533418138963,0.5,7766.024338844064,795.7381116871084,46.87129085212146,34.992595475341325,50.81494925503827,59.20118401788549,0.45,4874.4700106828695,281.5061559872163,42.905343242496414,28.960220042821064,41.01818263567786,62.84970236221535,0.25,2749.1698261559623,62.61128156322134,36.741903518021715,32.5622910831019,36.37418872895841,40.497691060584735,0.0
2018-09-11 18:46:41.950,0.4,10.891305144098828,1.759997120545544,1.629500869365705,0.8162573957452803,1.083558723382697,2.720141682737496,0.1,12.586582860038515,3.5397118917723325,1.8061907053803246,1.2337299505780792,1.7300598012036592,2.32544285667815,0.35000000000000003,122.96260363128445,50.52862719420914,6.655065502779766,4.876802751210774,6.815930779117913,8.863883976715009,0.25,215.06508277505986,72.25111469334382,9.525203424584797,7.4122521984314265,9.87010039127413,12.288780364123761,0.15000000000000002,18.429900275837184,2.9620478276500766,2.226537781930184,1.4352110747155384,2.0744529399237672,2.8668641302223232,0.15000000000000002,26.602651509448677,4.490160313359345,2.83661383438112,1.8812085677383124,3.0541593954094415,3.5109545915405818,0.45,435.5036500679902,33.6946809535959,10.223031407015371,6.293083755004388,10.101634491866754,13.57597626775799,0.0,2600.679808970097,147.9798319829224,22.570052420287336,15.381351926746762,18.76577118964495,29.29775967895604,0.0,20451.596229318522,1695.749947994399,65.21979380513758,46.99117909695752,62.78137577823357,71.45383751697996,0.4,213.5483330201296,21.277296143959344,8.521368288685853,5.624831132256004,9.298404550694858,11.63675078552359,0.25,331.46633912333397,43.19394795896359,10.939189592932113,6.807973286515533,11.340450998638138,15.127107528033786,0.0,2189.832802316064,47.672246314088255,37.65431226834672,33.288243224837046,38.00762367830723,40.77842671433051,0.5,262.6349424905699,79.97084008143155,9.84581471551641,7.25134958186219,10.487754368320855,12.545399911793016,0.25,26.14059345433818,4.708532503008167,2.8118094470831876,2.118607611962469,2.6561976891430765,3.1865570695910317,0.35000000000000003,22.724290948196277,4.343478989579501,3.0481174160628637,2.2591348786485246,3.2745653895505535,3.8613252879227113,0.0,2974.2324190136333,6.140761105366523,48.06167662061107,45.3232214872555,47.629885083831894,50.5470853243799,0.2,9473662.044507679,153525.8668987071,2003.5398286778448,1690.4765450817367,2081.7768153916313,2489.286448473305,0.4,1061032.4472917377,17913.683411192047,737.5056103295826,585.8303528395651,694.6956539242979,888.3662812234484,0.05,6872233.600281279,2787280.736290589,1652.4400570235734,1072.3401351439736,1819.9820527197085,2048.5179621813313,0.45,38889.097802179436,907.0945841412648,161.77929397614835,147.72959238698928,161.13541941303737,175.25497789245225,0.0,83358.71169956452,-16195.027080958396,119.1891519840535,96.27050274440195,113.08137425593542,145.82740859968897,0.0,7766.024338844064,517.4288663233564,47.2565631473292,26.04810666153201,46.575316490554286,63.58064019997299,0.1,4822.688243764259,163.90464856980702,45.39851468274882,32.44769029840337,50.70208303151692,61.858583720246045,0.0,2703.9090348018353,54.26627610958324,34.36205576658823,31.381043673385154,35.31164208171414,38.67613430355434,0.0
2018-09-11 18:46:42.450,0.35000000000000003,9.185283912277264,2.0322199803832564,1.5529801064647613,0.8699447045914,1.5047767435744865,2.064115904768223,0.0,8.089735571135666,2.2043403824599723,1.5606395932838395,0.9987135373691833,1.6147400935787157,2.197833030387361,0.15000000000000002,122.96260363128445,43.950982477213586,6.10008025220924,3.5547825818786034,5.979873081513195,7.977268081954705,0.25,215.06508277505986,41.34348234862737,8.368489652617539,5.304601429335783,8.174362774541562,11.777605806836089,0.30000000000000004,13.31901988882552,2.1317075011104065,1.8345954236842297,1.1075553992735023,1.6249235620615414,2.2801892737443605,0.25,32.99850084608588,0.6038988255324464,2.790602792030165,1.9147913025086543,2.4336504889678454,3.3673478575923363,0.1,272.9417118218158,26.29486546580288,8.96850368669358,6.061287707017235,8.552633871290311,11.182116964226493,0.15000000000000002,966.7458151234625,180.61797877270098,16.49735539411529,11.837262633045807,17.88397078069434,20.732712442476526,0.05,16599.31354682249,995.5470519671437,63.94520353796712,49.70665963302786,62.78137577823357,72.7011788425928,0.15000000000000002,186.10457150911847,17.017992138645887,8.628357975152948,6.646471153551877,8.956131745164694,11.647883616615754,0.25,331.46633912333397,35.294767206876536,10.441939331256552,5.49572805540519,10.490316221745747,15.265964243886529,0.15000000000000002,1947.413810676776,25.457571825407204,32.61189174407581,30.047414678067074,33.014887061069366,35.40216088965066,0.0,262.6349424905699,40.82775733698356,8.436728146458584,5.38156317855711,7.065929170283764,12.06135945959874,0.30000000000000004,16.271807590085725,2.4165909922723934,2.025131933160613,1.6237943023622123,1.9718749490033662,2.3565679605552514,0.15000000000000002,22.724290948196277,-1.9304371024437537,2.931953044538577,2.081340049373978,3.049583129075627,3.7937061334835476,0.05,2537.475633608144,18.07686986127548,42.93911058796024,40.1274312170151,43.38009809401322,45.22306684608381,0.30000000000000004,9473662.044507679,161532.3701401283,1918.4198065900455,1614.7787561557898,1845.9754487222717,2307.0233778535758,0.0,974651.5075489378,22096.482105357114,714.3076418540865,548.9747321976045,719.2965703264531,879.8473975234265,0.35000000000000003,7070355.902550964,2833668.806621649,1587.314595415937,1009.0613744890363,1672.6210712970226,2045.371656439833,0.2,38523.88164317754,928.111137402735,166.06193149371262,149.44889237350398,173.2611872662306,177.2507980743937,0.1,61179.484801111445,3418.379559827139,128.56792865751552,81.47167581687215,133.69446211103562,159.32624323279538,0.05,6602.2575708681925,495.6626941984149,54.258849162285756,40.07367788478102,60.259645082533254,70.16971931422464,0.25,4062.45775827238,170.57394624503945,43.61613331476331,35.157116070277425,46.07416113124151,56.42772415782445,0.05,1634.3842548580778,0.5132687455982641,31.004346603224867,26.88278881183811,32.738394376121875,35.57338478476842,0.0
2018-09-11 18:46:42.950,0.4,7.519723399929052,1.4209256305394093,1.6380273670563792,1.3369671144563045,1.5997804085440068,2.064115904768223,0.30000000000000004,10.076192749760134,3.1142631032208943,1.7138815159075782,1.0537914050850814,1.6832050721249248,2.2992829254838396,0.5,66.37156490079957,22.930558783566855,4.417355198480331,2.415053484642452,4.445108105713819,6.1696491791245,0.35000000000000003,134.95365973842405,22.385079980551108,6.144134666971736,4.753291175657431,5.91578290858434,7.840658833733765,0.2,9.827737711695649,-1.4663868550137529,1.670860456246615,1.1190803481270892,1.465151646874338,2.087391037480806,0.25,32.99850084608588,-1.1822673413050702,2.938341223930709,2.050161544609726,2.6095343787983736,3.573007551094978,0.1,190.8324663204921,14.227970072961497,7.251919833375188,5.068048863687366,6.757456663491498,9.582880468457603,0.15000000000000002,1522.0995506849033,129.35582700907216,15.13441573132771,7.036434900672011,16.506976446539433,20.152442725888328,0.1,8215.382839458181,-2102.9297450639037,55.428854085986096,43.88778883010991,54.60185459079926,66.07831152472326,0.25,263.55679448179575,30.326979888617156,7.983282689265431,4.3568034531458855,8.473621218354905,11.163679823205213,0.30000000000000004,358.10577922737826,37.49098715308538,10.208186147388247,5.993538208807635,10.52568816896314,13.697503509573073,0.2,1259.6772294532277,-10.092906083208506,26.773149594524984,22.57562241707045,25.679119096977033,31.420346729362226,0.35000000000000003,145.58916117373465,31.984325622925518,6.735413314338416,4.893541022327469,6.046179039113788,8.834531319855312,0.2,16.271807590085725,-0.4081177738907382,1.5009810034436524,0.685759827777358,1.1166680816029153,2.020383229035641,0.15000000000000002,28.972994262374236,-5.6671398523107115,2.8185337689813523,1.614793378135594,2.926301437215905,3.770806137590048,0.1,1983.0266062434976,5.517995637415331,40.1557105602202,37.97135432326546,40.0607852730992,42.13713693563968,0.45,8088726.110150526,-281439.9473613955,1815.1551788735862,1579.043240556588,1712.8640397619297,2214.896447059983,0.15000000000000002,868410.0649522624,22649.216844554812,737.8959548144423,617.3897634891066,771.4519949758978,879.3517070666875,0.05,9836079.193262763,3353242.2902199137,1796.0170531753186,1372.4732150711666,1774.727851247426,2377.0691189648164,0.0,35102.50649836517,207.77226599957504,144.7232532768007,128.3971323255115,139.66578876489496,169.31029064642848,0.25,67560.53055262516,-12592.84708197829,124.37312781482663,79.79388036480742,117.51690798815217,146.61980622157574,0.2,6137.81406871818,374.1505742364725,50.94949742310539,38.83244983323953,60.034077070234275,65.89662788429571,0.35000000000000003,3400.0735922215467,161.5794079891115,36.58275840615855,23.176587189240323,39.299233397141364,47.90338712114588,0.1,1454.803082299518,-81.15648133021577,27.028157631681182,23.69788894825082,26.76710863728932,29.573368744392184,0.0
2018-09-11 18:46:43.450,0.1,7.519723399929052,1.8597548227929424,1.5565712958026512,1.208126295684077,1.5284054875272108,1.8461147785373346,0.2,10.076192749760134,2.0629237122269317,1.668397266352681,1.0865961516921603,1.605208203523374,2.0640711774814937,0.15000000000000002,111.9227896380159,32.29992322674981,5.482249379897192,2.5388177269048553,5.823267123095758,7.748613110988065,0.15000000000000002,134.95365973842405,29.840322637042746,7.340409699925911,5.69931128224632,7.6838346149358,8.865176146795918,0.35000000000000003,10.524221552712548,-3.364350939533616,1.7401442124955366,1.273625555824169,1.5797192938127371,2.062618914880126,0.2,30.357073361670196,1.9382973497798803,2.698718309335298,1.6469626863585476,2.468034543322384,3.3539210179765404,0.5,304.4859808249086,3.646678658666805,7.0397400042141,4.708677312528933,6.701593492489542,9.488671295963206,0.35000000000000003,1522.0995506849033,231.17914188273656,17.400849832748683,10.970117834618916,18.498705601929057,21.212542934575854,0.4,8215.382839458181,943.7252249740679,45.583465548648824,33.525819527413596,39.37630091510016,57.146328238838265,0.25,263.55679448179575,29.209646731041538,6.593604330286473,2.9266494587456435,5.632986785778687,9.16972886279962,0.4,363.53548114781285,36.53035653983062,8.907538954923854,5.379860230405528,8.219124031519549,11.32969374411656,0.05,969.4618930508063,10.411411644668014,23.824286320145735,20.706598985644593,24.20039896327762,26.232002810633993,0.15000000000000002,145.58916117373465,33.728938539847576,7.640994427193024,6.012496529027654,7.422919300194053,9.691572507747063,0.35000000000000003,13.048915875867088,-0.7920706539218686,1.6016457321413742,0.7648065177249077,1.084976395808361,2.641759065828441,0.35000000000000003,28.972994262374236,2.4141022559108984,2.475240462103579,1.4836541990659167,2.416725860499978,3.3845551276939623,0.45,1945.4330041507817,11.598963562716184,40.355401114581845,38.14664548784385,41.19137228337368,42.54560556736999,0.05,8088726.110150526,54316.44255144158,1745.0084781907892,1266.6923350247857,1664.9854914775037,2259.882858795917,0.25,787862.7826291153,14514.148579495954,677.2249534566334,546.0269822644261,713.0555829790549,799.0008914595428,0.15000000000000002,33466757.933471803,7813276.568361785,2522.324514459005,1454.010346389854,2068.326242522308,3227.559269964301,0.15000000000000002,26318.247226877855,1138.8090312509632,123.40470917528344,110.99599164921827,119.45488060565356,138.9922308243271,0.25,67560.53055262516,-5228.967533224267,110.04557225184085,71.36009872088138,99.70489833467586,141.93617994674403,0.35000000000000003,4964.784372229289,393.6692450419079,39.04504358103592,20.165596175071727,42.77386744339077,59.24013420692146,0.45,3319.3268646547062,171.30494667452564,32.92954953870601,23.202501469027276,30.615431806265185,44.9680454093272,0.05,1021.2592598852452,0.9282823159681686,24.89063678638804,22.481978156744432,25.371465951025925,26.516098089267263,0.0
2018-09-11 18:46:43.950,0.30000000000000004,9.122244267540191,1.874778396265926,1.501500973412829,1.004423789630202,1.487789019206405,1.8461147785373346,0.2,8.851820951836704,2.595214153599667,1.4800163213175725,0.849525736663406,1.2892544929106728,1.887373689810489,0.35000000000000003,111.9227896380159,48.48442500460801,6.639866548025148,5.0203141128322475,6.710033903401669,8.412186964175314,0.05,217.4065100996734,11.088670021768612,7.494018346278141,5.43160919466653,7.5483042476184945,8.850195194217502,0.15000000000000002,10.524221552712548,0.3656724527001597,1.3944973154844607,0.8654650743460964,1.137256440908769,1.8542712381321356,0.4,26.1101455963907,1.8115459423828146,2.0962514521024334,1.1766322705490704,2.042432782659902,2.919432174345251,0.45,487.119050626748,23.705749483758634,8.313271355049654,5.02953839517102,7.8642468315201945,9.488671295963206,0.15000000000000002,748.3416681527638,109.81690956368993,13.169754557391304,7.363618645453842,9.705394871151242,21.158907230616816,0.1,11095.51977077197,598.6489770040278,49.788814058290235,33.525819527413596,48.883944892640145,57.44161010260265,0.15000000000000002,218.50869644880552,21.163233888472686,7.3984672079278795,5.189189107904418,6.769452976831496,9.831681256899797,0.1,363.53548114781285,33.90938596349659,8.615134243290925,4.440464418779377,7.672745857256619,12.184353146173198,0.05,869.7962556712331,22.049164852055547,21.32152127474985,17.17322624456655,20.844671634626664,25.58139324902161,0.05,171.34231841430906,9.416398125673524,7.0597849903128616,4.937199021013972,7.0912861891782075,8.750793103277875,0.1,13.533074601837383,0.3530873725729108,1.8351277556759242,0.983750368228471,1.5347653992075188,2.854997592939727,0.25,26.121220113308866,1.6382031880178765,1.9446666361910663,1.0118215343055341,1.8471968894520945,2.414246294957895,0.25,1912.6019086389854,9.984062656237619,38.27044415568437,36.04010863993724,37.49637365361107,41.188421804847266,0.15000000000000002,7182735.148871938,-162279.34808215903,1634.5691099027415,1203.3473961647187,1600.216143097802,2247.0130187843165,0.4,636753.5694697824,11571.536456009791,580.7018511756999,464.6686909009064,568.8591694147766,687.7662096258853,0.35000000000000003,33466757.933471803,10662146.908786708,2854.5504522013666,1564.4492255632192,2693.2116820596457,4395.250182446276,0.2,21568.325924673798,913.4900328977898,114.23068768640235,96.00296396670193,115.67349249125357,129.21766212686904,0.45,57366.31076493624,5109.689919174522,112.13330182336526,58.904262592755074,109.14065974268233,149.086436988161,0.5,4415.449386001666,302.6501658182375,35.48115808205762,21.66239625045069,34.586438340347435,53.55695281222745,0.4,3495.072715571293,130.55490736683623,34.681793269526686,23.2506554665935,36.706868375248504,45.14138063262801,0.45,827.600253006737,8.31999834501899,25.129765802691697,23.937984560352135,25.964779117263667,26.803740947354036,0.0
2018-09-11 18:46:44.450,0.2,9.122244267540191,0.9131663976989525,1.40768431236682,0.7562815346395224,1.3643373247645063,1.8206183930614053,0.30000000000000004,8.851820951836704,2.334297283003315,1.6037931925475057,1.0219730294783662,1.6044088883981251,2.038630232811903,0.05,105.81437842986222,33.484621990364154,6.0914313992480515,4.488786543744839,6.267163885951271,7.787266575539439,0.45,217.4065100996734,3.2975539521468296,6.283766113528548,3.750446940285779,5.806771937349074,8.19528516717241,0.5,8.62278932107411,0.20679464293427674,1.5505647353515868,0.8419352767478672,1.4543970521919356,2.2606440903284355,0.4,13.460517884352507,-1.0622812704649165,1.9143280132311808,0.9400847498665642,2.05720680747907,2.750330054772,0.05,487.119050626748,29.45842870213029,6.633289739130641,4.140844141550463,6.398482518063374,7.955711675219706,0.35000000000000003,659.3222707384332,80.84913340225037,11.734621912238351,5.240499403462001,8.455631483275436,18.489052858598164,0.4,11095.51977077197,-1123.0997984949374,49.54429214402414,30.453553724175283,49.710354266546,62.51258005270407,0.45,288.48721764738286,13.729517967755973,9.281166858211492,6.167536648272777,10.26988048173957,11.150648547384193,0.1,248.0705531635567,11.816520658765814,9.70266261642551,6.281489326036739,11.866888166024307,12.964639414207781,0.05,648.7586349502149,20.84823390748337,18.60842344381987,15.67318733961446,17.609855583194253,22.123046139143348,0.45,171.34231841430906,19.000153303971217,5.629233820241977,3.2594949205430663,4.588168936447016,7.634885642966782,0.4,13.533074601837383,0.409211628371468,1.5467926971903245,0.9071514055801275,1.260708940199938,1.945122591641564,0.25,26.121220113308866,-3.7566556589713103,1.850562851489654,0.9972951978998202,1.8471968894520945,2.255145083524577,0.30000000000000004,1444.661312178339,1.1323916721513398,34.98200645597488,33.91446033031502,35.37413896455318,36.59122686662332,0.15000000000000002,5402227.248517131,-121084.82043034426,1510.799056222144,1209.3290372862464,1370.6252423433266,1829.002147172005,0.0,559477.8571686158,14021.183223191601,552.2288639016072,418.9728470757024,570.0290547845566,682.6898413607865,0.05,28220289.222894065,6754540.989753818,2527.227315736128,1894.6154977406973,2548.4105560614594,3055.693055472038,0.5,23479.363519976592,1206.4164844118861,122.71427186531255,104.8038465924119,134.70555683887878,141.24293600030254,0.30000000000000004,100112.09764635487,-3920.368001641028,130.26507274689092,80.24088564500524,130.27785055967752,165.7332435786413,0.0,4415.449386001666,142.09034592547954,40.25712337789966,29.752823413910438,42.04538306230408,51.71760334923665,0.1,3495.072715571293,-1.6528053472045485,38.57140968967148,30.11599752534651,43.50560973009511,48.878356254728885,0.05,827.600253006737,-4.306390721838655,22.17525704781762,19.567378286792263,21.318428825122332,25.881594006948205,0.0
