%time,field.orientation.x_fft_peak_frequency,field.orientation.x_fft_peak_power,field.orientation.x_fft_band_power,field.orientation.x_fft_mean,field.orientation.x_fft_p25,field.orientation.x_fft_p50,field.orientation.x_fft_p75,field.orientation.y_fft_peak_frequency,field.orientation.y_fft_peak_power,field.orientation.y_fft_band_power,field.orientation.y_fft_mean,field.orientation.y_fft_p25,field.orientation.y_fft_p50,field.orientation.y_fft_p75,field.orientation.z_fft_peak_frequency,field.orientation.z_fft_peak_power,field.orientation.z_fft_band_power,field.orientation.z_fft_mean,field.orientation.z_fft_p25,field.orientation.z_fft_p50,field.orientation.z_fft_p75,field.angular_velocity.x_fft_peak_frequency,field.angular_velocity.x_fft_peak_power,field.angular_velocity.x_fft_band_power,field.angular_velocity.x_fft_mean,field.angular_velocity.x_fft_p25,field.angular_velocity.x_fft_p50,field.angular_velocity.x_fft_p75,field.angular_velocity.y_fft_peak_frequency,field.angular_velocity.y_fft_peak_power,field.angular_velocity.y_fft_band_power,field.angular_velocity.y_fft_mean,field.angular_velocity.y_fft_p25,field.angular_velocity.y_fft_p50,field.angular_velocity.y_fft_p75,field.angular_velocity.z_fft_peak_frequency,field.angular_velocity.z_fft_peak_power,field.angular_velocity.z_fft_band_power,field.angular_velocity.z_fft_mean,field.angular_velocity.z_fft_p25,field.angular_velocity.z_fft_p50,field.angular_velocity.z_fft_p75,field.linear_acceleration.x_fft_peak_frequency,field.linear_acceleration.x_fft_peak_power,field.linear_acceleration.x_fft_band_power,field.linear_acceleration.x_fft_mean,field.linear_acceleration.x_fft_p25,field.linear_acceleration.x_fft_p50,field.linear_acceleration.x_fft_p75,field.linear_acceleration.y_fft_peak_frequency,field.linear_acceleration.y_fft_peak_power,field.linear_acceleration.y_fft_band_power,field.linear_acceleration.y_fft_mean,field.linear_acceleration.y_fft_p25,field.linear_acceleration.y_fft_p50,field.linear_acceleration.y_fft_p75,field.linear_acceleration.z_fft_peak_frequency,field.linear_acceleration.z_fft_peak_power,field.linear_acceleration.z_fft_band_power,field.linear_acceleration.z_fft_mean,field.linear_acceleration.z_fft_p25,field.linear_acceleration.z_fft_p50,field.linear_acceleration.z_fft_p75,field.twist.linear.x_fft_peak_frequency,field.twist.linear.x_fft_peak_power,field.twist.linear.x_fft_band_power,field.twist.linear.x_fft_mean,field.twist.linear.x_fft_p25,field.twist.linear.x_fft_p50,field.twist.linear.x_fft_p75,field.twist.linear.y_fft_peak_frequency,field.twist.linear.y_fft_peak_power,field.twist.linear.y_fft_band_power,field.twist.linear.y_fft_mean,field.twist.linear.y_fft_p25,field.twist.linear.y_fft_p50,field.twist.linear.y_fft_p75,field.twist.linear.z_fft_peak_frequency,field.twist.linear.z_fft_peak_power,field.twist.linear.z_fft_band_power,field.twist.linear.z_fft_mean,field.twist.linear.z_fft_p25,field.twist.linear.z_fft_p50,field.twist.linear.z_fft_p75,field.twist.angular.x_fft_peak_frequency,field.twist.angular.x_fft_peak_power,field.twist.angular.x_fft_band_power,field.twist.angular.x_fft_mean,field.twist.angular.x_fft_p25,field.twist.angular.x_fft_p50,field.twist.angular.x_fft_p75,field.twist.angular.y_fft_peak_frequency,field.twist.angular.y_fft_peak_power,field.twist.angular.y_fft_band_power,field.twist.angular.y_fft_mean,field.twist.angular.y_fft_p25,field.twist.angular.y_fft_p50,field.twist.angular.y_fft_p75,field.twist.angular.z_fft_peak_frequency,field.twist.angular.z_fft_peak_power,field.twist.angular.z_fft_band_power,field.twist.angular.z_fft_mean,field.twist.angular.z_fft_p25,field.twist.angular.z_fft_p50,field.twist.angular.z_fft_p75,field.alt_error_fft_peak_frequency,field.alt_error_fft_peak_power,field.alt_error_fft_band_power,field.alt_error_fft_mean,field.alt_error_fft_p25,field.alt_error_fft_p50,field.alt_error_fft_p75,field.aspd_error_fft_peak_frequency,field.aspd_error_fft_peak_power,field.aspd_error_fft_band_power,field.aspd_error_fft_mean,field.aspd_error_fft_p25,field.aspd_error_fft_p50,field.aspd_error_fft_p75,field.xtrack_error_fft_peak_frequency,field.xtrack_error_fft_peak_power,field.xtrack_error_fft_band_power,field.xtrack_error_fft_mean,field.xtrack_error_fft_p25,field.xtrack_error_fft_p50,field.xtrack_error_fft_p75,delta_yaw_fft_peak_frequency,delta_yaw_fft_peak_power,delta_yaw_fft_band_power,delta_yaw_fft_mean,delta_yaw_fft_p25,delta_yaw_fft_p50,delta_yaw_fft_p75,delta_pitch_fft_peak_frequency,delta_pitch_fft_peak_power,delta_pitch_fft_band_power,delta_pitch_fft_mean,delta_pitch_fft_p25,delta_pitch_fft_p50,delta_pitch_fft_p75,delta_roll_fft_peak_frequency,delta_roll_fft_peak_power,delta_roll_fft_band_power,delta_roll_fft_mean,delta_roll_fft_p25,delta_roll_fft_p50,delta_roll_fft_p75,delta_x_fft_peak_frequency,delta_x_fft_peak_power,delta_x_fft_band_power,delta_x_fft_mean,delta_x_fft_p25,delta_x_fft_p50,delta_x_fft_p75,delta_y_fft_peak_frequency,delta_y_fft_peak_power,delta_y_fft_band_power,delta_y_fft_mean,delta_y_fft_p25,delta_y_fft_p50,delta_y_fft_p75,delta_z_fft_peak_frequency,delta_z_fft_peak_power,delta_z_fft_band_power,delta_z_fft_mean,delta_z_fft_p25,delta_z_fft_p50,delta_z_fft_p75,label
2018-09-11 19:16:59.600,0.2,5218.208599641088,-301.0260945247744,25.984943167420578,10.127198123553228,14.358436527486425,38.47364682355784,0.1,4819.181679121564,598.3075800848382,31.145929892775236,14.387724261018736,29.164225714651447,44.19447281702401,0.0,541300.111850467,-2979.8513971416096,112.79521906844604,32.770536818498826,68.99595531108076,97.99545289211667,0.35000000000000003,11556.772247175792,768.6582967308844,42.018182350748376,19.8033315745394,36.514567515354656,56.160708178224176,0.0,14014.17195964205,203.57527080895102,30.82168357401286,18.188283247023193,25.550619383454205,34.68562715791395,0.0,16866.923032097526,705.5792728536846,35.5933416799627,16.050381366299906,27.932966793110303,42.14239359866222,0.2,209263.40291425018,13823.719818519765,164.9491260911122,69.60057268566635,130.50660976763828,260.02714459505626,0.05,977538.4605153669,77319.19053586044,229.08378317720832,78.61968415923977,138.18052417513192,220.02904610890013,0.0,221488615.36114317,-1226746.4709303165,1090.981592900242,197.2538827088444,349.07548441454855,548.0581003498893,0.05,163056975.87637955,2729058.721597407,1942.642254507948,495.93898560538827,785.4910879002413,2721.2879709493477,0.05,94426561.17603727,-3723445.837055712,1420.8862495958554,276.4973198801506,657.7960642436108,1635.6427627391963,0.2,701350.6518986725,-26724.034393019545,392.43766142175616,216.31092247421296,417.22218313344973,516.668734305251,0.35000000000000003,11956.952710320551,839.4054791752073,43.16698656178819,20.784508563972167,38.46458623061945,58.49327435287575,0.0,13707.829850551525,136.54810900778904,30.43572009673997,16.955215373373264,24.692945717586376,34.04371561081431,0.0,17080.750813869323,646.5392598045256,35.75520122136156,17.068556961598805,28.260101649280138,42.12343788868205,0.0,893998599.2333392,-4302933.70418497,2313.9373196217516,387.4325376633137,807.4439910940534,1277.4652704478299,0.0,84874899360.82861,-2524170930.9831576,38614.70504992512,6927.33016134764,17550.57216453112,38126.29098773434,0.05,751209507.4154199,45970964.21157719,8304.568949865523,2450.2730098239354,4262.316607867322,10040.92275540692,0.5,786514773.2177616,-629275844.5174344,15615.642121930654,9027.926608283065,16040.59483145659,21409.67474986304,0.4,3555586.5097935675,-578046.435211672,888.6548915864756,446.9146355814326,855.8154558517381,1298.23282758,0.35000000000000003,43906129.42776041,549794.7989975299,2682.1771487529277,1653.750735307569,2528.170044578131,3572.7911272389556,0.15000000000000002,6777990.791617071,1078547.7604647074,1091.8510066322676,393.03616730655483,1004.2549579390623,1554.5894608606213,0.05,22941321.48610312,1578177.509736918,1366.5383436414322,303.03175252735826,1027.5848077346316,2038.3824251549938,0.2,709624.8067437949,-25571.650448034263,393.91058215072974,217.2079021017548,418.3997084096251,515.3866536537474,0.0
2018-09-11 19:17:00.100,0.05,1271.7486218651109,-58.425265838016756,8.940960939330798,2.8636717702405265,7.692466617374822,11.295349132577215,0.0,1209.7877523303848,-147.375864250986,12.087255891379172,5.317140768384328,8.253439623801876,14.874401859716519,0.0,10826.39054045309,-6433.796049610872,34.388232621570985,18.51072878803837,29.962466411715347,40.09121719186817,0.2,4538.101252876851,557.2317277869818,26.056677523255267,11.695689103819936,19.907743798654106,34.73559117060421,0.05,1488.768892421054,-42.76657795976821,15.05245293164154,6.994601176158719,13.582086798283864,21.57075662280658,0.2,1328.5694804508419,198.3810577318506,12.981687779100536,5.07025858025366,8.2356510995004,19.60263216041376,0.05,30991.06285599076,-1950.5242842671414,52.35153975872303,23.27825381960102,47.53072735657081,74.75742400551567,0.15000000000000002,28541.37027410016,2217.950131380161,74.23901861863344,47.32651343399394,66.20888777907662,91.54297772590579,0.05,524472.8931418868,-22255.45020519319,255.42531208797874,138.6229996536756,188.7412792783623,328.53316775049854,0.1,724480.0139640126,30464.631169263663,300.16736057897447,166.35173616614887,197.37534195432755,318.0898078495468,0.1,357390.50662401615,47792.19002485219,230.14113046243148,124.35350068505508,193.0198789867869,271.8598739582285,0.1,399622.1483869868,-35483.35265211444,175.21140192155542,53.543168664873875,122.06384466536113,217.23139697975503,0.2,4701.98110627759,599.1864434231068,27.11808803166003,13.99797482889792,21.234531474457462,36.59697982005214,0.05,1512.2117290854706,-34.191871369904014,14.773075264482397,7.0407382319805585,13.456523402036938,20.799368519113457,0.2,1308.9224480620765,193.42888382634106,13.048509298979718,4.510963884993151,8.563810474101775,20.308515988150603,0.0,1110925.611311349,-38069.85202499357,374.5740657072387,235.52525167401214,288.291404218686,388.6107575055799,0.0,641303722.4697965,-132924985.17457542,7018.881967724609,2592.827676007396,4570.992198188887,7561.657220578169,0.0,15408453.113122372,-299903.41054301284,2120.3678627961776,1561.32519667787,2034.408924892712,2443.384670498086,0.0,786514773.2177616,-1105074526.3644986,12956.964164682078,7160.365395499807,13108.034294101282,17929.80215947899,0.1,3555586.5097935675,-418037.0478359195,607.5581243766251,299.9019847295161,470.82937781802707,800.1731816352019,0.2,15932182.947768295,1974553.9892349066,1365.4341900931163,543.4533324251798,992.9298010415405,1798.8763666718303,0.0,1560305.1235552342,169917.7430405185,346.6798036602077,137.7896243955387,228.57276732612593,383.2368959761013,0.1,2057220.0457456142,70253.78264294616,370.0918240034885,169.00802791244513,220.97471706450045,403.4665552971981,0.1,401231.07064865105,-37284.78726551963,175.31264047617978,52.45933731828947,122.19426597832833,216.72167404799,0.0
2018-09-11 19:17:00.600,0.05,129.12289612602783,-53.17889095814212,3.2538478571965492,2.172039855268973,2.6568113171683545,3.385483370070912,0.0,255.94923485392127,-69.14600591919873,5.397509477266625,2.9605192506489093,5.115704862487922,7.022725529825921,0.1,1672.4826390935523,-2536.9966232553097,16.341192046949942,7.2255204958223835,11.964166223197232,21.606083696168746,0.05,544.5520743018548,24.405987385219174,12.687183817259534,8.856931113604709,11.668807240143458,15.30762118903409,0.0,444.87659274409464,30.37920926451692,6.848159794592884,3.2418441335159445,4.9788654742520055,8.214592535934129,0.15000000000000002,157.3498022173314,11.489014504249292,5.996227062329012,3.766689394925109,5.008831590617474,7.199794795819317,0.0,5931.637180373485,181.141189436162,22.55963719973336,10.41459140566939,16.745523659009564,24.09408092395222,0.15000000000000002,13532.004228551432,800.9728181971718,47.610753102028546,24.30942935407229,45.7909487118128,61.69118676945712,0.0,121757.96449217769,-3640.2916836838394,118.36044747032854,59.657571909227165,102.62875501224181,146.25585876092168,0.25,52509.62998556569,-22.39456662973585,152.2959150233086,115.62628168996025,156.61761771774013,178.82692759353472,0.05,60745.32928440719,3219.81917911143,122.29452402365207,88.91205758531986,109.57325076267281,130.4086810241356,0.0,45986.52551521051,654.7457228463807,54.45788121675076,21.527645805765815,31.642500671822845,60.97437803146874,0.4,505.47425222723535,43.50631751960526,13.545871340139986,9.049438587560317,13.756443173453654,17.476508108606172,0.0,411.75570431493634,30.22249513147057,6.919636290275163,3.380822122237037,5.131547165204898,7.624312773325683,0.15000000000000002,182.588531477854,7.274884623764378,6.216220731099432,3.559188624769434,5.209335183188058,8.088870860877291,0.0,146539.12877471553,1633.4215866210297,215.87632445954463,175.38167817165598,199.18666828003126,236.11266051069515,0.0,80914885.03170885,5348105.038122979,2674.6891076907214,1494.9852466062093,2148.7339078857685,3886.5607139954095,0.0,3961507.780005785,19589.459236494546,1388.9003955549094,1141.5881064250752,1291.334157796542,1560.6937959973143,0.0,342137373.2034325,-599994475.6714678,7682.414201798894,3146.0353254813126,6148.139393331738,10141.437030705485,0.0,618802.5362947143,23039.21099053809,204.127876132845,73.40905416275423,124.09728576110061,279.395910492087,0.15000000000000002,1135766.3760628453,195140.90303220728,570.2037568096531,373.15314480410973,618.2051648523383,697.6154846675149,0.1,107927.42189248977,11778.972254483066,141.4444799370213,106.00576955625381,136.04663560218137,179.68329860694763,0.05,139944.85802854333,7143.956150187803,166.47935292446658,93.3609575596451,155.20774861807718,205.90614171494377,0.0,45357.612457836694,947.5000994269537,54.08193122799645,22.44505839240217,28.28158523025441,63.79646417794318,0.0
2018-09-11 19:17:01.100,0.15000000000000002,13.702201209780087,-22.79012248768586,2.2005856769418997,1.6116263657789636,2.1328402525560404,3.153508688917608,0.1,57.95130335837201,-47.29172420014537,3.7685389001189393,2.340724411985641,3.18649330421476,4.464633693699957,0.4,432.13079687517455,-755.1676209385199,11.609993947611294,8.0989250801829,10.776215488212152,15.811840085530356,0.0,438.9867700113466,65.31845666182922,9.987182978998197,6.110840221384897,9.822330463101704,12.775210643037795,0.0,139.22949309432042,3.925989083546741,4.0331995522029365,2.4476396257490585,3.5068753872072786,5.149300769797396,0.15000000000000002,150.52356642551274,30.505594022865377,5.721300333282556,3.881043092840131,5.585487086884795,7.16211293090346,0.45,535.3834840903603,-44.082472899161004,12.646452174379286,8.678344513129549,13.016543671040182,16.688921320566728,0.35000000000000003,6054.186961987133,508.40588467520104,36.697501124455606,21.574993876982628,31.40597645214165,49.37657650120062,0.45,24357.815723895044,-4218.567504717486,67.13742548974857,38.78252777998649,59.74838555862635,88.49111310429596,0.0,23897.575174247133,100.8245622725596,102.5952724319366,86.0477881962056,96.3876841429481,115.30771847553487,0.0,12417.98547895717,196.68690353126286,78.12997355041834,65.57884186920589,73.11455882181825,90.51371020614292,0.15000000000000002,2850.2430480576277,-389.5345569642155,22.501547374324197,14.363623992581555,18.902603388597562,30.5628597246721,0.0,450.265847567462,47.77472672129997,10.631399748841725,6.42675595908487,9.10927583629058,14.275738853811825,0.0,165.99582109382155,5.84816502412246,4.45395288811994,2.548903711467182,4.116258218475416,5.623677644045248,0.15000000000000002,131.04834523930373,35.83894720504008,6.138504388186868,4.303063692234933,6.043467400678123,7.482983858102594,0.0,43330.78959079126,185.95651883035111,151.00980369410553,129.09227180429633,149.3049547145909,171.649449519725,0.45,7079950.0545306485,599739.6807035166,1383.9783946204684,897.2876484540799,1485.4986948012033,1887.362099574384,0.05,1623923.6867937585,14677.261149847427,1016.401659724871,900.268767773272,991.5476883293125,1132.7704405198542,0.30000000000000004,72024247.12501515,-293833628.08820504,5950.044889351055,4673.469487748516,6232.8080886788275,7402.508239039622,0.0,62237.565602063194,4932.593969349996,79.23274470683576,41.444839908647175,48.043480059023416,99.84724754778185,0.05,525207.142929071,94242.89416054913,369.31661301517073,193.95155560074153,311.19685849972393,616.9992540959101,0.0,48161.4506190134,6341.310728058249,99.38643224753687,54.905578458585104,101.51490146084433,139.29770661065155,0.2,30274.19487193707,1591.150673437,104.09342567111625,83.55395124947054,98.54096863287874,113.97256479099822,0.15000000000000002,3247.5328532023545,-302.12661110335085,22.11075395451752,14.048404246491698,19.947538877490935,27.57150306519949,0.0
2018-09-11 19:17:01.600,0.15000000000000002,11.462524385754383,-21.054418714631414,1.9131664404800237,1.1764876268179452,1.7988780891927134,2.3999501468815243,0.25,18.621772524647344,-30.919541385694764,2.731587843479013,1.9679696256561365,2.4407178573039046,3.2022365831001025,0.1,432.13079687517455,-951.7222232036855,12.56675039102588,9.558780295479302,12.196113484397117,16.12939595343356,0.30000000000000004,165.73589241459777,-21.045502015662162,7.435878027685389,4.623829514115775,6.815731519799694,10.740466449313137,0.5,58.697677993486685,5.649175160488407,2.9773371753599767,1.429301913698227,2.4233382235846017,3.9724932401558033,0.15000000000000002,83.25562893336745,29.414860646840328,5.779823238570089,4.384983464145437,5.201663345621839,7.403754981964168,0.05,535.3834840903603,-39.516445881481566,9.344594266989208,3.950694859409827,9.993028012159453,11.60944567877203,0.15000000000000002,6054.186961987133,419.5627658923592,35.53760151872177,27.483986520091808,30.630745535761903,41.1306504709172,0.05,24357.815723895044,-9362.691094684136,56.046585822594544,27.83175259926933,60.33998332829436,72.29440441214717,0.0,10381.405534244112,-2.194122936757257,81.96536978194611,77.87063338458664,81.2333567799921,86.23831249760887,0.0,8533.351167520403,0.31108149993547585,60.744082063627694,52.31527690522138,56.39517292012519,68.05243471713086,0.05,822.2470401597157,-191.6194481159861,13.462506221520417,9.233974565338771,10.718939643487996,16.3070216290234,0.30000000000000004,249.53286090112738,-11.732874251459897,7.24424623583806,4.357569782708807,7.083304007532709,9.475079657566937,0.05,58.05786976512399,6.819051045711418,3.2664022880820816,1.6440919134870529,3.0705615494771994,3.9995530631107012,0.15000000000000002,82.9332495045532,33.70235640683785,6.147032452423611,4.797723291450434,6.043467400678123,7.482983858102594,0.0,22256.265880067258,69.93095338173066,118.24703062700208,106.37450101777793,116.87308381076643,127.65635227721899,0.05,7079950.0545306485,1356743.7897186438,1100.3964780171814,619.9753561306999,1016.7978737211434,1326.4765724345311,0.05,939411.8729696936,6350.874801018019,803.3266892344243,718.9640812630947,778.8186807457399,897.1099485930995,0.2,72024247.12501515,-266800068.83989075,5655.674011050154,4140.029134000338,5480.023841749013,7402.508239039622,0.05,13029.67437926588,1377.793675162388,45.03974908906045,31.425929329054416,41.47038988227152,49.77076188550272,0.25,185592.83921497635,6308.471002773655,184.66878706271936,120.63481199235096,166.18082125816812,219.43471625082728,0.2,22777.023449905297,3409.5906606840517,74.9050581388875,48.77553229992799,82.0256566540051,101.76967339969724,0.35000000000000003,15935.141032412745,1174.162133988122,82.19173981527251,64.65026956910386,84.10085336339048,103.87731462257878,0.05,812.1493213261685,-277.9270870291962,12.664552366756022,8.13830948073541,11.171376697161401,16.96175668471289,0.0
2018-09-11 19:17:02.100,0.15000000000000002,9.197058223796622,-17.652514096925326,1.7756125241135614,1.2446605450257324,1.7782692354123375,2.147291429133988,0.1,18.59837178317846,-24.711578915881997,2.3513592578619638,1.7849620579014274,2.242766359096791,2.7474022944796275,0.2,261.37110383670034,-529.0464135802101,7.660104918874528,3.692635259733424,5.816707211474501,12.14719973345765,0.25,154.57661940978596,-29.999661912778308,5.466260853233404,2.6880790935010452,5.621963157661071,7.231581582570879,0.0,58.697677993486685,3.6741599367180227,3.2091681899864275,1.8949623927436183,2.9497005100496745,4.08029110888995,0.0,77.2891980919783,15.449419976661524,4.831495889616606,3.765203962635348,4.480707484890059,5.7177116887235035,0.5,325.3897361339066,11.729095616965147,8.597739335090939,4.631780716151283,9.730172875603298,11.606590378589802,0.35000000000000003,2433.157989328398,496.6496885795047,32.47868422514106,28.389072756323273,31.455429423775225,39.833609780277136,0.25,11557.479866837099,-6817.891372788077,47.889772368702126,24.39732928008271,43.37372142567283,67.04552261550344,0.15000000000000002,7428.304264222643,90.11542537231513,67.22378860292031,57.903842106606966,66.55430712352174,77.75004673653142,0.15000000000000002,3239.571996644607,47.43847641052249,47.449316394212104,42.40966249521127,47.78277195710122,51.718322966736395,0.2,536.3198911535885,-121.82122386503039,11.402272609744859,9.078841471975496,10.196323182294854,13.787878874201105,0.0,109.79397483977168,-8.126439249902262,5.879921814904668,3.919204256152779,6.016427632420115,7.7241047143456925,0.0,48.55395362732678,3.1178578746345034,2.9850399395749494,1.7604884258169082,2.9426794074245,3.7095620819127326,0.4,65.71663017483758,16.987001043380452,4.77404464538216,3.7131673534820004,4.7625050653826815,5.960687828603312,0.0,14001.681300053546,28.75895235892603,97.71967320893134,87.79324099135903,96.57141769705919,105.8006048786535,0.05,4339787.192010275,662594.3395395152,941.5513161063607,606.4819319322672,835.8607719552979,1156.247214827248,0.05,612094.7917241993,4301.464476365289,659.5661825400182,594.838428009929,657.3007552095646,718.2719774981056,0.4,30570960.284043226,-112493208.14512983,3630.5288000220316,2543.2499721719705,3889.5730018964396,4791.212941103148,0.0,9635.229772442497,488.69258105286974,38.90561877526094,21.943538610993723,36.27688126948088,50.16531290071725,0.2,116006.65575041047,13411.820898953756,124.71399605747304,47.8289515208844,105.36850676919533,173.9522188772694,0.1,13646.985066033552,2598.729882716978,64.86184902638617,30.98304514356822,75.85430677060512,88.14769817998841,0.25,9946.271605191603,670.9647846716525,65.3328801441417,51.38199653322495,63.511804784231195,80.47155362937623,0.2,576.3710597652624,-208.2140201646316,10.30421014971177,7.799418335235442,9.047878651888764,10.978552413288996,0.0
2018-09-11 19:17:02.600,0.0,4.5723995505254145,-10.620969634482465,1.3752572794469882,1.0774004464438502,1.4707587527325567,1.7657110678505643,0.05,16.99228145092179,-17.95025387636579,1.9351368285790769,1.368529580835392,1.8621030193521042,2.410576201427207,0.30000000000000004,131.34163513303048,-255.33216255320912,6.1649995393450485,3.823571470200062,5.355042114648238,8.757136640425061,0.5,173.57470230023324,-34.622427612475946,4.970311896263194,2.271020770515995,4.570689721727316,7.231581582570879,0.05,37.124034811084144,-0.20410322712579598,2.599634559220383,1.170860227361715,2.3176024917303586,3.70245398634947,0.1,45.98060097333838,11.377829055215566,3.696390186573609,2.4996456516108347,3.7749648635125443,4.300008928625098,0.0,325.3897361339066,38.46930307088164,9.53885127549707,7.530562676280712,9.732443328901518,11.159225506998936,0.15000000000000002,2433.157989328398,576.6369942422435,28.416631887840907,14.83591028015689,29.635442541991942,38.84028208224111,0.25,11557.479866837099,-4089.7073039013467,43.4914589667202,26.087290097438714,43.37372142567283,53.66157458186217,0.05,4033.228768563047,13.891503368840333,56.9183895446962,53.96799591301409,56.92370359184933,59.97257701814475,0.05,2352.0258461246804,29.414800052457977,40.459844262998224,38.43041542029373,40.9102502265464,43.139920635473985,0.05,279.17052900771404,-61.705668431104336,9.39615176849582,7.723590346202303,9.015561207965824,11.53471005700363,0.5,253.41592539985595,-51.41569494352283,6.393639105930259,4.654660181837442,6.919552691850367,8.495383464637408,0.05,35.822269178140026,4.245164001605616,2.6689594049445886,1.7696964032024944,2.4115774631508113,3.1567089180850614,0.2,37.89837279009481,11.865170625000284,3.5965155089577046,2.1490913089118915,4.01753790330868,4.626088437255541,0.0,9304.508083702001,34.539616381922144,82.80205225172452,75.69979979329491,84.22724597646831,87.17184383028233,0.25,3379435.5932196695,452887.5586967824,768.6822536218126,382.7416278912295,628.6786009572589,1154.7153941420015,0.0,411298.7898609748,1726.9349066071736,554.2842203635821,509.1294239301741,551.627817402914,594.1599787280502,0.0,26476509.369867675,-48566010.87720425,2930.2049466639824,2165.8576376601404,2642.1982008602445,3899.4740613548242,0.25,3275.910679195004,146.1564254302353,28.823762590911382,13.862135794743812,26.20170982345419,42.47210696046525,0.0,78879.78610971328,-13417.47089101037,93.5816607176732,32.20387285887639,80.80405076975697,145.0253692785107,0.2,8225.0957839415,1793.1838788419052,54.35865711222267,29.951522951569764,55.65968508511551,74.54721264272484,0.1,6907.610806407782,470.7158126303382,56.130908928088694,44.626440123327754,54.34704359255801,70.02496693545575,0.25,252.04793676316757,-68.45624780226139,7.726012266646924,5.586156094402365,7.045133808148707,9.79723083526889,0.0
2018-09-11 19:17:03.100,0.2,3.308043819373254,-7.161425924328599,1.1499750576296703,0.8687472415817518,1.1784947637562277,1.4584925580132468,0.45,6.2117208128568056,-8.394860337967,1.451451509119684,0.9863158799404916,1.4956905908278688,1.937297707722386,0.2,131.34163513303048,-412.80394367591566,8.09539632111676,6.3599926585110165,8.31481040453961,10.206903766441881,0.0,173.57470230023324,-15.47679199229524,4.975456826992511,2.1947021037156453,4.081109285788939,7.817757701255104,0.45,17.334522083799904,1.8142584817659815,2.1029042714798427,1.035443630526062,2.090211751078134,3.0796082621173033,0.0,34.81774155027304,10.319418864165574,3.2333893634836377,2.5043872176365998,3.295397933025818,3.964875622293723,0.2,161.2482263926773,-56.282237936648166,7.742643415930912,5.898519904407769,7.849956091877798,9.43850522305479,0.2,1654.2567476252632,173.8160967610404,22.21706710465932,14.438727921288514,20.411705596100482,27.251672705167465,0.2,5713.041827534238,-2675.5090427369255,38.1698177415009,22.12727589212464,37.86674761044404,51.469862411016216,0.2,3814.349005812156,47.78756655216495,49.76263846016796,44.77816346923466,50.632565797194005,56.01705499460333,0.1,1927.78589586244,19.673036170273452,36.021884653578795,32.097629925538726,35.55046044270287,38.78904010330117,0.15000000000000002,108.05400488474929,-36.40721704257574,6.19780249639087,4.215457176711408,6.54232558195873,7.892901785525787,0.0,253.41592539985595,-13.714146594177524,5.678073672741805,2.044213033448871,5.027470233967982,8.595969600300648,0.05,14.838521856641789,3.5794100202016725,2.539576648880005,2.0427981511691664,2.5571282299856923,3.263327903963597,0.0,31.73364560836714,9.809387181313495,3.4394631172650585,2.666187276641041,3.5634729476418823,4.2784149232045605,0.0,6957.130258837572,18.480531438146222,72.66582407837849,68.96923845796222,71.80614084799979,75.41520862922273,0.4,1917138.2081860895,87481.65542322789,462.68193202889796,214.4815913467717,466.2849546611013,614.2892302785199,0.0,307608.0622590451,1329.955111754194,481.9254458156799,443.63689541722187,478.94413165530636,508.9137689208191,0.05,19132312.145084165,-16222140.217127489,2009.4408231927016,1037.6062246283534,1685.94291980184,2665.453911304046,0.4,1800.3898905405795,-52.076633793484056,20.000388363532288,13.605595075022299,18.176455750518198,26.17242420830007,0.2,43799.10978735552,-6418.318606759533,88.86442845168143,56.31717713561185,93.57154981914809,100.35613538732301,0.1,6264.949337215316,1391.4562226395142,48.88282559425572,32.7845680839211,49.346831425940614,73.18703118971426,0.25,4744.399123294317,194.78134407266072,47.997382729404094,40.026065301946815,47.77861625641522,56.62946958781697,0.15000000000000002,109.99377457089122,-35.54126713573383,4.936746075706848,2.785019746496856,5.407875452030277,6.240162944955333,0.0
2018-09-11 19:17:03.600,0.4,4.115218537503233,-4.757787934831594,0.9678867719871483,0.5921646440346893,0.9845531962515433,1.3936466580755968,0.25,7.990064986354005,-8.656541569674404,1.4097645567907766,0.9141541787450858,1.2549745322400752,1.9081981338664074,0.15000000000000002,116.32556237560537,-221.31117832098437,5.251402096807707,3.0297254740949997,4.441115728092673,7.99576218011475,0.1,122.35220490100845,-16.268552461222797,4.59652243917815,2.690630581051428,4.452277597147408,6.041119692952114,0.05,17.334522083799904,0.8840517742961707,1.7415663475551768,1.0239343654581232,1.6269912639952597,2.223489464121977,0.1,24.590285076993567,9.939630092846036,3.23466412003771,2.7231217302567456,3.144358124279217,3.777759054219615,0.0,85.04960357994344,-23.401894042392463,5.746538476976204,4.875414886666148,5.863623631718195,7.543324174208571,0.0,1493.500039873208,232.31558982392494,18.948418094407767,15.069845879733931,18.821282972433288,23.2840006094896,0.30000000000000004,5713.041827534238,-3566.304588783371,31.34133333688402,20.101011556356497,28.94453417359722,39.90824516958881,0.25,2684.7391139519927,-8.414771588076258,43.507114962005566,40.48913774296389,44.71145041597555,46.27196746872512,0.15000000000000002,1469.0218788276486,15.94390242248289,32.66702180671948,30.816101590756652,32.30702443191932,34.54626850105423,0.1,158.04467466902923,-22.441728164477468,5.261086481495701,2.909002378251797,5.17159081004486,6.654087426148308,0.1,89.64176522005761,12.370121994312104,4.969145277883139,2.916427425158475,4.828648465471885,6.5920737699169045,0.05,14.07696725003866,2.000921106464823,2.040246835044511,1.1159246578663033,1.8967908339400865,2.9398573622041337,0.35000000000000003,29.419535517223423,6.068355311705684,3.1457662070706056,2.559475508759678,3.0864632727681665,3.6725616159371093,0.05,5064.566079867664,11.42084626373449,64.54328157911213,61.22266275802595,65.21848409380046,68.79936997992584,0.5,1420297.7281706522,165289.26717529263,507.15550462049276,212.79242004027344,504.5072344955838,688.184132966589,0.0,232189.7969665479,1375.9176586485135,428.3819380420229,407.57915544538326,428.35040615618493,443.5458073421137,0.30000000000000004,6331703.855446446,-8521764.439652495,1413.3924526019878,1022.4259140162595,1343.172518621323,2029.7861724079655,0.35000000000000003,2313.980805556638,-130.4343551710167,19.73414200088799,15.211663590302415,17.92176934540516,25.473430867313663,0.5,29599.41829371998,776.8326357271732,89.64561770334255,57.82902998980499,87.11177422585615,107.93171457183072,0.30000000000000004,5623.659460237645,998.6798308351332,41.566090882622134,30.491354416253106,45.733215109144545,53.683148767021954,0.4,3974.8353675448557,244.2474110526239,44.1678855833107,34.65979620370752,45.77596547360668,50.701271076217196,0.35000000000000003,109.99377457089122,-34.148400616720025,4.312998469575715,2.785019746496856,4.056005333165594,5.4465820734252475,0.0
2018-09-11 19:17:04.100,0.1,4.115218537503233,-4.49140885779485,0.8769780121193886,0.5915717736127505,0.6856504597759738,1.4308245980553462,0.25,7.990064986354005,-8.688552928158298,1.3819815783357852,0.8549061440523894,1.2920525374205938,1.9569098352625918,0.35000000000000003,72.99417787357912,-141.5072460355213,4.272093778928124,2.895893735040966,3.788527195890877,6.18380178389549,0.35000000000000003,83.10996981140467,-18.840856531756714,4.30671319943513,2.818128105209732,4.011091897832258,5.668857540244702,0.45,8.743907735364791,2.329442969072897,1.481796106911775,0.9847574210124945,1.303809054625047,2.047043612710704,0.45,19.709303253888354,8.804187854997895,2.9393248397055936,2.368706372069164,2.850752458212379,3.759384856785135,0.45,117.84376257181484,9.564562450402825,5.7753593268758685,4.665382469154858,5.766606433798817,7.543324174208571,0.45,1180.4321485378887,166.9146025899658,13.92353299404191,9.055125481238026,13.652725091226575,18.710963628761686,0.45,2081.838356067104,-39.92690198047684,25.031209399155674,17.590120359727962,24.016707585891833,32.132451112586224,0.25,2447.0603678514285,26.736607328879263,40.105102733293066,38.42259965635873,39.25831758311011,43.907919691134545,0.30000000000000004,1291.1650128867248,37.51097320673682,29.53073329119848,27.462217995368107,30.169269258310006,32.02805879323027,0.4,158.04467466902923,-18.71201887385248,5.091523552153262,3.36205179828856,3.920082733342332,6.74823909039457,0.35000000000000003,79.15136628717882,-19.532792909166627,5.1530460686038095,3.1132972460357573,5.041992185464313,6.530770063490368,0.45,12.596390105130395,1.5280204982056151,1.6549064981315946,1.149272585185698,1.6762740967258398,1.9010509918628435,0.2,26.207928425334494,5.672392092197139,2.744504964939539,2.056498709524423,2.9459563176957264,3.28619853454023,0.05,4244.972930302641,4.474314248796094,57.87723816775751,54.9346168234359,56.036634307820464,60.96227745970653,0.0,1420297.7281706522,184064.40460753813,631.8437686250533,507.45085079523005,601.4715529284186,779.0629206369551,0.1,184950.11621965244,669.770910154681,382.55966038934486,356.40525683670995,379.8844944942905,402.0069686291877,0.35000000000000003,7996847.285514812,-18334228.7959154,1737.984154371053,1209.1584344594332,1913.1106525833034,2328.3499850699436,0.25,2697.637279496703,208.52906331172164,26.93249544963853,17.30985000649484,24.409601167533943,33.083734972280865,0.0,29599.41829371998,4327.160097305607,93.38940765319282,61.73987265351971,92.64752465020503,126.50647428297987,0.15000000000000002,4947.503885247986,812.1606015778452,38.99869552331815,25.668135788556683,43.56821315413626,51.8548964772601,0.25,3652.245629578496,223.83023591901255,39.375420384566745,29.15962199903926,42.77009218819721,48.400496909820404,0.0,58.00592919053707,-5.866872184709058,3.4198980698992125,2.092667707631443,3.2582243731232765,4.450918627188941,0.0
2018-09-11 19:17:04.600,0.2,3.173140773379759,-4.002546412159922,0.882891873404738,0.6392690595398265,0.691309697427898,1.377353451060888,0.35000000000000003,5.453979877580605,-5.591514545086894,1.2046174244314372,0.683316656471586,0.8732337570580595,1.6415675607853,0.15000000000000002,72.99417787357912,-224.3177480876829,5.849806762697642,5.018652225402807,6.164347599553135,7.061412719014898,0.15000000000000002,83.10996981140467,-13.442796054093696,3.6580522908836306,1.7384890879969923,3.3705718762246324,4.631483661827208,0.05,8.743907735364791,1.6012970629880092,1.6539051534288896,1.107755897683606,1.5714711698140769,2.3768041674927427,0.05,19.709303253888354,4.2931448954010385,2.297116789521282,1.5795940811316735,2.122266421349873,2.807419065714587,0.4,146.92439342451044,13.538686916345855,5.8793617048988205,3.0030252570006155,4.910379624225641,8.851384484050396,0.35000000000000003,695.5672790917015,83.53631170954517,12.870200831524732,7.845974165147745,12.685819651951334,18.495517850843875,0.05,2156.419007480555,-435.04644807290805,24.561044401717627,13.408909323934296,24.118824508677342,33.32754270765255,0.4,1621.033683623616,5.591186163431167,36.02040258876683,33.890274849223246,36.77487570512327,38.766017549569426,0.5,1631.640725855506,69.4681486966627,26.93462742407392,24.70203370402141,27.180750657575388,31.622861798751085,0.4,86.92064502452304,7.523398960324082,4.604063733164661,3.329780720680543,3.920082733342332,6.812566602749598,0.15000000000000002,76.16369397325272,-18.9543504619504,4.121563249655694,2.479797755947767,4.085065689314625,5.665362145581325,0.05,12.596390105130395,1.0475093325315739,1.712751985980922,1.2221314747580896,1.6762740967258398,1.9416423765126343,0.05,13.011335572366344,5.801312744022757,2.215265967671837,1.3989492715082934,2.548640850515737,3.0189626470254187,0.1,3170.2030306542492,-2.479171839834912,52.92532373923109,50.415500983422106,53.06570309589756,55.23470906741867,0.30000000000000004,1056814.1262914732,194903.50141615077,533.580602820683,405.4842026554025,532.0836358974948,600.5655935928876,0.05,143172.24332401075,482.0554383237701,340.1222738850801,328.668458566945,342.1331235109933,355.4448407070312,0.15000000000000002,7996847.285514812,-14744243.075011345,1542.3715806240516,1071.2504289501073,1337.0518556652137,2050.4225123614715,0.05,4222.754016982392,284.0279587911859,29.1469425473277,20.096005460813682,26.399110785307222,37.86498934654708,0.5,48300.96971483186,7480.593029876105,94.06461811430866,64.51672832955089,96.31891729559325,126.50647428297987,0.35000000000000003,3275.4833680973775,658.9513467852008,35.52888725373652,21.405881138745443,36.84261227846632,49.30282206972852,0.4,2703.7917191991833,254.78079180477545,36.06759922109496,25.496992997383998,40.115501068982354,43.39839569592749,0.2,41.42421931694122,-10.853695849649439,3.052838343175792,1.9151095695108324,2.929520940455303,3.5423371003313218,0.0
2018-09-11 19:17:05.100,0.30000000000000004,3.173140773379759,-3.798376139757737,0.8813694076997167,0.5267289257530805,0.7878171642061393,1.2595079262646318,0.15000000000000002,5.453979877580605,-5.644977820739683,1.1141894402958914,0.553031036996888,0.8611764780132929,1.7904173639272525,0.25,70.19206941587986,-107.8467751936248,3.9311881306284584,2.053718929905917,3.1920041521843068,5.8243792264953855,0.2,71.69427371663892,-17.63933513937553,2.8066372455974338,1.3753639185146258,2.2152626257395394,3.774404951406692,0.0,6.224977461838269,-1.0767215305052336,1.3197040792127297,0.6794749048246644,1.1856041488353455,2.0364840732227387,0.25,15.920391933196774,2.0674643545435347,1.7081802731775717,1.2106638673988575,1.6506786003584595,2.08004090580871,0.1,146.92439342451044,11.118170051581162,5.305811413549934,2.563728757257093,4.680489569327001,7.382560308347886,0.15000000000000002,695.5672790917015,34.8275918382419,12.621611332697677,8.028052771226264,10.5501440762691,17.8076764445851,0.45,2156.419007480555,-911.1493470153484,25.234236954983206,16.545897264823733,24.919500181362242,33.32754270765255,0.1,1621.033683623616,-0.23185446851438485,33.463303101875965,31.18752441376549,33.710379476945846,35.91994342963282,0.0,1631.640725855506,67.97301664209469,24.778665567962925,22.699366677270326,25.026282928539104,27.04861148816201,0.1,86.92064502452304,8.151788863829019,4.493542818666281,2.610606119045916,4.330543393964096,6.519184956647503,0.4,38.793219238517715,-5.405359213241264,3.353978731325685,2.2480926924400952,3.0881626686538253,4.365693477044457,0.45,10.741032490631387,-0.6459682798052319,1.677753349700744,1.2381056802817068,1.5800670965208237,2.006743768596699,0.15000000000000002,11.454133894832617,2.3660947767374645,1.6603241318067852,1.0185951684302912,1.3640732371409046,2.482903525039913,0.45,2800.926352289889,0.23049275641909717,49.05145195059579,46.4598053062267,49.468382758123774,50.58540274018645,0.30000000000000004,734848.939960198,67456.91338571576,421.58166802547083,253.9348391904097,431.10578074810223,533.3285361703131,0.05,114454.07309679456,176.25144462117362,310.4259434594358,297.9825203801068,317.0479424223888,329.213375205277,0.15000000000000002,4805975.706677753,-9154267.462533379,1330.581866215432,1055.159473736326,1249.3460609920508,1611.9976311260934,0.45,4222.754016982392,20.65757573087862,28.225506761635597,20.18702046242663,27.245059304879117,34.76579962159648,0.0,48300.96971483186,6353.886917934333,87.7496109065574,48.90936243451239,87.47594297482885,108.61529234541891,0.5,3652.858686130806,612.3547532812197,34.79811604275892,22.36731010953494,34.79027145763864,46.004545131226976,0.25,2579.1388505913274,245.06529332631533,33.921520331224805,21.903932168901655,36.54581641781698,42.65282312156731,0.30000000000000004,41.42421931694122,-3.0524056620185758,2.7075210323046996,1.351037587480139,2.4340240033198883,3.777938278386795,0.0
2018-09-11 19:17:05.600,0.1,2.4425128078937717,-3.7506697143587804,0.8180289312938103,0.502328628482632,0.7878171642061393,0.986892989924316,0.05,5.520727312361226,-4.936686298220451,1.0700293911756487,0.6171900540309638,0.8611764780132929,1.7257145138573051,0.25,46.003064189759925,-76.20560379565192,3.140076028530033,1.8821000247289554,3.009936658742959,4.252857844164837,0.05,23.91589436621876,4.533321618212555,2.137481207458948,1.2816234326660771,1.8925055981782268,2.6264878982934627,0.05,5.985132450453206,-0.9680750854869183,1.0030268642688291,0.6404320496416066,0.7975651250845093,1.270219324480503,0.05,11.702472479029623,1.9337468129245596,1.6297889049481604,0.9264262879291374,1.5652148681804317,2.0854481121515187,0.35000000000000003,67.49752605514584,5.344229702594245,5.0709722429595985,3.5548361239532333,5.690494065184971,7.127816015161727,0.15000000000000002,489.85276712255467,39.410059615105354,12.060936510871512,9.052859047788413,10.742981641020393,14.646189307787296,0.1,1631.6743937623771,54.90225100346695,22.295728883279974,13.916384939652083,21.740584271374765,29.001892198493398,0.30000000000000004,1425.9583962712486,14.222915634572374,30.134210283348967,27.47020990453906,29.932109949599134,32.24191514288574,0.2,1086.7105051833653,52.58660237997506,22.190583549473974,17.30577186105309,22.682404484534793,24.94792240771458,0.1,70.97230018609373,3.7664293929651214,3.7813628364991443,2.5654648503363626,4.03542044376596,4.78837786632552,0.2,22.044444687957235,1.126162115104767,2.9772153373719634,2.5596393316049535,3.071574450457296,3.5652664990613356,0.05,10.741032490631387,1.1183930977509315,1.6825180701729974,1.243780120298691,1.5836104275258562,2.006743768596699,0.4,8.394865860609059,1.0050559082008699,1.4952183579361558,0.9615939420006963,1.1794127877275997,2.0505333463540234,0.0,2653.441700066243,1.7936940434737334,45.58395313698893,44.13467948310232,45.352124745577036,46.19441411283133,0.2,734848.939960198,94384.91146637459,377.37924780675337,180.6676591156349,347.34536137328485,512.5922559785536,0.15000000000000002,109217.19517475943,828.475232577083,288.01815814832383,266.42468991758693,284.64663515328346,313.73188917052903,0.25,9609169.19483097,-17846625.4877202,1569.0624467566645,1101.0559090865665,1354.3794033005752,2059.2666369202434,0.2,4248.875801631734,637.684546768664,34.164264750870615,27.16296789475785,34.078627219271,42.81271628724714,0.45,33394.30387655373,4860.04641027714,87.36183600338335,49.668787354188304,90.7550911814268,109.7830032851846,0.0,3652.858686130806,560.5375529636924,33.1661261727188,21.68451901497516,31.69766561757346,45.375281618825674,0.1,2391.991061515739,271.90788881273176,32.64509691554227,23.83124197560349,35.82304541269122,41.37078548181838,0.0,19.017418087592567,-5.034738050816484,1.9669413169597547,1.1781289866032458,1.6433794850030372,2.157658434077296,0.0
2018-09-11 19:17:06.100,0.30000000000000004,3.137019149113779,-2.5424658423720463,0.8764490721328133,0.5030479383289135,0.8896737210037782,1.127602394855466,0.45,5.520727312361226,-2.618608274462915,1.059831119980317,0.673832630567881,1.013640991532661,1.3137529927740381,0.25,46.003064189759925,-110.40634978410047,4.255729146854492,3.3853450737985042,4.40351848035197,5.305098186176592,0.45,23.91589436621876,-2.3635883809065876,2.263018755387983,1.4093130989156122,2.327722008259467,2.5966802043145143,0.1,9.227570975043056,0.6635061024937277,1.0307965192485433,0.4414823124352658,0.792696264439647,1.4826158438407404,0.45,11.702472479029623,1.1015670005757405,1.441632288562747,0.757337198454389,1.2416809085801437,1.8913252320850762,0.1,133.69924696538922,-18.873520119130497,5.2400903547294595,2.8889058929476197,5.306344386772977,6.821659327375668,0.4,366.78949174436667,2.706066740259285,10.387216848942082,7.486510354737585,9.861233493595833,14.143405040181758,0.4,1631.6743937623771,-705.6354260712777,24.00765676360185,13.916384939652083,23.72818646156438,31.306164758346455,0.05,1154.714112845849,11.67751599115029,27.101534635563546,24.45302089824076,26.285709297089852,29.225742009744174,0.15000000000000002,1023.4525606022489,33.875483182579686,19.843482980877152,17.217181794859492,19.88924686350183,22.065957513063186,0.45,37.995485765022764,-1.9976686174980034,3.095368324149879,2.432323285480828,2.702747840414343,4.199687276527094,0.15000000000000002,19.316652382618802,-4.570458298408191,2.4937792389175786,1.8722179765901896,2.41730981252642,3.1628751988575003,0.2,8.643740100331787,-0.9672955607064809,1.2839153075832064,0.5879957402700356,1.336539589586443,1.6908575982880392,0.1,8.394865860609059,0.8123071996932689,1.1431353779787645,0.6876166249277451,0.9102900509176521,1.337041074523726,0.15000000000000002,2083.990608011947,0.5783154707682168,41.627667726763505,39.41175031464894,41.460692066068276,44.067362537564414,0.2,441490.97959432413,44909.53257543132,352.6964468881773,200.2095958901346,354.5900807001972,501.3420403080309,0.15000000000000002,95810.90643253115,486.1272916190165,266.6006159580668,258.27099812738874,263.8096637398495,272.91803171245306,0.25,9609169.19483097,-13931586.62070756,1293.10952224518,511.33645951853276,984.2812796907087,1853.386213062693,0.30000000000000004,6715.616896481349,-895.5880608921117,38.11056387272318,24.203085510764247,36.43904616918796,56.062922972076095,0.2,32704.664933945383,1417.995197681492,84.65988095506384,47.860005421811884,96.95006517981739,112.69028360842641,0.45,2734.4914455495705,540.8980862998707,32.23348032643305,20.960023427950233,30.945724496348433,44.66986567425329,0.30000000000000004,1770.2037731448224,79.43895592220969,28.86539412288123,23.157749967383126,28.594006338650058,37.13227943195925,0.05,16.70574332066386,-3.611612004269512,1.659617449411547,0.963019178812321,1.6433794850030372,2.0479714100172894,0.0
2018-09-11 19:17:06.600,0.15000000000000002,3.2099835289863194,-2.543077551614202,0.9297782031040324,0.5644471497692911,0.9182804034991827,1.1274187030946323,0.45,5.739857421510656,-2.6272326368869265,1.0778429216134087,0.4896498269519711,1.1722071692844522,1.4362286975007315,0.35000000000000003,36.36637103992904,-60.85211281168781,3.317399339698324,1.821964093885661,2.9487564064025467,4.784499563758541,0.45,20.86566374652272,-0.1753703155489889,2.3917284299614217,1.594506031786116,2.3541637367015147,2.8703176258772163,0.4,9.227570975043056,0.4730908357157079,1.3722837298093942,0.4523051693392654,1.456146658408168,1.9935792654763023,0.25,4.0487170945745765,1.7749378872988444,1.2269466307041639,0.8380275280884224,1.3776359344003406,1.7113125305437207,0.25,146.4493056583264,-11.621816124529971,5.639783150173946,3.3806679157616855,5.131384153279691,8.7066867378285,0.5,272.7269281188252,-3.753874567918182,7.986567049825579,4.1408746503435765,8.015016538546108,11.451073499840387,0.25,2284.820463260911,-512.1525004755882,24.278374948563933,13.39097717519142,23.84663206702799,31.975171734237033,0.30000000000000004,1065.6997717539148,11.243926262701757,25.521924187179653,23.467951581098962,24.458528080252563,27.583932030434646,0.05,733.3343174252426,30.146906691481906,19.306675598499815,16.997222462488615,19.73597041125542,21.991139754785518,0.4,32.78940811027721,-4.297994605509542,3.1483345563703224,2.152550805689472,2.89661457178963,4.193227113888384,0.45,7.387973510185963,-2.8815281149955947,1.7613899081127868,1.3227880704522832,1.7079143857453996,2.3116079149973947,0.35000000000000003,7.790622462308172,-0.32746256349599534,1.3385506867596497,0.9790609883768425,1.3923933800133688,1.6858923982943774,0.30000000000000004,5.089041251793708,1.2456797908414412,1.1414120473966234,0.6818235720546167,1.151896743927346,1.512251775119113,0.45,1742.5602891441868,2.1468553382373337,38.64748259239549,36.950444206845916,38.974462149531405,40.39414186988571,0.30000000000000004,441490.97959432413,97269.7648701611,350.802054396101,212.04982208257846,343.4700829908783,486.7908840903417,0.0,71826.16590974346,433.6808188527212,246.85902724748357,234.43764122633445,242.75417458672075,258.8692240300252,0.25,2708983.9726340994,-4060353.7600525743,945.7935855822165,605.4309048985253,914.4066621740205,1238.1507759676472,0.5,7576.463628554637,409.7286956063797,45.67817507136395,24.203085510764247,47.5093051855318,63.91019594765086,0.25,86375.88902911963,15460.999897870526,116.35681358377799,53.72049904488708,109.44065997656293,162.35981679821924,0.05,2734.4914455495705,399.11427396022646,27.945398982245052,17.67059326912499,28.85658732633256,39.186441397458196,0.15000000000000002,1523.6278864251217,109.77762434118257,26.868782486281624,21.922531243164272,28.125732378406184,31.02537290704598,0.25,20.853333123786506,1.1227510253382151,2.166462105863156,1.4844509521043607,2.0752557313864233,2.8916660500678146,0.0
2018-09-11 19:17:07.100,0.45,6.354310463195363,-2.3280912254368564,1.0507419611091917,0.6600449453832817,0.9415875983686863,1.3726083794721033,0.05,5.739857421510656,-1.8054262078863526,1.2282924806787408,0.7604494475285588,1.3340196186022402,1.5298532862761056,0.05,32.275325255474606,-51.20323995891048,2.685517814053971,1.6282994936923163,2.4995959231387075,3.8631082831124957,0.05,20.86566374652272,1.6899173753148848,2.5590447690459563,1.7074963313961427,2.488566604248084,3.300006477998356,0.25,8.684756247803461,0.4162240373206141,1.2755442975200215,0.8250819561642351,1.4302596228106608,1.7393621140715179,0.45,8.51057699100645,1.8964700515920336,1.4271686243763293,1.1140096167412865,1.3985065817445896,1.7396459041543193,0.25,146.4493056583264,-4.636596033765112,4.70015543986851,3.046046503785359,4.471902644775327,6.279660564298703,0.0,272.7269281188252,37.08063860003269,7.440380698834405,2.4913780280448172,7.845924241024825,11.499802507750566,0.25,2284.820463260911,43.17412028219661,20.54000834919984,11.760337176322148,19.110152147773764,27.16397329854732,0.1,994.1744773529018,9.919152376668457,24.312315075221775,22.404329641098343,24.237988088017822,25.938328742554035,0.30000000000000004,798.1162500438384,47.478283421072774,19.70715378220897,16.906846272959847,19.90330927155495,23.130480688790772,0.5,33.086792532729596,2.7419662591927816,3.316271163293495,2.179169801484164,3.212173640539601,4.805087475187738,0.15000000000000002,25.39925821592004,-0.41448104602490865,1.928031136300889,1.3041372808976865,1.4760207438174502,2.5050370221527007,0.15000000000000002,7.790622462308172,0.6921638464543577,1.3805521530919114,1.0828257808504698,1.4528789057257216,1.7797867581949771,0.4,8.712822576703669,1.8365288355631164,1.5289245983350146,1.1874586804442409,1.4490753483330736,2.155434897493645,0.05,1742.5602891441868,1.3632967652581414,37.37220498432372,35.9610053332425,36.56040585749791,38.4805723433,0.1,545823.0731150885,89458.4643830134,349.39125441521963,268.00767895691973,307.4638868333392,411.3167465669926,0.2,66164.50847772959,542.3164204127816,229.39350430826948,223.62743701145462,229.09505356300753,241.06125540770137,0.25,2708983.9726340994,-4563552.932179204,1046.8067628997787,710.5866432131143,1187.1058973415677,1324.3329126726117,0.0,7576.463628554637,1072.8439772189972,48.40535746565033,34.423468161083875,49.31749430482363,63.9429800137865,0.25,86375.88902911963,17251.316413816447,145.89533267062757,70.00368178064514,151.42882034965237,196.75596147318606,0.5,1894.7089191910188,341.0475720555566,26.26203210720746,16.678565051504965,28.4274135330215,37.648483038255335,0.05,1317.6821776497713,98.14809026373311,24.655289525042676,16.276599964664282,26.486550600211665,30.279509221141176,0.25,20.853333123786506,-1.3181575996997736,2.4967018882691328,2.0800943450696208,2.385068649664971,2.8114417365425473,0.0
2018-09-11 19:17:07.600,0.05,6.354310463195363,-2.8935746836769654,1.1620336383494192,0.8497596942206327,0.9402697382574454,1.4295859445481673,0.35000000000000003,7.340496521384201,-3.140758398067529,1.3069387341759433,1.164577877564669,1.3145198887200151,1.4795848082518452,0.45,32.275325255474606,-58.897021555559746,3.2269156133300854,2.3268661485878512,3.276034640604415,4.259450718649539,0.25,13.025894373403265,3.0766942752329003,2.1848825947034385,1.5950594466297638,2.363889932404608,2.7922632677909065,0.2,9.305859615529945,1.4591040104918747,1.2369100527951475,0.8444844788130615,1.2247265163425434,1.5729398881904402,0.05,8.51057699100645,1.3637725455238052,1.5940956432199223,1.1458450900748318,1.5861102807895375,1.9956401703706481,0.05,72.82209072657814,7.460653264710859,4.7465816812404835,3.0735206851343073,4.937312402528708,6.466761288049328,0.25,153.0254560564148,8.788685586957506,7.0120931999764435,3.9896162753829207,7.181373323518431,10.325771167933075,0.35000000000000003,3688.57121615856,-382.6147498926116,23.62060841352746,15.624085649704998,21.384742523401332,31.26846825101657,0.30000000000000004,768.1076164041503,-0.9208095702017765,22.382109878752846,20.961095668250252,22.34936977785739,23.99669544069517,0.2,798.1162500438384,42.39792598555192,19.081241686823542,17.316000804322584,18.679663923941536,22.364401751813926,0.1,53.6255647679934,-20.599959978981545,3.613276051023976,2.179169801484164,3.4986903843978756,4.984233328793747,0.35000000000000003,25.39925821592004,-4.529528395393914,2.43228291558542,1.3708876123366296,2.5329106096593894,3.233458392319089,0.30000000000000004,3.54049044870394,0.3142980129397448,1.1134600841680065,0.6767681451218268,1.067862962449429,1.5751821340858667,0.1,8.712822576703669,1.118831701803441,1.452183468040786,0.8440617876516445,1.4277411369217927,1.9607418981680693,0.25,1505.1467201753853,1.5291919743165616,34.288947545967154,32.100338174259015,34.19366167157152,36.560058577494914,0.4,545823.0731150885,29930.076968788722,304.87655912517164,182.5145281799034,274.7283627878764,404.895265282112,0.0,59721.97283837414,344.1445601156117,215.54120752371773,207.52147330403477,214.23082720333338,223.8740031418768,0.05,4001356.112971327,-4377715.856354728,1084.8067793061282,654.0959484654007,1187.1058973415677,1484.4366195297164,0.45,7256.77567018698,-749.5923440340407,41.60350112834779,24.717442163596374,41.05049217895859,53.860337340110256,0.25,77637.84727947203,24003.183723415157,156.47903192269365,77.58365264975333,160.07349300855986,234.93033704528557,0.0,1894.7089191910188,280.6080324814686,25.038559112074676,17.262943815197023,26.893032582706677,34.42422513193192,0.45,1317.6821776497713,107.55966741770169,23.829761761673762,15.269167057518949,25.623111984305915,30.375468237199073,0.05,8.200579201824956,0.6049560731920437,1.8592402257717704,1.2563996309086904,2.0467205687899526,2.4098411842132377,0.0
2018-09-11 19:17:08.100,0.1,4.500558173119992,-2.5154205356573653,0.9483177203755291,0.7511976226630868,0.8797815720335529,1.159687258406761,0.15000000000000002,7.340496521384201,-3.31651778426656,1.305522487458925,1.1195605950604166,1.251352824009735,1.473112472528572,0.45,27.41602633685969,-37.983779359458524,2.8417761155592265,1.6429412257445608,2.5220809206326615,4.1985920738500395,0.1,22.247204915437845,-0.6244599556154482,1.968251159206643,0.9614303101612582,1.8550357847761356,2.7555612008763717,0.4,11.858142394413015,1.919554361314021,1.3470664465503408,0.8564437532802942,1.268151675971518,1.496132673867057,0.1,8.001883678139468,2.0032627148802717,1.4332596508258313,0.9815409483998865,1.2827345573806195,1.8595256779922462,0.05,96.90567924286782,-1.785884005778024,5.962304824443169,4.204275180443295,5.743580653461682,7.6797414891717075,0.05,246.52269049574747,8.884207092360715,8.356307411942664,5.63886661260684,8.24250717610167,11.159507272485198,0.15000000000000002,3688.57121615856,-1244.0470714535234,25.323928822101113,15.624085649704998,22.373152522400755,33.57983253033848,0.1,712.596064662705,-2.999671019185833,21.613184045298084,19.648328142362622,22.034364355240214,23.002098747910505,0.35000000000000003,532.4059429763358,28.37559024538773,17.077520065664157,14.334989340317973,17.560845759535262,19.768060198211224,0.4,53.6255647679934,-19.995627410563618,3.638314197537478,2.3594241659995534,3.502646179337825,5.025958148510605,0.1,24.778740628648393,-4.184606981993648,2.5899685688989926,2.0866219673614954,2.5685692322334948,3.2357349036007896,0.05,4.452731869040355,0.771382707212422,1.0471990673252165,0.750934948474853,0.9522649537510401,1.4973620381245971,0.4,6.436294880788761,2.028431042395344,1.3689588054481379,1.0215939299357204,1.4257280776961738,1.7115500905223149,0.4,1129.027603333039,-0.0995454629298167,31.412267148698493,30.507259134219595,31.45497597640865,32.45578247875886,0.4,677102.8883216886,-8203.491107691827,293.9644660928551,175.70053431573496,242.64423190606306,337.61543853991094,0.1,50066.88067031138,212.33048358133541,202.02630771995595,192.03793079472177,202.7562838381346,208.91482060806567,0.45,4001356.112971327,-5671175.218035177,956.3574322948376,495.23193105377004,983.671036444826,1484.4366195297164,0.4,7441.9151653016415,164.58511513248192,41.83109204114267,26.50452418765167,37.169324537328805,53.17611147166527,0.25,77637.84727947203,21838.609159146697,156.46536804580916,90.00958129716462,147.08744584660252,232.2898000234843,0.45,1349.1196116388362,224.66934480783203,23.32157031811402,16.00175979264131,27.016370990784758,32.870257193571966,0.0,1025.2423534091417,116.93245779615624,22.362635354173907,17.915690376171657,23.376773607702983,29.074018302417024,0.1,7.999629970090107,0.6967689945643416,1.478930536781998,1.1314125535403208,1.5245286340863984,1.7522613139671348,0.0
2018-09-11 19:17:08.600,0.35000000000000003,1.5013337443039816,-1.730837350087126,0.7993467962062136,0.5724053790967509,0.806430523059557,1.0779036026354025,0.0,4.271059558006267,-1.6241786680919976,1.198781723871585,0.9799912041223181,1.1122436559000484,1.3934425051012258,0.05,20.691650884745773,-37.63636816652419,2.3115050254928398,1.3567764153468067,1.9323899022705793,3.384410858886962,0.35000000000000003,24.349181791129755,-1.8800663911340583,2.469312210969607,1.5308342404262532,2.5787523790552425,3.089062001828981,0.1,11.858142394413015,0.6910876831366446,1.3036063219093272,0.8851051165826959,1.2608207956373285,1.4505064169000608,0.0,6.888384347494602,0.3524399470478228,1.1933304515065468,0.6069973861959522,1.1028391128147559,1.5127596387566071,0.45,96.90567924286782,-3.39411110614787,5.418529514411288,3.600001935239387,4.591912257490645,7.580846556535498,0.5,251.84758966927285,32.23609146397547,8.568529276991907,5.544725749953811,8.164720954659149,12.075847960966078,0.1,1983.0679503051688,-345.7434551778051,20.257817015207692,10.924382595109558,19.711491937306324,27.21447430197334,0.4,712.596064662705,33.11880239786776,19.780519136417507,17.703905534391172,19.383201563024222,23.060621385007547,0.35000000000000003,511.14273987010205,15.764732693829117,14.936009337131043,12.041813545071754,14.708804257988032,17.331564384531713,0.4,36.74103227753731,-5.201074937288646,3.0042894013273638,1.6598148043413454,2.70666954446687,4.114704498421254,0.4,24.778740628648393,-3.951138592802805,2.7068746202755296,2.0403459266006103,2.696733493334543,3.2813113850618465,0.45,4.452731869040355,-0.18927500621465665,0.9713771312785682,0.5596404877639879,0.8787123789821859,1.297380627369769,0.15000000000000002,4.535014332112958,1.963450313182204,1.4288649626104348,1.1903819335800097,1.4784435742220297,1.7205726387816602,0.1,1129.027603333039,-5.371254025366692,31.031817669666395,30.455118876874216,31.35622022189409,31.69655953519073,0.1,677102.8883216886,48527.875507504694,316.03637701230326,194.47894372974415,252.98930960135837,396.3377736898195,0.0,41844.2108857649,225.5968358412322,189.30352691622224,182.54224045365532,188.18688565569545,200.16163836455894,0.05,2520053.3892484796,-1809450.4487678495,690.825293959565,463.49838705925305,569.4387015773223,911.8419274698451,0.1,7441.9151653016415,858.0951619532121,34.968355420373605,25.454911384625525,30.812895122051707,41.52311599158819,0.0,75782.35444771971,2399.711685293917,115.00596864778963,77.29226326361034,90.74270789097682,128.73766229472113,0.05,1349.1196116388362,196.68053327919807,22.766391117811374,13.667714956820646,23.820201422357325,31.905349619959647,0.15000000000000002,946.9667189495505,63.639046326747604,20.525945092319013,16.980578614934643,19.395980868815975,24.78934577673037,0.1,7.447348641535287,0.07734673997273014,1.4720514278488683,1.2064586316994959,1.5554929762729417,1.6776421879681047,0.0
