%time,field.orientation.x,field.orientation.y,field.orientation.z,field.angular_velocity.x,field.angular_velocity.y,field.angular_velocity.z,field.linear_acceleration.x,field.linear_acceleration.y,field.linear_acceleration.z,field.data,field.twist.linear.x,field.twist.linear.y,field.twist.linear.z,field.twist.angular.x,field.twist.angular.y,field.twist.angular.z,field.alt_error,field.aspd_error,field.xtrack_error,delta_yaw,delta_pitch,delta_roll,delta_x,delta_y,delta_z,delta_roll_airspeed
2018-10-05 19:39:58.800,0.173618418776,0.159259598863,-0.420178686993,0.419214725494,-0.207577809691,0.196497350931,0.02941995,-0.392266,13.69989005,0.0,,,,,,,-0.589999973774,-948.946594238,-37.693649292,-184.979888916,-6.835954844953,24.40586471559,,,,
2018-10-05 19:39:58.850,0.173618418776,0.159259598863,-0.420178686993,0.419214725494,-0.207577809691,0.196497350931,0.02941995,-0.392266,13.69989005,0.0,12.5879068375,22.5955028534,2.6896007061,0.419214725494,-0.207577809691,0.196497350931,-0.889999985695,-949.491699219,-35.0868377686,-184.979888916,-10.77595472336,38.315864563000005,-22.6294574738,-12.2413568497,2.82726502419,15.0
2018-10-05 19:39:58.900,0.173618418776,0.159259598863,-0.420178686993,0.419214725494,-0.207577809691,0.196497350931,0.02941995,-0.392266,13.69989005,0.0,12.5879068375,22.5955028534,2.6896007061,0.419214725494,-0.207577809691,0.196497350931,-0.889999985695,-949.491699219,-35.0868377686,-184.979888916,-10.77595472336,38.315864563000005,-22.6294574738,-12.2413568497,2.82726502419,15.0
2018-10-05 19:39:58.950,0.173618418776,0.159259598863,-0.420178686993,0.419214725494,-0.207577809691,0.196497350931,0.02941995,-0.392266,13.69989005,0.0,12.5879068375,22.5955028534,2.6896007061,0.419214725494,-0.207577809691,0.196497350931,-1.19999992847,-949.491699219,-481.379760742,-80.979888916,-13.71595478058,-18.344133377099997,-6.611009597799999,-11.716444969200003,2.953976392750002,16.0
2018-10-05 19:39:59.000,0.173618418776,0.159259598863,-0.420178686993,0.419214725494,-0.207577809691,0.196497350931,0.02941995,-0.392266,13.69989005,0.0,12.5879068375,22.5955028534,2.6896007061,0.419214725494,-0.207577809691,0.196497350931,-1.19999992847,-949.491699219,-481.379760742,-80.979888916,-13.365954875949999,-18.364133834799997,-6.585388183599999,-11.539460182200003,2.9951419830300017,16.0
2018-10-05 19:39:59.050,0.173618418776,0.159259598863,-0.420178686993,0.419214725494,-0.207577809691,0.196497350931,0.02941995,-0.392266,13.69989005,0.0,12.5879068375,22.5955028534,2.6896007061,0.419214725494,-0.207577809691,0.196497350931,-1.54999995232,-813.140686035,-482.554656982,-80.979888916,-14.79595470429,-18.3941326141,-6.5441761017,-11.253392219500004,3.0457754135100017,16.0
2018-10-05 19:39:59.100,0.173618418776,0.159259598863,-0.420178686993,0.419214725494,-0.207577809691,0.196497350931,0.02941995,-0.392266,13.69989005,0.0,11.1574163437,22.5335063934,3.04520440102,0.419214725494,-0.207577809691,0.196497350931,-1.54999995232,-813.140686035,-482.554656982,-80.979888916,-14.79595470429,-18.3941326141,-6.5441761017,-11.253392219500004,3.0457754135100017,16.0
2018-10-05 19:39:59.150,0.122817841123,0.137769862887,-0.483832069952,-0.33007594943,0.0226849913597,0.2931253016,-1.2356379,0.2745862,11.5130071,0.0,11.1574163437,22.5335063934,3.04520440102,0.419214725494,-0.207577809691,0.196497350931,-1.90999996662,-813.140686035,-483.695831299,-80.979888916,-16.51595449448,-18.444135665899996,-6.485956192,-10.891925811800004,3.006615161900002,16.0
2018-10-05 19:39:59.200,0.122817841123,0.137769862887,-0.483832069952,-0.33007594943,0.0226849913597,0.2931253016,-1.2356379,0.2745862,11.5130071,0.0,11.1574163437,22.5335063934,3.04520440102,0.419214725494,-0.207577809691,0.196497350931,-1.90999996662,-813.140686035,-483.695831299,-73.8188667297,-15.571588516239999,-24.488098144499997,-6.485956192,-10.891925811800004,3.006615161900002,16.0
2018-10-05 19:39:59.250,0.122817841123,0.137769862887,-0.483832069952,-0.33007594943,0.0226849913597,0.2931253016,-1.2356379,0.2745862,11.5130071,0.0,11.1574163437,22.5335063934,3.04520440102,0.419214725494,-0.207577809691,0.196497350931,-2.28999996185,-801.438110352,-484.794342041,-73.8188667297,-18.381588935859998,-24.498100280699997,-6.409543991100001,-10.469902038600004,2.8314199447600017,16.0
2018-10-05 19:39:59.300,0.122817841123,0.137769862887,-0.483832069952,-0.33007594943,0.0226849913597,0.2931253016,-1.2356379,0.2745862,11.5130071,0.0,10.1344852448,22.3596343994,2.62868714333,-0.33007594943,0.0226849913597,0.2931253016,-2.28999996185,-801.438110352,-484.794342041,-73.8188667297,-18.96158885956,-24.5580978393,-6.371925353999998,-10.205938339200003,2.6971573829700017,16.0
2018-10-05 19:39:59.350,0.122817841123,0.137769862887,-0.483832069952,-0.33007594943,0.0226849913597,0.2931253016,-1.2356379,0.2745862,11.5130071,0.0,10.1344852448,22.3596343994,2.62868714333,-0.33007594943,0.0226849913597,0.2931253016,-2.64999985695,-801.438110352,-485.850982666,-73.8188667297,-21.60158824916,-24.598098754899997,-6.329257965099998,-9.967307090760004,2.513018369670002,16.0
2018-10-05 19:39:59.400,0.122817841123,0.137769862887,-0.483832069952,-0.33007594943,0.0226849913597,0.2931253016,-1.2356379,0.2745862,11.5130071,0.0,10.1344852448,22.3596343994,2.62868714333,-0.33007594943,0.0226849913597,0.2931253016,-2.64999985695,-801.438110352,-485.850982666,-73.8188667297,-21.60158824916,-24.598098754899997,-6.329257965099998,-9.967307090760004,2.513018369670002,16.0
2018-10-05 19:39:59.450,0.122817841123,0.137769862887,-0.483832069952,-0.33007594943,0.0226849913597,0.2931253016,-1.2356379,0.2745862,11.5130071,0.0,10.1344852448,22.3596343994,2.62868714333,-0.33007594943,0.0226849913597,0.2931253016,-2.98000001907,-759.547058105,-486.856719971,-73.8188667297,-24.17158794406,-24.6581001281,-6.2889270782,-9.633100509640004,2.214973688130002,16.0
2018-10-05 19:39:59.500,0.122817841123,0.137769862887,-0.483832069952,-0.33007594943,0.0226849913597,0.2931253016,-1.2356379,0.2745862,11.5130071,0.0,10.1344852448,22.3596343994,2.62868714333,-0.33007594943,0.0226849913597,0.2931253016,-2.98000001907,-759.547058105,-486.856719971,-73.8188667297,-24.17158794406,-24.6581001281,-6.2889270782,-9.633100509640004,2.214973688130002,16.0
2018-10-05 19:39:59.550,0.209417463444,0.159811958588,-0.520058414085,-0.44864398241,0.119293063879,0.364814281464,-1.59848395,0.61781895,6.7273619,0.0,10.1344852448,22.3596343994,2.62868714333,-0.33007594943,0.0226849913597,0.2931253016,-3.27999997139,-759.547058105,-487.828735352,-73.8188667297,-26.501587867759998,-24.718101501399996,-6.238462448100002,-9.337059021000004,1.802615880970002,16.0
2018-10-05 19:39:59.600,0.209417463444,0.159811958588,-0.520058414085,-0.44864398241,0.119293063879,0.364814281464,-1.59848395,0.61781895,6.7273619,0.0,9.10730743408,22.2130451202,1.47624921799,-0.44864398241,0.119293063879,0.364814281464,-3.27999997139,-759.547058105,-487.828735352,-68.1016616821,-21.81986737252,-14.517925262399999,-6.2130451202,-9.107307434080004,1.476249217990002,16.0
2018-10-05 19:39:59.650,0.209417463444,0.159811958588,-0.520058414085,-0.44864398241,0.119293063879,0.364814281464,-1.59848395,0.61781895,6.7273619,0.0,9.10730743408,22.2130451202,1.47624921799,-0.44864398241,0.119293063879,0.364814281464,-3.51999998093,-717.073608398,-488.775512695,-68.1016616821,-21.509865999219997,-14.527923584,-6.189514160200002,-8.850332260130003,1.156664967540002,16.0
2018-10-05 19:39:59.700,0.209417463444,0.159811958588,-0.520058414085,-0.44864398241,0.119293063879,0.364814281464,-1.59848395,0.61781895,6.7273619,0.0,9.10730743408,22.2130451202,1.47624921799,-0.44864398241,0.119293063879,0.364814281464,-3.51999998093,-717.073608398,-488.775512695,-68.1016616821,-21.229867219920003,-14.527923584,-6.1629142761,-8.608253479000004,0.818693399429002,16.0
2018-10-05 19:39:59.750,0.209417463444,0.159811958588,-0.520058414085,-0.44864398241,0.119293063879,0.364814281464,-1.59848395,0.61781895,6.7273619,0.0,9.10730743408,22.2130451202,1.47624921799,-0.44864398241,0.119293063879,0.364814281464,-3.70999979973,-717.073608398,-489.662811279,-68.1016616821,-20.969866991019998,-14.527923584,-6.150880813600001,-8.447288513180004,0.586472749710002,16.0
2018-10-05 19:39:59.800,0.209417463444,0.159811958588,-0.520058414085,-0.44864398241,0.119293063879,0.364814281464,-1.59848395,0.61781895,6.7273619,0.0,8.19455242157,22.1281166077,0.24013748765,-0.44864398241,0.119293063879,0.364814281464,-3.70999979973,-717.073608398,-489.662811279,-68.1016616821,-20.06986737252,-14.507923126199998,-6.128116607700001,-8.194552421570004,0.24013748765000198,16.0
2018-10-05 19:39:59.850,0.209417463444,0.159811958588,-0.520058414085,-0.44864398241,0.119293063879,0.364814281464,-1.59848395,0.61781895,6.7273619,0.0,8.19455242157,22.1281166077,0.24013748765,-0.44864398241,0.119293063879,0.364814281464,-3.82999992371,-673.001464844,-490.533477783,-68.1016616821,-19.90986752512,-14.497924804699998,-6.1148586272999985,-8.030947685240003,-0.002787759061898041,16.0
2018-10-05 19:39:59.900,0.209417463444,0.159811958588,-0.520058414085,-0.44864398241,0.119293063879,0.364814281464,-1.59848395,0.61781895,6.7273619,0.0,8.19455242157,22.1281166077,0.24013748765,-0.44864398241,0.119293063879,0.364814281464,-3.82999992371,-673.001464844,-490.533477783,-68.1016616821,-19.90986752512,-14.497924804699998,-6.1148586272999985,-8.030947685240003,-0.002787759061898041,16.0
2018-10-05 19:39:59.950,0.209417463444,0.159811958588,-0.520058414085,-0.44864398241,0.119293063879,0.364814281464,-1.59848395,0.61781895,6.7273619,0.0,8.19455242157,22.1281166077,0.24013748765,-0.44864398241,0.119293063879,0.364814281464,-3.89999985695,-673.001464844,-491.344573975,-68.1016616821,-18.889867067319997,-14.457923889100002,-6.0791149139,-7.638591289520003,-0.591916024684998,16.0
2018-10-05 19:40:00.000,0.287040918766,0.162091751735,-0.549278368295,-0.264762431383,0.0568669289351,0.119741111994,-1.71616375,0.8237586,5.3936575,0.0,8.19455242157,22.1281166077,0.24013748765,-0.44864398241,0.119293063879,0.364814281464,-3.89999985695,-673.001464844,-491.344573975,-64.169588089,-12.44279503822,-6.565090179500004,-6.060132980300001,-7.394677162170003,-0.941467344760998,16.0
2018-10-05 19:40:00.050,0.287040918766,0.162091751735,-0.549278368295,-0.264762431383,0.0568669289351,0.119741111994,-1.71616375,0.8237586,5.3936575,0.0,7.1576590538,22.0342941284,-1.28865551949,-0.264762431383,0.0568669289351,0.119741111994,-3.89999985695,-611.101928711,-492.113800049,-64.169588089,-12.362795114519999,-6.565090179500004,-6.043287277200001,-7.237037181850003,-1.169746160509998,16.0
2018-10-05 19:40:00.100,0.287040918766,0.162091751735,-0.549278368295,-0.264762431383,0.0568669289351,0.119741111994,-1.71616375,0.8237586,5.3936575,0.0,7.1576590538,22.0342941284,-1.28865551949,-0.264762431383,0.0568669289351,0.119741111994,-3.89999985695,-611.101928711,-492.113800049,-64.169588089,-12.362795114519999,-6.565090179500004,-6.043287277200001,-7.237037181850003,-1.169746160509998,16.0
2018-10-05 19:40:00.150,0.287040918766,0.162091751735,-0.549278368295,-0.264762431383,0.0568669289351,0.119741111994,-1.71616375,0.8237586,5.3936575,0.0,7.1576590538,22.0342941284,-1.28865551949,-0.264762431383,0.0568669289351,0.119741111994,-3.84999990463,-611.101928711,-492.849273682,-64.169588089,-12.29279541972,-6.545089721700002,-6.011447906499999,-6.930853366850004,-1.640595436099998,16.0
2018-10-05 19:40:00.200,0.287040918766,0.162091751735,-0.549278368295,-0.264762431383,0.0568669289351,0.119741111994,-1.71616375,0.8237586,5.3936575,0.0,7.1576590538,22.0342941284,-1.28865551949,-0.264762431383,0.0568669289351,0.119741111994,-3.84999990463,-611.101928711,-492.849273682,-64.169588089,-12.432794809319999,-6.5350914002000025,-5.975448608400001,-6.630444526670003,-2.0921511650099984,16.0
2018-10-05 19:40:00.250,0.287040918766,0.162091751735,-0.549278368295,-0.264762431383,0.0568669289351,0.119741111994,-1.71616375,0.8237586,5.3936575,0.0,7.1576590538,22.0342941284,-1.28865551949,-0.264762431383,0.0568669289351,0.119741111994,-3.74000000954,-571.83605957,-493.559020996,-64.169588089,-13.422794580420002,-6.525093078700003,-5.966444015499999,-6.555205821990003,-2.1911640167199984,16.0
2018-10-05 19:40:00.300,0.287040918766,0.162091751735,-0.549278368295,-0.264762431383,0.0568669289351,0.119741111994,-1.71616375,0.8237586,5.3936575,0.0,7.1576590538,22.0342941284,-1.28865551949,-0.264762431383,0.0568669289351,0.119741111994,-3.74000000954,-571.83605957,-493.559020996,-64.169588089,-13.882795572320001,-6.5150909424000005,-5.9412879944,-6.235176563260003,-2.564006566999998,16.0
2018-10-05 19:40:00.350,0.287040918766,0.162091751735,-0.549278368295,-0.264762431383,0.0568669289351,0.119741111994,-1.71616375,0.8237586,5.3936575,0.0,6.23517656326,21.9412879944,-2.564006567,-0.264762431383,0.0568669289351,0.119741111994,-3.58999991417,-571.83605957,-494.20993042,-64.169588089,-14.102794885620002,-6.5150909424000005,-5.937118530300001,-6.156177520750004,-2.656333684919998,16.0
2018-10-05 19:40:00.400,0.287040918766,0.162091751735,-0.549278368295,-0.264762431383,0.0568669289351,0.119741111994,-1.71616375,0.8237586,5.3936575,0.0,6.23517656326,21.9412879944,-2.564006567,-0.264762431383,0.0568669289351,0.119741111994,-3.58999991417,-571.83605957,-494.20993042,-64.169588089,-15.37279534342,-6.485092163100006,-5.916902542100001,-5.927152156830004,-2.9214718341799983,16.0
2018-10-05 19:40:00.450,0.301397402021,0.158507979099,-0.563452317877,0.0802405998111,0.0285589061677,0.204086229205,-1.89268345,-0.48052585,6.9823348,0.0,6.23517656326,21.9412879944,-2.564006567,-0.264762431383,0.0568669289351,0.119741111994,-3.37999987602,-546.778503418,-494.82699585,-64.169588089,-15.472793817520001,-6.455089569100004,-5.8983688353999995,-5.706099510190003,-3.1689476966899983,16.0
2018-10-05 19:40:00.500,0.301397402021,0.158507979099,-0.563452317877,0.0802405998111,0.0285589061677,0.204086229205,-1.89268345,-0.48052585,6.9823348,0.0,6.23517656326,21.9412879944,-2.564006567,-0.264762431383,0.0568669289351,0.119741111994,-3.37999987602,-546.778503418,-494.82699585,-62.4460964203,-13.51160478588,-5.305603027400004,-5.888538360599998,-5.553121566770003,-3.335532426829998,16.0
2018-10-05 19:40:00.550,0.301397402021,0.158507979099,-0.563452317877,0.0802405998111,0.0285589061677,0.204086229205,-1.89268345,-0.48052585,6.9823348,0.0,5.31805992126,21.8781375885,-3.58192372322,0.0802405998111,0.0285589061677,0.204086229205,-3.13999986649,-546.778503418,-495.418426514,-62.4460964203,-13.721605777779999,-5.205600738500003,-5.883178710900001,-5.401811599730004,-3.5032374858899984,16.0
2018-10-05 19:40:00.600,0.301397402021,0.158507979099,-0.563452317877,0.0802405998111,0.0285589061677,0.204086229205,-1.89268345,-0.48052585,6.9823348,0.0,5.31805992126,21.8781375885,-3.58192372322,0.0802405998111,0.0285589061677,0.204086229205,-3.13999986649,-546.778503418,-495.418426514,-62.4460964203,-13.721605777779999,-5.205600738500003,-5.876091003399999,-5.162977218630004,-3.7361459732099984,16.0
2018-10-05 19:40:00.650,0.301397402021,0.158507979099,-0.563452317877,0.0802405998111,0.0285589061677,0.204086229205,-1.89268345,-0.48052585,6.9823348,0.0,5.31805992126,21.8781375885,-3.58192372322,0.0802405998111,0.0285589061677,0.204086229205,-2.84999990463,-531.780456543,-495.967895508,-62.4460964203,-13.961605548880001,-5.035602569600002,-5.870693206799999,-5.010090827940004,-3.892478942869998,16.0
2018-10-05 19:40:00.700,0.301397402021,0.158507979099,-0.563452317877,0.0802405998111,0.0285589061677,0.204086229205,-1.89268345,-0.48052585,6.9823348,0.0,5.31805992126,21.8781375885,-3.58192372322,0.0802405998111,0.0285589061677,0.204086229205,-2.84999990463,-531.780456543,-495.967895508,-62.4460964203,-13.961605548880001,-5.035602569600002,-5.867124557499999,-4.774247169490003,-4.134883880619999,16.0
2018-10-05 19:40:00.750,0.301397402021,0.158507979099,-0.563452317877,0.0802405998111,0.0285589061677,0.204086229205,-1.89268345,-0.48052585,6.9823348,0.0,5.31805992126,21.8781375885,-3.58192372322,0.0802405998111,0.0285589061677,0.204086229205,-2.52999997139,-531.780456543,-496.474609375,-62.4460964203,-14.12160539628,-4.865600585999999,-5.858852386500001,-4.551678180690003,-4.408284187319998,16.0
2018-10-05 19:40:00.800,0.301397402021,0.158507979099,-0.563452317877,0.0802405998111,0.0285589061677,0.204086229205,-1.89268345,-0.48052585,6.9823348,0.0,4.39493560791,21.8563842773,-4.56888103485,0.0802405998111,0.0285589061677,0.204086229205,-2.52999997139,-531.780456543,-496.474609375,-62.4460964203,-14.19160509108,-4.725601196300005,-5.858694076500001,-4.3129100799600035,-4.653098106379998,16.0
2018-10-05 19:40:00.850,0.301397402021,0.158507979099,-0.563452317877,0.0802405998111,0.0285589061677,0.204086229205,-1.89268345,-0.48052585,6.9823348,0.0,4.39493560791,21.8563842773,-4.56888103485,0.0802405998111,0.0285589061677,0.204086229205,-2.15999984741,-520.128845215,-496.964874268,-62.4460964203,-14.221605777779999,-4.6356010436999995,-5.860671997099999,-4.156346797940004,-4.808831691739998,16.0
2018-10-05 19:40:00.900,0.305175973305,0.119258227534,-0.625728061378,-0.0340198203921,-0.00461019296199,0.414560079575,-1.8240369,0.20593965,7.56092715,0.0,4.39493560791,21.8563842773,-4.56888103485,0.0802405998111,0.0285589061677,0.204086229205,-2.15999984741,-520.128845215,-496.964874268,-62.4460964203,-14.221605777779999,-4.6356010436999995,-5.860671997099999,-4.156346797940004,-4.808831691739998,16.0
2018-10-05 19:40:00.950,0.305175973305,0.119258227534,-0.625728061378,-0.0340198203921,-0.00461019296199,0.414560079575,-1.8240369,0.20593965,7.56092715,0.0,4.39493560791,21.8563842773,-4.56888103485,0.0802405998111,0.0285589061677,0.204086229205,-1.76999998093,-520.128845215,-497.395690918,-55.1228704453,-7.737633705199999,-7.359401702900001,-5.873682022099999,-3.7075266838100034,-5.186467647549998,16.0
2018-10-05 19:40:01.000,0.305175973305,0.119258227534,-0.625728061378,-0.0340198203921,-0.00461019296199,0.414560079575,-1.8240369,0.20593965,7.56092715,0.0,4.39493560791,21.8563842773,-4.56888103485,0.0802405998111,0.0285589061677,0.204086229205,-1.76999998093,-520.128845215,-497.395690918,-55.1228704453,-7.657633781500001,-7.239402771000002,-5.873682022099999,-3.7075266838100034,-5.186467647549998,16.0
2018-10-05 19:40:01.050,0.305175973305,0.119258227534,-0.625728061378,-0.0340198203921,-0.00461019296199,0.414560079575,-1.8240369,0.20593965,7.56092715,0.0,3.31629920006,21.8912410736,-5.48891735077,-0.0340198203921,-0.00461019296199,0.414560079575,-1.30999994278,-537.970703125,-497.801422119,-55.1228704453,-7.5876340866,-7.169403076199998,-5.895160675,-3.2215077877000033,-5.555310726169998,16.0
2018-10-05 19:40:01.100,0.305175973305,0.119258227534,-0.625728061378,-0.0340198203921,-0.00461019296199,0.414560079575,-1.8240369,0.20593965,7.56092715,0.0,3.31629920006,21.8912410736,-5.48891735077,-0.0340198203921,-0.00461019296199,0.414560079575,-1.30999994278,-537.970703125,-497.801422119,-55.1228704453,-7.457634925900001,-7.069400787399999,-5.908063888499999,-2.9220819473300037,-5.761568069459998,16.0
2018-10-05 19:40:01.150,0.305175973305,0.119258227534,-0.625728061378,-0.0340198203921,-0.00461019296199,0.414560079575,-1.8240369,0.20593965,7.56092715,0.0,3.31629920006,21.8912410736,-5.48891735077,-0.0340198203921,-0.00461019296199,0.414560079575,-0.829999983311,-537.970703125,-498.148040771,-55.1228704453,-7.3176336288999995,-6.999401092500001,-5.9185829163,-2.6259129047400034,-5.984103202819998,16.0
2018-10-05 19:40:01.200,0.305175973305,0.119258227534,-0.625728061378,-0.0340198203921,-0.00461019296199,0.414560079575,-1.8240369,0.20593965,7.56092715,0.0,3.31629920006,21.8912410736,-5.48891735077,-0.0340198203921,-0.00461019296199,0.414560079575,-0.829999983311,-537.970703125,-498.148040771,-55.1228704453,-7.237633705199999,-6.9694023132,-5.9235649109000015,-2.4336040020000036,-6.123363494869999,16.0
2018-10-05 19:40:01.250,0.326326229942,0.126843152798,-0.66121681672,-0.181876942515,-0.0828847438097,0.192135319114,-1.9024901,0.2549729,8.1002929,0.0,2.11623668671,21.9368991852,-6.32615566254,-0.181876942515,-0.0828847438097,0.192135319114,-0.299999982119,-531.783691406,-498.443603516,-49.55612516403,-4.198350906400002,-4.934303283699997,-5.932041168200001,-2.2221915721900034,-6.2600865364099985,16.0
2018-10-05 19:40:01.300,0.326326229942,0.126843152798,-0.66121681672,-0.181876942515,-0.0828847438097,0.192135319114,-1.9024901,0.2549729,8.1002929,0.0,2.11623668671,21.9368991852,-6.32615566254,-0.181876942515,-0.0828847438097,0.192135319114,-0.299999982119,-531.783691406,-498.443603516,-49.55612516403,-4.118350982700001,-4.904300689700001,-5.9474239349000015,-1.8983117342000035,-6.4438185691799985,16.0
2018-10-05 19:40:01.350,0.326326229942,0.126843152798,-0.66121681672,-0.181876942515,-0.0828847438097,0.192135319114,-1.9024901,0.2549729,8.1002929,0.0,2.11623668671,21.9368991852,-6.32615566254,-0.181876942515,-0.0828847438097,0.192135319114,0.269999980927,-531.783691406,-498.697174072,-49.55612516403,-4.098350524899999,-4.8743019104,-5.965396881099998,-1.5665700435600036,-6.612626552579998,16.0
2018-10-05 19:40:01.400,0.326326229942,0.126843152798,-0.66121681672,-0.181876942515,-0.0828847438097,0.192135319114,-1.9024901,0.2549729,8.1002929,0.0,2.11623668671,21.9368991852,-6.32615566254,-0.181876942515,-0.0828847438097,0.192135319114,0.269999980927,-531.783691406,-498.697174072,-49.55612516403,-4.098350524899999,-4.8743019104,-5.965396881099998,-1.5665700435600036,-6.612626552579998,16.0
2018-10-05 19:40:01.450,0.326326229942,0.126843152798,-0.66121681672,-0.181876942515,-0.0828847438097,0.192135319114,-1.9024901,0.2549729,8.1002929,0.0,2.11623668671,21.9368991852,-6.32615566254,-0.181876942515,-0.0828847438097,0.192135319114,0.8599999547,-523.241027832,-498.882781982,-49.55612516403,-3.3583507538,-4.8443031312,-6.003646850599999,-0.9948492646220035,-6.835303306579998,16.0
2018-10-05 19:40:01.500,0.326326229942,0.126843152798,-0.66121681672,-0.181876942515,-0.0828847438097,0.192135319114,-1.9024901,0.2549729,8.1002929,0.0,2.11623668671,21.9368991852,-6.32615566254,-0.181876942515,-0.0828847438097,0.192135319114,0.8599999547,-523.241027832,-498.882781982,-49.55612516403,-3.3583507538,-4.814300537199998,-6.003646850599999,-0.9948492646220035,-6.835303306579998,16.0
2018-10-05 19:40:01.550,0.326326229942,0.126843152798,-0.66121681672,-0.181876942515,-0.0828847438097,0.192135319114,-1.9024901,0.2549729,8.1002929,0.0,0.756023049355,22.0197105408,-6.91096401215,-0.181876942515,-0.0828847438097,0.192135319114,1.48000001907,-523.241027832,-499.009552002,-49.55612516403,-1.5683517456000011,-4.794300079400003,-6.038501739499999,-0.5202199816700036,-6.994657993319998,16.0
2018-10-05 19:40:01.600,0.326326229942,0.126843152798,-0.66121681672,-0.181876942515,-0.0828847438097,0.192135319114,-1.9024901,0.2549729,8.1002929,0.0,0.756023049355,22.0197105408,-6.91096401215,-0.181876942515,-0.0828847438097,0.192135319114,1.48000001907,-523.241027832,-499.009552002,-49.55612516403,-1.5783519744999985,-4.754302978600002,-6.060934066800002,-0.16916611790700356,-7.093398571009998,16.0
2018-10-05 19:40:01.650,0.324059800111,0.133031830983,-0.692041686672,-0.0096836425364,-0.101791791618,0.243842557073,-1.8044236,-0.22555295,10.16949605,0.0,0.756023049355,22.0197105408,-6.91096401215,-0.181876942515,-0.0828847438097,0.192135319114,2.1099998951,-517.471496582,-499.077148438,-44.403634101152,1.2558012007999988,-5.057979583699996,-6.0701904296999984,0.06810025870799645,-7.167690277099998,16.0
2018-10-05 19:40:01.700,0.324059800111,0.133031830983,-0.692041686672,-0.0096836425364,-0.101791791618,0.243842557073,-1.8044236,-0.22555295,10.16949605,0.0,0.756023049355,22.0197105408,-6.91096401215,-0.181876942515,-0.0828847438097,0.192135319114,2.1099998951,-517.471496582,-499.077148438,-44.403634101152,1.2558012007999988,-4.9979782103999995,-6.087873458899999,0.41476070880899646,-7.275483131409998,16.0
2018-10-05 19:40:01.750,0.324059800111,0.133031830983,-0.692041686672,-0.0096836425364,-0.101791791618,0.243842557073,-1.8044236,-0.22555295,10.16949605,0.0,-0.77889662981,22.1153793335,-7.36315584183,-0.0096836425364,-0.101791791618,0.243842557073,2.75999999046,-517.471496582,-499.076812744,-44.403634101152,3.085801124599998,-4.957977294899997,-6.103700637799999,0.6657330393789964,-7.3317461013799985,16.0
2018-10-05 19:40:01.800,0.324059800111,0.133031830983,-0.692041686672,-0.0096836425364,-0.101791791618,0.243842557073,-1.8044236,-0.22555295,10.16949605,0.0,-0.77889662981,22.1153793335,-7.36315584183,-0.0096836425364,-0.101791791618,0.243842557073,3.44999980927,-528.375793457,-499.017669678,-44.403634101152,3.085801124599998,-4.9179801940999965,-6.1301269530999996,1.0323971509899965,-7.417167663569998,16.0
2018-10-05 19:40:01.850,0.324059800111,0.133031830983,-0.692041686672,-0.0096836425364,-0.101791791618,0.243842557073,-1.8044236,-0.22555295,10.16949605,0.0,-0.77889662981,22.1153793335,-7.36315584183,-0.0096836425364,-0.101791791618,0.243842557073,3.44999980927,-528.375793457,-499.017669678,-44.403634101152,4.975801467899998,-4.907978057899996,-6.1301269530999996,1.0323971509899965,-7.417167663569998,16.0
2018-10-05 19:40:01.900,0.324059800111,0.133031830983,-0.692041686672,-0.0096836425364,-0.101791791618,0.243842557073,-1.8044236,-0.22555295,10.16949605,0.0,-0.77889662981,22.1153793335,-7.36315584183,-0.0096836425364,-0.101791791618,0.243842557073,3.44999980927,-528.375793457,-499.017669678,-44.403634101152,4.975801467899998,-4.887977600100001,-6.165395736699999,1.7065309286099966,-7.474443912509998,16.0
2018-10-05 19:40:01.950,0.311173015187,0.133087045631,-0.729155230242,-0.0122972466052,-0.215808495879,0.307110071182,-1.71616375,0.0392266,11.6306869,0.0,-0.77889662981,22.1153793335,-7.36315584183,-0.0096836425364,-0.101791791618,0.243842557073,4.13000011444,-528.375793457,-498.890533447,-44.403634101152,6.795801162699998,-4.877979278600002,-6.171470642100001,1.8492745161099964,-7.480563640589998,16.0
2018-10-05 19:40:02.000,0.311173015187,0.133087045631,-0.729155230242,-0.0122972466052,-0.215808495879,0.307110071182,-1.71616375,0.0392266,11.6306869,0.0,-2.4095287323,22.1933841705,-7.48101091385,-0.0122972466052,-0.215808495879,0.307110071182,4.13000011444,-528.375793457,-498.890533447,-38.06648683548,7.685449600199998,-6.8385887146,-6.1933841705,2.4095287322999965,-7.481010913849998,16.0
2018-10-05 19:40:02.050,0.311173015187,0.133087045631,-0.729155230242,-0.0122972466052,-0.215808495879,0.307110071182,-1.71616375,0.0392266,11.6306869,0.0,-2.4095287323,22.1933841705,-7.48101091385,-0.0122972466052,-0.215808495879,0.307110071182,4.81999969482,-549.174499512,-498.696105957,-38.06648683548,9.505449771859999,-6.848587036200001,-6.197063446000001,2.5544757842999966,-7.485881328579998,16.0
2018-10-05 19:40:02.100,0.311173015187,0.133087045631,-0.729155230242,-0.0122972466052,-0.215808495879,0.307110071182,-1.71616375,0.0392266,11.6306869,0.0,-2.4095287323,22.1933841705,-7.48101091385,-0.0122972466052,-0.215808495879,0.307110071182,5.50999975204,-549.174499512,-498.425201416,-38.06648683548,11.335449695569999,-6.898586273199996,-6.205923080400002,2.9826788902299963,-7.484349727629998,16.0
2018-10-05 19:40:02.150,0.311173015187,0.133087045631,-0.729155230242,-0.0122972466052,-0.215808495879,0.307110071182,-1.71616375,0.0392266,11.6306869,0.0,-2.4095287323,22.1933841705,-7.48101091385,-0.0122972466052,-0.215808495879,0.307110071182,5.50999975204,-549.174499512,-498.425201416,-38.06648683548,11.335449695569999,-6.898586273199996,-6.2090568542,3.2935841083499966,-7.460003376009999,16.0
2018-10-05 19:40:02.200,0.311173015187,0.133087045631,-0.729155230242,-0.0122972466052,-0.215808495879,0.307110071182,-1.71616375,0.0392266,11.6306869,0.0,-2.4095287323,22.1933841705,-7.48101091385,-0.0122972466052,-0.215808495879,0.307110071182,5.50999975204,-549.174499512,-498.425201416,-38.06648683548,11.335449695569999,-6.978588104299995,-6.200645446799999,3.9576966762499963,-7.369462490079998,16.0
2018-10-05 19:40:02.250,0.311173015187,0.133087045631,-0.729155230242,-0.0122972466052,-0.215808495879,0.307110071182,-1.71616375,0.0392266,11.6306869,0.0,-4.29820728302,22.1958656311,-7.31722354889,-0.0122972466052,-0.215808495879,0.307110071182,6.21000003815,-563.867919922,-498.078613281,-38.06648683548,13.085449695569999,-7.008586883599996,-6.200469970699999,4.130989551539996,-7.3517689704899984,16.0
2018-10-05 19:40:02.300,0.311173015187,0.133087045631,-0.729155230242,-0.0122972466052,-0.215808495879,0.307110071182,-1.71616375,0.0392266,11.6306869,0.0,-4.29820728302,22.1958656311,-7.31722354889,-0.0122972466052,-0.215808495879,0.307110071182,6.21000003815,-563.867919922,-498.078613281,-38.06648683548,13.085449695569999,-7.0885887146,-6.172891616800001,4.671600341799996,-7.235118865969998,16.0
2018-10-05 19:40:02.350,0.311173015187,0.133087045631,-0.729155230242,-0.0122972466052,-0.215808495879,0.307110071182,-1.71616375,0.0392266,11.6306869,0.0,-4.29820728302,22.1958656311,-7.31722354889,-0.0122972466052,-0.215808495879,0.307110071182,6.88999986649,-563.867919922,-497.639038086,-38.06648683548,14.77544975279,-7.148586273199996,-6.1367206573,5.222711086269997,-7.103683948519998,16.0
2018-10-05 19:40:02.400,0.285096098424,0.174281576799,-0.783144260122,-0.148820444942,-0.383639127016,0.276017099619,-1.2160246,0.1765197,15.8083198,0.0,-4.29820728302,22.1958656311,-7.31722354889,-0.0122972466052,-0.215808495879,0.307110071182,6.88999986649,-563.867919922,-497.639038086,-38.06648683548,14.77544975279,-7.248588561999995,-6.099927902200001,5.6160058975199965,-7.002287864689999,16.0
2018-10-05 19:40:02.450,0.285096098424,0.174281576799,-0.783144260122,-0.148820444942,-0.383639127016,0.276017099619,-1.2160246,0.1765197,15.8083198,0.0,-4.29820728302,22.1958656311,-7.31722354889,-0.0122972466052,-0.215808495879,0.307110071182,7.55999994278,-601.517883301,-497.089233398,-26.6668758392,14.51235270501,-7.219806671199997,-6.099927902200001,5.6160058975199965,-7.002287864689999,16.0
2018-10-05 19:40:02.500,0.285096098424,0.174281576799,-0.783144260122,-0.148820444942,-0.383639127016,0.276017099619,-1.2160246,0.1765197,15.8083198,0.0,-4.29820728302,22.1958656311,-7.31722354889,-0.0122972466052,-0.215808495879,0.307110071182,8.19999980927,-601.517883301,-496.463684082,-26.6668758392,14.51235270501,-7.2898063660000005,-5.9431800842000015,6.769876956939997,-6.687860012049998,16.0
2018-10-05 19:40:02.550,0.285096098424,0.174281576799,-0.783144260122,-0.148820444942,-0.383639127016,0.276017099619,-1.2160246,0.1765197,15.8083198,0.0,-6.96248674393,21.9148139954,-6.62646341324,-0.148820444942,-0.383639127016,0.276017099619,8.19999980927,-601.517883301,-496.463684082,-26.6668758392,16.022352635869,-7.369804382399998,-5.877660751299999,7.163364887239997,-6.564024448389998,16.0
2018-10-05 19:40:02.600,0.285096098424,0.174281576799,-0.783144260122,-0.148820444942,-0.383639127016,0.276017099619,-1.2160246,0.1765197,15.8083198,0.0,-6.96248674393,21.9148139954,-6.62646341324,-0.148820444942,-0.383639127016,0.276017099619,8.19999980927,-601.517883301,-496.463684082,-26.6668758392,16.022352635869,-7.449806213400002,-5.7934474945000005,7.577899456019996,-6.434952735899998,16.0
2018-10-05 19:40:02.650,0.285096098424,0.174281576799,-0.783144260122,-0.148820444942,-0.383639127016,0.276017099619,-1.2160246,0.1765197,15.8083198,0.0,-6.96248674393,21.9148139954,-6.62646341324,-0.148820444942,-0.383639127016,0.276017099619,8.80999946594,-595.742431641,-495.727966309,-26.6668758392,17.472352743160002,-6.629806518599999,-5.6406478882,8.204125404359996,-6.238154888149999,16.0
2018-10-05 19:40:02.700,0.285096098424,0.174281576799,-0.783144260122,-0.148820444942,-0.383639127016,0.276017099619,-1.2160246,0.1765197,15.8083198,0.0,-6.96248674393,21.9148139954,-6.62646341324,-0.148820444942,-0.383639127016,0.276017099619,8.80999946594,-595.742431641,-495.727966309,-26.6668758392,17.472352743160002,-6.629806518599999,-5.528892517100001,8.617193222049996,-6.092340946199998,16.0
2018-10-05 19:40:02.750,0.285096098424,0.174281576799,-0.783144260122,-0.148820444942,-0.383639127016,0.276017099619,-1.2160246,0.1765197,15.8083198,0.0,-9.45393753052,21.2719478607,-5.79989385605,-0.148820444942,-0.383639127016,0.276017099619,9.39999961853,-595.742431641,-494.882476807,-26.6668758392,18.86235260964,-4.0798072814999955,-5.271947860699999,9.453937530519996,-5.799893856049998,16.0
2018-10-05 19:40:02.800,0.239967549422,0.232172307718,-0.825627723785,-0.101929664612,-0.480368822813,0.226262480021,-0.77472535,0.08825985,17.1224109,0.0,-9.45393753052,21.2719478607,-5.79989385605,-0.148820444942,-0.383639127016,0.276017099619,9.39999961853,-595.742431641,-494.882476807,-26.6668758392,18.87235260011,-4.119804382399998,-5.125358581499999,9.862860679629996,-5.6572155952499985,16.0
2018-10-05 19:40:02.850,0.239967549422,0.232172307718,-0.825627723785,-0.101929664612,-0.480368822813,0.226262480021,-0.77472535,0.08825985,17.1224109,0.0,-9.45393753052,21.2719478607,-5.79989385605,-0.148820444942,-0.383639127016,0.276017099619,9.96999931335,-641.916625977,-493.910308838,-15.3530597687,15.56463098527,0.3408546447999967,-5.0511569977000015,10.063784599299996,-5.578452587129998,16.0
2018-10-05 19:40:02.900,0.239967549422,0.232172307718,-0.825627723785,-0.101929664612,-0.480368822813,0.226262480021,-0.77472535,0.08825985,17.1224109,0.0,-9.45393753052,21.2719478607,-5.79989385605,-0.148820444942,-0.383639127016,0.276017099619,9.96999931335,-641.916625977,-493.910308838,-15.3530597687,15.56463098527,0.28085708620000105,-4.881366729700002,10.491808891299996,-5.408278942109998,16.0
2018-10-05 19:40:02.950,0.239967549422,0.232172307718,-0.825627723785,-0.101929664612,-0.480368822813,0.226262480021,-0.77472535,0.08825985,17.1224109,0.0,-11.3539028168,20.4960155487,-5.06525850296,-0.101929664612,-0.480368822813,0.226262480021,10.4899997711,-641.916625977,-492.861938477,-15.3530597687,16.75463056565,3.920856475800001,-4.595413208,11.140774726899997,-5.153691291809999,16.0
2018-10-05 19:40:03.000,0.239967549422,0.232172307718,-0.825627723785,-0.101929664612,-0.480368822813,0.226262480021,-0.77472535,0.08825985,17.1224109,0.0,-11.3539028168,20.4960155487,-5.06525850296,-0.101929664612,-0.480368822813,0.226262480021,10.9799995422,-672.013061523,-491.678466797,-15.3530597687,17.834630966189998,8.1908550263,-4.2857723236,11.792312622099997,-4.8633246421799985,16.0
2018-10-05 19:40:03.050,0.239967549422,0.232172307718,-0.825627723785,-0.101929664612,-0.480368822813,0.226262480021,-0.77472535,0.08825985,17.1224109,0.0,-11.3539028168,20.4960155487,-5.06525850296,-0.101929664612,-0.480368822813,0.226262480021,10.9799995422,-672.013061523,-491.678466797,-15.3530597687,17.834630966189998,8.1908550263,-4.0711536407,12.214272499099996,-4.671865463259998,16.0
2018-10-05 19:40:03.100,0.239967549422,0.232172307718,-0.825627723785,-0.101929664612,-0.480368822813,0.226262480021,-0.77472535,0.08825985,17.1224109,0.0,-11.3539028168,20.4960155487,-5.06525850296,-0.101929664612,-0.480368822813,0.226262480021,10.9799995422,-672.013061523,-491.678466797,-15.3530597687,17.82463073731,8.1408557892,-3.7190780640000014,12.832157134999996,-4.373399257659998,16.0
2018-10-05 19:40:03.150,0.239967549422,0.232172307718,-0.825627723785,-0.101929664612,-0.480368822813,0.226262480021,-0.77472535,0.08825985,17.1224109,0.0,-11.3539028168,20.4960155487,-5.06525850296,-0.101929664612,-0.480368822813,0.226262480021,11.4299993515,-672.013061523,-490.393249512,-15.3530597687,18.784630775460002,12.9108543396,-3.3573837279999985,13.435165405299996,-4.065305709839998,16.0
2018-10-05 19:40:03.200,0.173356979019,0.266742069382,-0.86696226997,0.148936569691,-0.496867507696,0.303274810314,-0.0784532,-0.14709975,19.2014207,0.0,-13.8266057968,19.0910549164,-3.86224198341,-0.101929664612,-0.480368822813,0.226262480021,11.4299993515,-672.013061523,-490.393249512,-15.3530597687,18.77463054658,12.8908557892,-3.091054916400001,13.826605796799996,-3.8622419834099984,16.0
2018-10-05 19:40:03.250,0.173356979019,0.266742069382,-0.86696226997,0.148936569691,-0.496867507696,0.303274810314,-0.0784532,-0.14709975,19.2014207,0.0,-13.8266057968,19.0910549164,-3.86224198341,-0.101929664612,-0.480368822813,0.226262480021,11.8199996948,-686.397338867,-489.015380859,-3.5683364868,14.42468070983,17.046792984,-2.8312358856000017,14.207351684599997,-3.653687238689998,16.0
2018-10-05 19:40:03.300,0.173356979019,0.266742069382,-0.86696226997,0.148936569691,-0.496867507696,0.303274810314,-0.0784532,-0.14709975,19.2014207,0.0,-13.8266057968,19.0910549164,-3.86224198341,-0.101929664612,-0.480368822813,0.226262480021,11.8199996948,-686.397338867,-489.015380859,-3.5683364868,14.41468048095,17.0167922974,-2.2638721466000007,14.941152572599997,-3.209909200669998,16.0
2018-10-05 19:40:03.350,0.173356979019,0.266742069382,-0.86696226997,0.148936569691,-0.496867507696,0.303274810314,-0.0784532,-0.14709975,19.2014207,0.0,-13.8266057968,19.0910549164,-3.86224198341,-0.101929664612,-0.480368822813,0.226262480021,12.1700000763,-686.397338867,-487.527313232,-3.5683364868,15.114680290219999,22.5767917633,-2.1088314056,15.117085456799996,-3.098600864409998,16.0
2018-10-05 19:40:03.400,0.173356979019,0.266742069382,-0.86696226997,0.148936569691,-0.496867507696,0.303274810314,-0.0784532,-0.14709975,19.2014207,0.0,-13.8266057968,19.0910549164,-3.86224198341,-0.101929664612,-0.480368822813,0.226262480021,12.4699993134,-705.00604248,-485.946563721,-3.5683364868,15.614680290239999,28.51679229736,-1.6343212127999998,15.653560638399997,-2.723251342769998,16.0
2018-10-05 19:40:03.450,0.173356979019,0.266742069382,-0.86696226997,0.148936569691,-0.496867507696,0.303274810314,-0.0784532,-0.14709975,19.2014207,0.0,-16.1397571564,17.1627540588,-2.3533744812,0.148936569691,-0.496867507696,0.303274810314,12.4699993134,-705.00604248,-485.946563721,-3.5683364868,15.614680290239999,28.51679229736,-1.162754058800001,16.139757156399998,-2.353374481199998,16.0
2018-10-05 19:40:03.500,0.105644789803,0.25381675645,-0.902617640181,0.376207262278,-0.456108778715,0.23108163476,0.196133,0.38245935,19.97614605,0.0,-16.1397571564,17.1627540588,-2.3533744812,0.148936569691,-0.496867507696,0.303274810314,12.4699993134,-705.00604248,-485.946563721,-3.5683364868,15.59468078614,28.51679229736,-0.8448810577000003,16.449335098299997,-2.0807540416699983,16.0
2018-10-05 19:40:03.550,0.105644789803,0.25381675645,-0.902617640181,0.376207262278,-0.456108778715,0.23108163476,0.196133,0.38245935,19.97614605,0.0,-16.1397571564,17.1627540588,-2.3533744812,0.148936569691,-0.496867507696,0.303274810314,12.7199993134,-705.00604248,-484.281311035,5.330074310299999,11.76397824292,29.481618881190002,-0.8448810577000003,16.449335098299997,-2.0807540416699983,16.0
2018-10-05 19:40:03.600,0.105644789803,0.25381675645,-0.902617640181,0.376207262278,-0.456108778715,0.23108163476,0.196133,0.38245935,19.97614605,0.0,-16.1397571564,17.1627540588,-2.3533744812,0.148936569691,-0.496867507696,0.303274810314,12.7199993134,-705.00604248,-484.281311035,5.330074310299999,11.75397896762,29.481618881190002,0.10777854920000074,17.252658843999995,-1.285759449009998,16.0
2018-10-05 19:40:03.650,0.105644789803,0.25381675645,-0.902617640181,0.376207262278,-0.456108778715,0.23108163476,0.196133,0.38245935,19.97614605,0.0,-16.1397571564,17.1627540588,-2.3533744812,0.148936569691,-0.496867507696,0.303274810314,12.7199993134,-705.00604248,-484.281311035,5.330074310299999,11.75397896762,29.481618881190002,0.10777854920000074,17.252658843999995,-1.285759449009998,16.0
2018-10-05 19:40:03.700,0.105644789803,0.25381675645,-0.902617640181,0.376207262278,-0.456108778715,0.23108163476,0.196133,0.38245935,19.97614605,0.0,-17.7783737183,15.1386384964,-0.630848169327,0.376207262278,-0.456108778715,0.23108163476,12.8899993896,-731.454101562,-482.565002441,5.330074310299999,11.90397858622,34.701618671380004,0.8613615035999995,17.778373718299996,-0.630848169326998,16.0
2018-10-05 19:40:03.750,0.105644789803,0.25381675645,-0.902617640181,0.376207262278,-0.456108778715,0.23108163476,0.196133,0.38245935,19.97614605,0.0,-17.7783737183,15.1386384964,-0.630848169327,0.376207262278,-0.456108778715,0.23108163476,13.0099992752,-731.454101562,-480.76449585,5.330074310299999,11.963979005819999,39.32161855694,1.2835836411,18.026901245099996,-0.23242707550499803,16.0
2018-10-05 19:40:03.800,0.105644789803,0.25381675645,-0.902617640181,0.376207262278,-0.456108778715,0.23108163476,0.196133,0.38245935,19.97614605,0.0,-17.7783737183,15.1386384964,-0.630848169327,0.376207262278,-0.456108778715,0.23108163476,13.0099992752,-731.454101562,-480.76449585,5.330074310299999,11.94397854802,39.31161832806,1.5576810837000004,18.171495437599997,0.02945723570880196,16.0
2018-10-05 19:40:03.850,0.105644789803,0.25381675645,-0.902617640181,0.376207262278,-0.456108778715,0.23108163476,0.196133,0.38245935,19.97614605,0.0,-17.7783737183,15.1386384964,-0.630848169327,0.376207262278,-0.456108778715,0.23108163476,13.0499992371,-728.342651367,-478.938415527,5.330074310299999,11.813978433619999,43.1516180038,1.6838521957,18.232774734499998,0.15158247947700196,16.0
2018-10-05 19:40:03.900,0.105644789803,0.25381675645,-0.902617640181,0.376207262278,-0.456108778715,0.23108163476,0.196133,0.38245935,19.97614605,0.0,-17.7783737183,15.1386384964,-0.630848169327,0.376207262278,-0.456108778715,0.23108163476,13.0499992371,-728.342651367,-478.938415527,5.330074310299999,11.79397892952,43.131618499700004,2.0506687164000006,18.385246276899995,0.510345458984002,16.0
2018-10-05 19:40:03.950,0.105644789803,0.25381675645,-0.902617640181,0.376207262278,-0.456108778715,0.23108163476,0.196133,0.38245935,19.97614605,0.0,-18.4833908081,13.6204719543,0.86390286684,0.376207262278,-0.456108778715,0.23108163476,13.0399999619,-728.342651367,-477.09564209,5.330074310299999,11.60397839542,46.081618309,2.2732429504000002,18.453544616699997,0.738941311836002,16.0
2018-10-05 19:40:04.000,0.105644789803,0.25381675645,-0.902617640181,0.376207262278,-0.456108778715,0.23108163476,0.196133,0.38245935,19.97614605,0.0,-18.4833908081,13.6204719543,0.86390286684,0.376207262278,-0.456108778715,0.23108163476,13.0399999619,-728.342651367,-477.09564209,5.330074310299999,11.60397839542,46.081618309,2.2732429504000002,18.453544616699997,0.738941311836002,16.0
2018-10-05 19:40:04.050,-0.0181071741319,0.128629447503,-0.953720792242,0.688224136829,-0.25132983923,0.100857242942,-0.02941995,0.4314926,16.73995155,0.0,-18.4833908081,13.6204719543,0.86390286684,0.376207262278,-0.456108778715,0.23108163476,12.9600000381,-712.448852539,-475.235931396,5.330074310299999,11.20397877693,48.1316184997,2.8698987960999993,18.565685272199996,1.425294995310002,16.0
2018-10-05 19:40:04.100,-0.0181071741319,0.128629447503,-0.953720792242,0.688224136829,-0.25132983923,0.100857242942,-0.02941995,0.4314926,16.73995155,0.0,-18.4833908081,13.6204719543,0.86390286684,0.376207262278,-0.456108778715,0.23108163476,12.9600000381,-712.448852539,-475.235931396,14.973827362100003,3.9129281043999997,29.9191656113,3.1135597229,18.570007324199995,1.722721934320002,16.0
2018-10-05 19:40:04.150,-0.0181071741319,0.128629447503,-0.953720792242,0.688224136829,-0.25132983923,0.100857242942,-0.02941995,0.4314926,16.73995155,0.0,-18.4833908081,13.6204719543,0.86390286684,0.376207262278,-0.456108778715,0.23108163476,12.8499994278,-712.448852539,-473.392791748,14.973827362100003,3.4829277992199996,31.4091653824,3.2425832747999994,18.548992156999997,1.929185152050002,16.0
2018-10-05 19:40:04.200,-0.0181071741319,0.128629447503,-0.953720792242,0.688224136829,-0.25132983923,0.100857242942,-0.02941995,0.4314926,16.73995155,0.0,-18.5106239319,12.6258430481,2.12352371216,0.688224136829,-0.25132983923,0.100857242942,12.8499994278,-712.448852539,-473.392791748,14.973827362100003,3.4829277992199996,31.3991651535,3.4275369643999998,18.489398956299997,2.2141582965900017,16.0
2018-10-05 19:40:04.250,-0.0181071741319,0.128629447503,-0.953720792242,0.688224136829,-0.25132983923,0.100857242942,-0.02941995,0.4314926,16.73995155,0.0,-18.5106239319,12.6258430481,2.12352371216,0.688224136829,-0.25132983923,0.100857242942,12.6599998474,-684.876220703,-471.541564941,14.973827362100003,2.8929286003099994,32.1191663742,3.4275369643999998,18.489398956299997,2.2141582965900017,16.0
2018-10-05 19:40:04.300,-0.0181071741319,0.128629447503,-0.953720792242,0.688224136829,-0.25132983923,0.100857242942,-0.02941995,0.4314926,16.73995155,0.0,-18.5106239319,12.6258430481,2.12352371216,0.688224136829,-0.25132983923,0.100857242942,12.6599998474,-684.876220703,-471.541564941,14.973827362100003,2.8929286003099994,32.1191663742,3.6285076141,18.381597518899998,2.553354740140002,16.0
2018-10-05 19:40:04.350,-0.0692418740297,0.0412185547804,-0.963419425468,0.596599459648,-0.13981410861,0.0183846540749,-0.06864655,0.2745862,14.317709,0.0,-18.5106239319,12.6258430481,2.12352371216,0.688224136829,-0.25132983923,0.100857242942,12.4499998093,-684.876220703,-469.724060059,14.973827362100003,2.26292848587,32.409165382400005,3.7265949249000005,18.267766952499997,2.7718298435200017,16.0
2018-10-05 19:40:04.400,-0.0692418740297,0.0412185547804,-0.963419425468,0.596599459648,-0.13981410861,0.0183846540749,-0.06864655,0.2745862,14.317709,0.0,-18.5106239319,12.6258430481,2.12352371216,0.688224136829,-0.25132983923,0.100857242942,12.4499998093,-684.876220703,-469.724060059,14.973827362100003,2.26292848587,32.409165382400005,3.7265949249000005,18.267766952499997,2.7718298435200017,16.0
2018-10-05 19:40:04.450,-0.0692418740297,0.0412185547804,-0.963419425468,0.596599459648,-0.13981410861,0.0183846540749,-0.06864655,0.2745862,14.317709,0.0,-18.0794868469,12.183057785,3.03626203537,0.596599459648,-0.13981410861,0.0183846540749,12.1799993515,-733.15222168,-467.957366943,16.481777191200003,-1.3571367263799994,20.96397471427,3.8373126984,18.032350540199996,3.0948498249100016,16.0
2018-10-05 19:40:04.500,-0.0692418740297,0.0412185547804,-0.963419425468,0.596599459648,-0.13981410861,0.0183846540749,-0.06864655,0.2745862,14.317709,0.0,-18.0794868469,12.183057785,3.03626203537,0.596599459648,-0.13981410861,0.0183846540749,12.1799993515,-733.15222168,-467.957366943,16.481777191200003,-1.3571367263799994,20.96397471427,3.8373126984,18.032350540199996,3.0948498249100016,16.0
2018-10-05 19:40:04.550,-0.0692418740297,0.0412185547804,-0.963419425468,0.596599459648,-0.13981410861,0.0183846540749,-0.06864655,0.2745862,14.317709,0.0,-18.0794868469,12.183057785,3.03626203537,0.596599459648,-0.13981410861,0.0183846540749,11.8899993896,-733.15222168,-466.182189941,16.481777191200003,-2.1071367263799994,20.38397479057,3.8918943405000004,17.693895339999997,3.4127595424700017,16.0
2018-10-05 19:40:04.600,-0.0692418740297,0.0412185547804,-0.963419425468,0.596599459648,-0.13981410861,0.0183846540749,-0.06864655,0.2745862,14.317709,0.0,-18.0794868469,12.183057785,3.03626203537,0.596599459648,-0.13981410861,0.0183846540749,11.8899993896,-733.15222168,-466.182189941,16.481777191200003,-2.1071367263799994,20.36397433277,3.895863533,17.566734313999998,3.5123319625900016,16.0
2018-10-05 19:40:04.650,-0.0692418740297,0.0412185547804,-0.963419425468,0.596599459648,-0.13981410861,0.0183846540749,-0.06864655,0.2745862,14.317709,0.0,-17.3823299408,12.113196373,3.6156642437,0.596599459648,-0.13981410861,0.0183846540749,11.5500001907,-676.522094727,-464.440582275,16.481777191200003,-2.95713663101,19.39397501947,3.885638237,17.443195342999996,3.581305265430002,16.0
2018-10-05 19:40:04.700,-0.106524454167,-0.0434141699123,-0.96360162554,0.395497173071,-0.0607294403017,0.0215133577585,-0.2353596,0.44129925,12.2779258,0.0,-17.3823299408,12.113196373,3.6156642437,0.596599459648,-0.13981410861,0.0183846540749,11.5500001907,-676.522094727,-464.440582275,16.481777191200003,-2.95713663101,19.39397501947,3.885638237,17.443195342999996,3.581305265430002,16.0
2018-10-05 19:40:04.750,-0.106524454167,-0.0434141699123,-0.96360162554,0.395497173071,-0.0607294403017,0.0215133577585,-0.2353596,0.44129925,12.2779258,0.0,-17.3823299408,12.113196373,3.6156642437,0.596599459648,-0.13981410861,0.0183846540749,11.2100000381,-676.522094727,-462.749938965,17.1439971924,-5.49266052246,7.9003696441999995,3.8568954467999994,17.120761871299997,3.7522141933400017,16.0
2018-10-05 19:40:04.800,-0.106524454167,-0.0434141699123,-0.96360162554,0.395497173071,-0.0607294403017,0.0215133577585,-0.2353596,0.44129925,12.2779258,0.0,-17.3823299408,12.113196373,3.6156642437,0.596599459648,-0.13981410861,0.0183846540749,11.2100000381,-676.522094727,-462.749938965,17.1439971924,-5.49266052246,7.9003696441999995,3.8568954467999994,17.120761871299997,3.7522141933400017,16.0
2018-10-05 19:40:04.850,-0.106524454167,-0.0434141699123,-0.96360162554,0.395497173071,-0.0607294403017,0.0215133577585,-0.2353596,0.44129925,12.2779258,0.0,-17.3823299408,12.113196373,3.6156642437,0.596599459648,-0.13981410861,0.0183846540749,10.8499994278,-636.649902344,-461.092987061,17.1439971924,-6.3626608848599995,6.5403699875,3.7823534012,16.797372817999996,3.8446574211100017,16.0
2018-10-05 19:40:04.900,-0.106524454167,-0.0434141699123,-0.96360162554,0.395497173071,-0.0607294403017,0.0215133577585,-0.2353596,0.44129925,12.2779258,0.0,-17.3823299408,12.113196373,3.6156642437,0.596599459648,-0.13981410861,0.0183846540749,10.8499994278,-636.649902344,-461.092987061,17.1439971924,-6.3626608848599995,6.5403699875,3.7278499603000004,16.542837142899998,3.8744509220100016,16.0
2018-10-05 19:40:04.950,-0.106524454167,-0.0434141699123,-0.96360162554,0.395497173071,-0.0607294403017,0.0215133577585,-0.2353596,0.44129925,12.2779258,0.0,-16.4814910889,12.2938089371,3.87209606171,0.395497173071,-0.0607294403017,0.0215133577585,10.4699993134,-636.649902344,-459.444641113,17.1439971924,-7.202660799019999,5.2903699875,3.7278499603000004,16.542837142899998,3.8744509220100016,16.0
2018-10-05 19:40:05.000,-0.106524454167,-0.0434141699123,-0.96360162554,0.395497173071,-0.0607294403017,0.0215133577585,-0.2353596,0.44129925,12.2779258,0.0,-16.4814910889,12.2938089371,3.87209606171,0.395497173071,-0.0607294403017,0.0215133577585,10.4699993134,-636.649902344,-459.444641113,17.1439971924,-7.202660799019999,5.300370216399999,3.632360458400001,16.253557205199996,3.810458183290002,16.0
2018-10-05 19:40:05.050,-0.106524454167,-0.0434141699123,-0.96360162554,0.395497173071,-0.0607294403017,0.0215133577585,-0.2353596,0.44129925,12.2779258,0.0,-16.4814910889,12.2938089371,3.87209606171,0.395497173071,-0.0607294403017,0.0215133577585,10.4699993134,-636.649902344,-459.444641113,17.1439971924,-7.202660799019999,5.300370216399999,3.632360458400001,16.253557205199996,3.810458183290002,16.0
2018-10-05 19:40:05.100,-0.116390217019,-0.0900436459696,-0.958757363941,0.0431947335601,0.0749083608389,-0.0930709987879,-0.18632635,0.51975245,9.1005712,0.0,-16.4814910889,12.2938089371,3.87209606171,0.395497173071,-0.0607294403017,0.0215133577585,10.0999994278,-594.81640625,-457.863891602,17.1439971924,-7.99266076088,3.9703702927,3.568902015700001,16.03891121216107,3.694263696670002,16.0
2018-10-05 19:40:05.150,-0.116390217019,-0.0900436459696,-0.958757363941,0.0431947335601,0.0749083608389,-0.0930709987879,-0.18632635,0.51975245,9.1005712,0.0,-16.4814910889,12.2938089371,3.87209606171,0.395497173071,-0.0607294403017,0.0215133577585,9.72999954224,-594.81640625,-456.276367188,16.3124961853,-8.42416274548,-2.7863950728999995,3.568902015700001,16.03891121216107,3.694263696670002,16.0
2018-10-05 19:40:05.200,-0.116390217019,-0.0900436459696,-0.958757363941,0.0431947335601,0.0749083608389,-0.0930709987879,-0.18632635,0.51975245,9.1005712,0.0,-15.8310527802,12.5052700043,3.54751586914,0.0431947335601,0.0749083608389,-0.0930709987879,9.72999954224,-594.81640625,-456.276367188,16.3124961853,-8.42416274548,-2.7863950728999995,3.4947299957,15.832377780161071,3.547515869140002,16.0
2018-10-05 19:40:05.250,-0.116390217019,-0.0900436459696,-0.958757363941,0.0431947335601,0.0749083608389,-0.0930709987879,-0.18632635,0.51975245,9.1005712,0.0,-15.8310527802,12.5052700043,3.54751586914,0.0431947335601,0.0749083608389,-0.0930709987879,9.38999938965,-550.212463379,-454.729400635,16.3124961853,-9.05416274071,-3.9763946533,3.4490356445000003,15.68701206506107,3.4037292003600017,16.0
2018-10-05 19:40:05.300,-0.116390217019,-0.0900436459696,-0.958757363941,0.0431947335601,0.0749083608389,-0.0930709987879,-0.18632635,0.51975245,9.1005712,0.0,-15.8310527802,12.5052700043,3.54751586914,0.0431947335601,0.0749083608389,-0.0930709987879,9.38999938965,-550.212463379,-454.729400635,16.3124961853,-9.05416274071,-3.9763946533,3.4111490250000003,15.6259569339737,3.2107312679300017,16.0
2018-10-05 19:40:05.350,-0.116390217019,-0.0900436459696,-0.958757363941,0.0431947335601,0.0749083608389,-0.0930709987879,-0.18632635,0.51975245,9.1005712,0.0,-15.8310527802,12.5052700043,3.54751586914,0.0431947335601,0.0749083608389,-0.0930709987879,9.06999969482,-550.212463379,-453.298156738,16.3124961853,-9.564162731172999,-4.57639503477,3.3734483719000004,15.5315469912737,3.142099618910002,15.9899997711
2018-10-05 19:40:05.400,-0.116390217019,-0.0900436459696,-0.958757363941,0.0431947335601,0.0749083608389,-0.0930709987879,-0.18632635,0.51975245,9.1005712,0.0,-15.370341301,12.6647777557,3.09176659584,0.0431947335601,0.0749083608389,-0.0930709987879,9.06999969482,-550.212463379,-453.298156738,16.3124961853,-9.564162731172999,-4.566394805889999,3.318709373500001,15.3817476443737,3.0656316280400016,15.9899997711
2018-10-05 19:40:05.450,-0.116390217019,-0.0900436459696,-0.958757363941,0.0431947335601,0.0749083608389,-0.0930709987879,-0.18632635,0.51975245,9.1005712,0.0,-15.370341301,12.6647777557,3.09176659584,0.0431947335601,0.0749083608389,-0.0930709987879,9.06999969482,-550.212463379,-453.298156738,16.3124961853,-9.564162731172999,-4.566394805889999,3.318709373500001,15.3817476443737,3.0656316280400016,15.9899997711
2018-10-05 19:40:05.500,-0.116390217019,-0.0900436459696,-0.958757363941,0.0431947335601,0.0749083608389,-0.0930709987879,-0.18632635,0.51975245,9.1005712,0.0,-15.370341301,12.6647777557,3.09176659584,0.0431947335601,0.0749083608389,-0.0930709987879,8.77999973297,-525.687194824,-451.796905518,16.3124961853,-10.0841627121,-5.74639463423,3.263901710499999,15.253048889366,2.910499095920002,15.9899997711
2018-10-05 19:40:05.550,-0.0937434891358,-0.0896939828046,-0.954945838241,-0.094958782196,0.0860245600343,-0.10733909905,-0.36284605,0.46091255,7.7864801,0.0,-15.370341301,12.6647777557,3.09176659584,0.0431947335601,0.0749083608389,-0.0930709987879,8.51000022888,-525.687194824,-450.382965088,13.9140396118,-7.736508548259,-5.8516602516,3.1922292709000004,15.083108894566,2.696028709410002,15.9899997711
2018-10-05 19:40:05.600,-0.0937434891358,-0.0896939828046,-0.954945838241,-0.094958782196,0.0860245600343,-0.10733909905,-0.36284605,0.46091255,7.7864801,0.0,-15.370341301,12.6647777557,3.09176659584,0.0431947335601,0.0749083608389,-0.0930709987879,8.51000022888,-525.687194824,-450.382965088,13.9140396118,-7.736508548259,-5.8516602516,3.1922292709000004,15.083108894566,2.696028709410002,15.9899997711
2018-10-05 19:40:05.650,-0.0937434891358,-0.0896939828046,-0.954945838241,-0.094958782196,0.0860245600343,-0.10733909905,-0.36284605,0.46091255,7.7864801,0.0,-14.8503389359,12.8501615524,2.5272269249,-0.094958782196,0.0860245600343,-0.10733909905,8.27999973297,-494.87286377,-448.893890381,13.9140396118,-8.06650853157,-6.9116601943800005,3.138738632199999,14.929894439866,2.4714491367300018,15.9899997711
2018-10-05 19:40:05.700,-0.0937434891358,-0.0896939828046,-0.954945838241,-0.094958782196,0.0860245600343,-0.10733909905,-0.36284605,0.46091255,7.7864801,0.0,-14.8503389359,12.8501615524,2.5272269249,-0.094958782196,0.0860245600343,-0.10733909905,8.27999973297,-494.87286377,-448.893890381,13.9140396118,-8.076508522033,-6.9016599655,3.1149864196999992,14.817165367266,2.1554675102200016,15.9899997711
2018-10-05 19:40:05.750,-0.0937434891358,-0.0896939828046,-0.954945838241,-0.094958782196,0.0860245600343,-0.10733909905,-0.36284605,0.46091255,7.7864801,0.0,-14.8503389359,12.8501615524,2.5272269249,-0.094958782196,0.0860245600343,-0.10733909905,8.06999969482,-494.87286377,-447.421813965,13.9140396118,-8.326508522033,-7.631659984570001,3.0994920730999986,15.132992237817,2.0489015579200016,15.9899997711
2018-10-05 19:40:05.800,-0.0937434891358,-0.0896939828046,-0.954945838241,-0.094958782196,0.0860245600343,-0.10733909905,-0.36284605,0.46091255,7.7864801,0.0,-14.8503389359,12.8501615524,2.5272269249,-0.094958782196,0.0860245600343,-0.10733909905,7.89999961853,-464.563171387,-446.377746582,14.9140396118,-8.326508522033,-7.631659984570001,3.0729436874999987,15.057029217517,1.775279521940002,16.0
2018-10-05 19:40:05.850,-0.0937434891358,-0.0896939828046,-0.954945838241,-0.094958782196,0.0860245600343,-0.10733909905,-0.36284605,0.46091255,7.7864801,0.0,-14.8503389359,12.8501615524,2.5272269249,-0.094958782196,0.0860245600343,-0.10733909905,7.89999961853,-464.563171387,-446.377746582,14.9140396118,-8.376508533954,-6.141660213460001,3.060697555599999,14.993638485717,1.667021274570002,16.0
2018-10-05 19:40:05.900,-0.0723909972947,-0.0786152856894,-0.953167056819,0.188739538193,0.0709058269858,-0.107592791319,-0.40207265,0.44129925,8.0610663,0.0,-14.5078287125,12.939332962,1.62619280815,-0.094958782196,0.0860245600343,-0.10733909905,7.89999961853,-464.563171387,-446.377746582,13.4150161743,-6.205885231493999,-4.28030061717,3.035143852299999,14.886179417417,1.561147332190002,16.0
2018-10-05 19:40:05.950,-0.0723909972947,-0.0786152856894,-0.953167056819,0.188739538193,0.0709058269858,-0.107592791319,-0.40207265,0.44129925,8.0610663,0.0,-14.5078287125,12.939332962,1.62619280815,-0.094958782196,0.0860245600343,-0.10733909905,7.75999975204,-463.563171387,-444.903137207,13.4150161743,-6.385885238649999,-5.0503005981,3.035143852299999,14.886179417417,1.561147332190002,16.0
2018-10-05 19:40:06.000,-0.0723909972947,-0.0786152856894,-0.953167056819,0.188739538193,0.0709058269858,-0.107592791319,-0.40207265,0.44129925,8.0610663,0.0,-14.5078287125,12.939332962,1.62619280815,-0.094958782196,0.0860245600343,-0.10733909905,7.75999975204,-463.563171387,-444.903137207,13.4150161743,-6.385885238649999,-5.0503005981,2.9858293533999998,14.765218228117,1.496812462810002,16.0
2018-10-05 19:40:06.050,-0.0723909972947,-0.0786152856894,-0.953167056819,0.188739538193,0.0709058269858,-0.107592791319,-0.40207265,0.44129925,8.0610663,0.0,-14.5078287125,12.939332962,1.62619280815,-0.094958782196,0.0860245600343,-0.10733909905,7.63999986649,-448.441894531,-443.590240479,14.4150161743,-6.57588517666,-4.95030069347,2.8870601653999994,14.746671259357,1.409200072290002,16.0
2018-10-05 19:40:06.100,-0.0723909972947,-0.0786152856894,-0.953167056819,0.188739538193,0.0709058269858,-0.107592791319,-0.40207265,0.44129925,8.0610663,0.0,-14.5078287125,12.939332962,1.62619280815,-0.094958782196,0.0860245600343,-0.10733909905,7.63999986649,-448.441894531,-443.590240479,14.4150161743,-6.57588517666,-4.95030069347,2.8870601653999994,14.746671259357,1.409200072290002,16.0
2018-10-05 19:40:06.150,-0.0723909972947,-0.0786152856894,-0.953167056819,0.188739538193,0.0709058269858,-0.107592791319,-0.40207265,0.44129925,8.0610663,0.0,-13.9958591461,13.1544618607,1.34456193447,0.188739538193,0.0709058269858,-0.107592791319,7.51999998093,-448.441894531,-442.126068115,14.4150161743,-6.7858852147999995,-6.03030061717,2.8112421035999997,14.594949305057,1.317385196690002,16.0
2018-10-05 19:40:06.200,-0.0723909972947,-0.0786152856894,-0.953167056819,0.188739538193,0.0709058269858,-0.107592791319,-0.40207265,0.44129925,8.0610663,0.0,-13.9958591461,13.1544618607,1.34456193447,0.188739538193,0.0709058269858,-0.107592791319,7.51999998093,-448.441894531,-442.126068115,14.4150161743,-6.7858852147999995,-6.03030061717,2.727472305299999,14.446760714057,1.234684348110002,16.0
