%time,field.orientation.x,field.orientation.y,field.orientation.z,field.angular_velocity.x,field.angular_velocity.y,field.angular_velocity.z,field.linear_acceleration.x,field.linear_acceleration.y,field.linear_acceleration.z,field.data,field.twist.linear.x,field.twist.linear.y,field.twist.linear.z,field.twist.angular.x,field.twist.angular.y,field.twist.angular.z,field.alt_error,field.aspd_error,field.xtrack_error,delta_yaw,delta_pitch,delta_roll,delta_x,delta_y,delta_z,delta_roll_airspeed
2018-10-05 18:55:38.300,,,,,,,,,,0.0,-18.0256195068,2.43065834045,-0.980125367641,0.00483665149659,-0.0429745092988,-0.140247777104,0.179999992251,-345.677947998,-41.4283065796,189.6631546021,3.60856056213,6.3289222717000015,13.28701972961,18.073099136399996,-0.924748778342998,15.0
2018-10-05 18:55:38.350,,,,,,,,,,0.0,-18.0256195068,2.43065834045,-0.980125367641,0.00483665149659,-0.0429745092988,-0.140247777104,0.179999992251,-345.677947998,-41.4283065796,189.6631546021,3.61856055259,6.3389225006000025,13.15956282616,18.094480514499995,-0.896695733069998,16.0
2018-10-05 18:55:38.400,,,,,,,,,,0.0,-18.0256195068,2.43065834045,-0.980125367641,0.00483665149659,-0.0429745092988,-0.140247777104,0.280000001192,-345.677947998,-381.803833008,51.66315460209999,4.4085606336600005,24.368923187300002,13.15956282616,18.094480514499995,-0.896695733069998,16.0
2018-10-05 18:55:38.450,,,,,,,,,,0.0,-18.0256195068,2.43065834045,-0.980125367641,0.00483665149659,-0.0429745092988,-0.140247777104,0.370000004768,-251.090423584,-380.054046631,51.66315460209999,2.6285605430600003,23.798923492400004,12.88981890678,18.107398986799996,-0.811358451842998,16.0
2018-10-05 18:55:38.500,,,,,,,,,,0.0,-18.1136989594,3.18045091629,-0.788197815418,0.00483665149659,-0.0429745092988,-0.140247777104,0.370000004768,-251.090423584,-380.054046631,51.66315460209999,2.63856053352,23.808921814000005,12.59372496605,18.126092910799997,-0.722597539424998,16.0
2018-10-05 18:55:38.550,,,,,,,,,,0.0,-18.1136989594,3.18045091629,-0.788197815418,0.00483665149659,-0.0429745092988,-0.140247777104,0.370000004768,-251.090423584,-380.054046631,51.66315460209999,2.6485607624000003,23.808921814000005,12.5174767971,18.129507064799995,-0.708850026130998,16.0
2018-10-05 18:55:38.600,0.0468789399755,-0.221182020917,-0.974085604495,0.537585377693,-0.114854209125,-0.119941055775,-0.44129925,0.71588545,11.6699135,0.0,-18.1136989594,3.18045091629,-0.788197815418,0.00483665149659,-0.0429745092988,-0.140247777104,0.370000004768,-251.090423584,-380.054046631,51.66315460209999,2.6485607624000003,23.808921814000005,12.5174767971,18.129507064799995,-0.708850026130998,16.0
2018-10-05 18:55:38.650,0.0468789399755,-0.221182020917,-0.974085604495,0.537585377693,-0.114854209125,-0.119941055775,-0.44129925,0.71588545,11.6699135,0.0,-18.1136989594,3.18045091629,-0.788197815418,0.00483665149659,-0.0429745092988,-0.140247777104,0.449999988079,-251.090423584,-378.295776367,47.8850402832,-0.3570895194999997,15.210281372099999,12.12573766708,18.124830245999995,-0.678142189979998,16.0
2018-10-05 18:55:38.700,0.0468789399755,-0.221182020917,-0.974085604495,0.537585377693,-0.114854209125,-0.119941055775,-0.44129925,0.71588545,11.6699135,0.0,-18.1136989594,3.18045091629,-0.788197815418,0.00483665149659,-0.0429745092988,-0.140247777104,0.449999988079,-251.090423584,-378.295776367,47.8850402832,-0.3570895194999997,15.210281372099999,12.12573766708,18.124830245999995,-0.678142189979998,16.0
2018-10-05 18:55:38.750,0.0468789399755,-0.221182020917,-0.974085604495,0.537585377693,-0.114854209125,-0.119941055775,-0.44129925,0.71588545,11.6699135,0.0,-18.1160316467,4.20464897156,-0.714901447296,0.537585377693,-0.114854209125,-0.119941055775,0.519999980927,-247.408477783,-376.545959473,47.8850402832,-2.04708909988,14.430282592799998,11.713317394259999,18.111745834399997,-0.729665040969998,16.0
2018-10-05 18:55:38.800,0.0468789399755,-0.221182020917,-0.974085604495,0.537585377693,-0.114854209125,-0.119941055775,-0.44129925,0.71588545,11.6699135,0.0,-18.1160316467,4.20464897156,-0.714901447296,0.537585377693,-0.114854209125,-0.119941055775,0.589999973774,-247.408477783,-374.787719727,47.8850402832,-3.66708946228,13.5702819825,11.46642160416,18.092416763299997,-0.783014595508998,16.0
2018-10-05 18:55:38.850,0.0468789399755,-0.221182020917,-0.974085604495,0.537585377693,-0.114854209125,-0.119941055775,-0.44129925,0.71588545,11.6699135,0.0,-18.1160316467,4.20464897156,-0.714901447296,0.537585377693,-0.114854209125,-0.119941055775,0.589999973774,-247.408477783,-374.787719727,47.8850402832,-3.6570892334000007,13.560283660899998,11.30449962616,18.074846267699996,-0.818443953990998,16.0
2018-10-05 18:55:38.900,0.0468789399755,-0.221182020917,-0.974085604495,0.537585377693,-0.114854209125,-0.119941055775,-0.44129925,0.71588545,11.6699135,0.0,-18.1160316467,4.20464897156,-0.714901447296,0.537585377693,-0.114854209125,-0.119941055775,0.669999957085,-249.377624512,-373.046356201,47.8850402832,-5.227088928180001,12.620285034200002,11.04818058014,18.055538177499997,-0.875222861766998,16.0
2018-10-05 18:55:38.950,0.0408540687977,-0.291319282444,-0.955086961199,0.286486506462,-0.0168709121644,-0.229121685028,-0.5295591,0.8041453,10.24794925,0.0,-18.0450153351,5.03082275391,-0.907072484493,0.537585377693,-0.114854209125,-0.119941055775,0.669999957085,-249.377624512,-373.046356201,47.8850402832,-5.21708965298,12.620285034200002,10.96917724609,18.045015335099997,-0.907072484492998,16.0
2018-10-05 18:55:39.000,0.0408540687977,-0.291319282444,-0.955086961199,0.286486506462,-0.0168709121644,-0.229121685028,-0.5295591,0.8041453,10.24794925,0.0,-18.0450153351,5.03082275391,-0.907072484493,0.537585377693,-0.114854209125,-0.119941055775,0.75,-249.377624512,-371.288116455,43.445701599100005,-6.11844491963,3.5011825562,10.72824144363,18.019336700399997,-0.995397269725998,16.0
2018-10-05 18:55:39.050,0.0408540687977,-0.291319282444,-0.955086961199,0.286486506462,-0.0168709121644,-0.229121685028,-0.5295591,0.8041453,10.24794925,0.0,-18.0450153351,5.03082275391,-0.907072484493,0.537585377693,-0.114854209125,-0.119941055775,0.75,-249.377624512,-371.288116455,43.445701599100005,-6.108444690730001,3.481182098399998,10.583570957180001,17.990663528399995,-1.080101728439998,16.0
2018-10-05 18:55:39.100,0.0408540687977,-0.291319282444,-0.955086961199,0.286486506462,-0.0168709121644,-0.229121685028,-0.5295591,0.8041453,10.24794925,0.0,-18.0450153351,5.03082275391,-0.907072484493,0.537585377693,-0.114854209125,-0.119941055775,0.839999973774,-345.66973877,-369.563598633,43.445701599100005,-7.48844480513,2.4511833190999965,10.371697902680001,17.948959350599996,-1.236831903459998,16.0
2018-10-05 18:55:39.150,0.0408540687977,-0.291319282444,-0.955086961199,0.286486506462,-0.0168709121644,-0.229121685028,-0.5295591,0.8041453,10.24794925,0.0,-18.0450153351,5.03082275391,-0.907072484493,0.537585377693,-0.114854209125,-0.119941055775,0.839999973774,-345.66973877,-369.563598633,43.445701599100005,-7.48844480513,2.4111824035999945,10.24057579041,17.920196533199995,-1.359948039049998,16.0
2018-10-05 18:55:39.200,0.0408540687977,-0.291319282444,-0.955086961199,0.286486506462,-0.0168709121644,-0.229121685028,-0.5295591,0.8041453,10.24794925,0.0,-18.0450153351,5.03082275391,-0.907072484493,0.537585377693,-0.114854209125,-0.119941055775,0.839999973774,-345.66973877,-369.563598633,43.445701599100005,-7.48844480513,2.4111824035999945,10.24057579041,17.920196533199995,-1.359948039049998,16.0
2018-10-05 18:55:39.250,0.0408540687977,-0.291319282444,-0.955086961199,0.286486506462,-0.0168709121644,-0.229121685028,-0.5295591,0.8041453,10.24794925,0.0,-17.8225402832,6.15869665146,-1.76820266247,0.286486506462,-0.0168709121644,-0.229121685028,0.959999978542,-345.66973877,-367.822235107,43.445701599100005,-8.698444843330002,1.3611831664999983,9.84130334854,17.822540283199995,-1.768202662469998,16.0
2018-10-05 18:55:39.300,0.0558085508206,-0.320180321844,-0.940558215879,0.0600008219481,-0.014059048146,-0.378124535084,-0.8825985,0.7256921,7.649187,0.0,-17.8225402832,6.15869665146,-1.76820266247,0.286486506462,-0.0168709121644,-0.229121685028,1.12000000477,-340.689086914,-366.114715576,43.445701599100005,-9.778444767029999,-2.747669219899997,9.70141410828,17.787649154699995,-1.902714967729998,16.0
2018-10-05 18:55:39.350,0.0558085508206,-0.320180321844,-0.940558215879,0.0600008219481,-0.014059048146,-0.378124535084,-0.8825985,0.7256921,7.649187,0.0,-17.8225402832,6.15869665146,-1.76820266247,0.286486506462,-0.0168709121644,-0.229121685028,1.12000000477,-340.689086914,-366.114715576,37.263786315900006,-5.771687507659999,-2.747669219899997,9.55601930618,17.753044128399996,-2.038720130919998,16.0
2018-10-05 18:55:39.400,0.0558085508206,-0.320180321844,-0.940558215879,0.0600008219481,-0.014059048146,-0.378124535084,-0.8825985,0.7256921,7.649187,0.0,-17.8225402832,6.15869665146,-1.76820266247,0.286486506462,-0.0168709121644,-0.229121685028,1.29999995232,-340.689086914,-364.398742676,37.263786315900006,-6.741687774659999,-3.8876724243,9.250784397130001,17.678497314499996,-2.2890772819499983,16.0
2018-10-05 18:55:39.450,0.0558085508206,-0.320180321844,-0.940558215879,0.0600008219481,-0.014059048146,-0.378124535084,-0.8825985,0.7256921,7.649187,0.0,-17.6379070282,6.91395664215,-2.40451455116,0.0600008219481,-0.014059048146,-0.378124535084,1.51999998093,-333.322906494,-362.70791626,37.263786315900006,-7.631687164259999,-5.187669753999998,9.17208242416,17.657266616799998,-2.352558612819998,16.0
2018-10-05 18:55:39.500,0.0558085508206,-0.320180321844,-0.940558215879,0.0600008219481,-0.014059048146,-0.378124535084,-0.8825985,0.7256921,7.649187,0.0,-17.6379070282,6.91395664215,-2.40451455116,0.0600008219481,-0.014059048146,-0.378124535084,1.51999998093,-333.322906494,-362.70791626,37.263786315900006,-7.631687164259999,-5.187669753999998,8.92826032639,17.597414016699997,-2.521954298019998,16.0
2018-10-05 18:55:39.550,0.0558085508206,-0.320180321844,-0.940558215879,0.0600008219481,-0.014059048146,-0.378124535084,-0.8825985,0.7256921,7.649187,0.0,-17.6379070282,6.91395664215,-2.40451455116,0.0600008219481,-0.014059048146,-0.378124535084,1.76999998093,-333.322906494,-361.017242432,37.263786315900006,-8.42168807986,-6.527669906599996,8.76115846634,17.558902740499995,-2.6472725868199984,16.0
2018-10-05 18:55:39.600,0.0558085508206,-0.320180321844,-0.940558215879,0.0600008219481,-0.014059048146,-0.378124535084,-0.8825985,0.7256921,7.649187,0.0,-17.6379070282,6.91395664215,-2.40451455116,0.0600008219481,-0.014059048146,-0.378124535084,1.76999998093,-333.322906494,-361.017242432,37.263786315900006,-8.42168807986,-6.577671050999996,8.419327259060001,17.472200393699996,-2.865071535109998,16.0
2018-10-05 18:55:39.650,0.0558085508206,-0.320180321844,-0.940558215879,0.0600008219481,-0.014059048146,-0.378124535084,-0.8825985,0.7256921,7.649187,0.0,-17.4076652527,7.83315134048,-3.02068972588,0.0600008219481,-0.014059048146,-0.378124535084,1.76999998093,-333.322906494,-361.017242432,37.263786315900006,-8.431686401359999,-6.617670059199998,8.25148630142,17.426725387599998,-2.9698400497399984,16.0
2018-10-05 18:55:39.700,0.0558085508206,-0.320180321844,-0.940558215879,0.0600008219481,-0.014059048146,-0.378124535084,-0.8825985,0.7256921,7.649187,0.0,-17.4076652527,7.83315134048,-3.02068972588,0.0600008219481,-0.014059048146,-0.378124535084,2.03999996185,-295.94152832,-359.360412598,37.263786315900006,-9.161687850959998,-8.027669906599996,7.9992389679,17.362257003799996,-3.130271911619998,16.0
2018-10-05 18:55:39.750,0.072211186016,-0.31088779292,-0.933028509192,-0.0874442458153,-0.0178725756705,-0.223300337791,-0.97085835,0.2941995,8.58081875,0.0,-17.4076652527,7.83315134048,-3.02068972588,0.0600008219481,-0.014059048146,-0.378124535084,2.33999991417,-295.94152832,-357.686706543,30.162284851099997,-5.7195491790999995,-7.511922836300002,7.84291172028,17.318281173699997,-3.257727384569998,16.0
2018-10-05 18:55:39.800,0.072211186016,-0.31088779292,-0.933028509192,-0.0874442458153,-0.0178725756705,-0.223300337791,-0.97085835,0.2941995,8.58081875,0.0,-17.4076652527,7.83315134048,-3.02068972588,0.0600008219481,-0.014059048146,-0.378124535084,2.33999991417,-295.94152832,-357.686706543,30.162284851099997,-5.7195491790999995,-7.511922836300002,7.76367855072,17.302049636799996,-3.318972825999998,16.0
2018-10-05 18:55:39.850,0.072211186016,-0.31088779292,-0.933028509192,-0.0874442458153,-0.0178725756705,-0.223300337791,-0.97085835,0.2941995,8.58081875,0.0,-17.4076652527,7.83315134048,-3.02068972588,0.0600008219481,-0.014059048146,-0.378124535084,2.33999991417,-295.94152832,-357.686706543,30.162284851099997,-5.7195491790999995,-7.561923980700001,7.4442481994600005,17.195316314699998,-3.5375614166299982,16.0
2018-10-05 18:55:39.900,0.072211186016,-0.31088779292,-0.933028509192,-0.0874442458153,-0.0178725756705,-0.223300337791,-0.97085835,0.2941995,8.58081875,0.0,-17.1513137817,8.70178604126,-3.65436434746,-0.0874442458153,-0.0178725756705,-0.223300337791,2.66999983788,-287.495239258,-356.029876709,30.162284851099997,-6.289548873899999,-8.991924285900001,7.14228439331,17.106784820599998,-3.753735542299998,16.0
2018-10-05 18:55:39.950,0.072211186016,-0.31088779292,-0.933028509192,-0.0874442458153,-0.0178725756705,-0.223300337791,-0.97085835,0.2941995,8.58081875,0.0,-17.1513137817,8.70178604126,-3.65436434746,-0.0874442458153,-0.0178725756705,-0.223300337791,2.66999983788,-287.495239258,-356.029876709,30.162284851099997,-6.289548873899999,-9.011922836300002,7.072031021120001,17.089124679599998,-3.808639526369998,16.0
2018-10-05 18:55:40.000,0.072211186016,-0.31088779292,-0.933028509192,-0.0874442458153,-0.0178725756705,-0.223300337791,-0.97085835,0.2941995,8.58081875,0.0,-17.1513137817,8.70178604126,-3.65436434746,-0.0874442458153,-0.0178725756705,-0.223300337791,2.66999983788,-287.495239258,-356.029876709,30.162284851099997,-6.289548873899999,-10.371923446700002,7.072031021120001,17.089124679599998,-3.808639526369998,16.0
2018-10-05 18:55:40.050,0.072211186016,-0.31088779292,-0.933028509192,-0.0874442458153,-0.0178725756705,-0.223300337791,-0.97085835,0.2941995,8.58081875,0.0,-17.1513137817,8.70178604126,-3.65436434746,-0.0874442458153,-0.0178725756705,-0.223300337791,3.38999986649,-287.871734619,-352.792236328,30.162284851099997,-7.139549255400002,-11.841922760000003,6.6076478958100004,16.947708129899997,-4.050898551939998,16.0
2018-10-05 18:55:40.100,0.072211186016,-0.31088779292,-0.933028509192,-0.0874442458153,-0.0178725756705,-0.223300337791,-0.97085835,0.2941995,8.58081875,0.0,-16.8834114075,9.62283420563,-4.17169189453,-0.0874442458153,-0.0178725756705,-0.223300337791,3.38999986649,-287.871734619,-352.792236328,30.162284851099997,-7.209548950200002,-11.861923217800001,6.460000991819999,16.906204223599996,-4.1344261169399985,16.0
2018-10-05 18:55:40.150,0.072211186016,-0.31088779292,-0.933028509192,-0.0874442458153,-0.0178725756705,-0.223300337791,-0.97085835,0.2941995,8.58081875,0.0,-16.8834114075,9.62283420563,-4.17169189453,-0.0874442458153,-0.0178725756705,-0.223300337791,3.77999997139,-287.871734619,-351.194580078,30.162284851099997,-7.289548873899999,-11.871923446700002,6.29849815369,16.867198944099997,-4.205391407009998,16.0
2018-10-05 18:55:40.200,0.0818103549649,-0.294071538005,-0.929601436339,-0.0971840694547,-0.0235815383494,-0.18300203979,-1.2552512,0.81395195,9.36535075,0.0,-16.8834114075,9.62283420563,-4.17169189453,-0.0874442458153,-0.0178725756705,-0.223300337791,3.77999997139,-287.871734619,-351.194580078,25.5578918457,-5.3217945099,-10.617834091199999,6.29849815369,16.867198944099997,-4.205391407009998,16.0
2018-10-05 18:55:40.250,0.0818103549649,-0.294071538005,-0.929601436339,-0.0971840694547,-0.0235815383494,-0.18300203979,-1.2552512,0.81395195,9.36535075,0.0,-16.8834114075,9.62283420563,-4.17169189453,-0.0874442458153,-0.0178725756705,-0.223300337791,4.17999982834,-287.213897705,-349.63067627,25.5578918457,-5.401794433600001,-12.087833404599998,5.913347244300001,16.761014938399995,-4.3558917045599985,16.0
2018-10-05 18:55:40.300,0.0818103549649,-0.294071538005,-0.929601436339,-0.0971840694547,-0.0235815383494,-0.18300203979,-1.2552512,0.81395195,9.36535075,0.0,-16.8834114075,9.62283420563,-4.17169189453,-0.0874442458153,-0.0178725756705,-0.223300337791,4.17999982834,-287.213897705,-349.63067627,25.5578918457,-5.511795043899999,-12.107833862299998,5.6719141006000005,16.698652267499998,-4.428858280179998,16.0
2018-10-05 18:55:40.350,0.0818103549649,-0.294071538005,-0.929601436339,-0.0971840694547,-0.0235815383494,-0.18300203979,-1.2552512,0.81395195,9.36535075,0.0,-16.8834114075,9.62283420563,-4.17169189453,-0.0874442458153,-0.0178725756705,-0.223300337791,4.17999982834,-287.213897705,-349.63067627,25.5578918457,-5.6217956543,-12.1378326416,5.514805793800001,16.661085128799996,-4.489959716799998,16.0
2018-10-05 18:55:40.400,0.0818103549649,-0.294071538005,-0.929601436339,-0.0971840694547,-0.0235815383494,-0.18300203979,-1.2552512,0.81395195,9.36535075,0.0,-16.617980957,10.6291694641,-4.5628900528,-0.0971840694547,-0.0235815383494,-0.18300203979,4.57999992371,-287.213897705,-348.066833496,25.5578918457,-5.861795425399999,-13.687833785999999,5.2283887863,16.568853378299995,-4.632297039029998,16.0
2018-10-05 18:55:40.450,0.0818103549649,-0.294071538005,-0.929601436339,-0.0971840694547,-0.0235815383494,-0.18300203979,-1.2552512,0.81395195,9.36535075,0.0,-16.617980957,10.6291694641,-4.5628900528,-0.0971840694547,-0.0235815383494,-0.18300203979,5.00999975204,-294.032653809,-346.486114502,25.5578918457,-5.9417953490999995,-13.7078323364,5.0947952271000005,16.533927917499998,-4.705040931699998,16.0
2018-10-05 18:55:40.500,0.0818103549649,-0.294071538005,-0.929601436339,-0.0971840694547,-0.0235815383494,-0.18300203979,-1.2552512,0.81395195,9.36535075,0.0,-16.617980957,10.6291694641,-4.5628900528,-0.0971840694547,-0.0235815383494,-0.18300203979,5.00999975204,-294.032653809,-346.486114502,25.5578918457,-5.9417953490999995,-13.7078323364,5.0947952271000005,16.533927917499998,-4.705040931699998,16.0
2018-10-05 18:55:40.550,0.0818103549649,-0.294071538005,-0.929601436339,-0.0971840694547,-0.0235815383494,-0.18300203979,-1.2552512,0.81395195,9.36535075,0.0,-16.617980957,10.6291694641,-4.5628900528,-0.0971840694547,-0.0235815383494,-0.18300203979,5.00999975204,-294.032653809,-346.486114502,25.5578918457,-6.231794357299998,-15.187833785999999,4.837921142600001,16.460565566999996,-4.868275642399999,16.0
2018-10-05 18:55:40.600,0.0818103549649,-0.294071538005,-0.929601436339,-0.0971840694547,-0.0235815383494,-0.18300203979,-1.2552512,0.81395195,9.36535075,0.0,-16.617980957,10.6291694641,-4.5628900528,-0.0971840694547,-0.0235815383494,-0.18300203979,5.46000003815,-294.032653809,-344.896759033,25.5578918457,-6.5217952728,-16.5178327561,4.837921142600001,16.460565566999996,-4.868275642399999,16.0
2018-10-05 18:55:40.650,0.0818103549649,-0.294071538005,-0.929601436339,-0.0971840694547,-0.0235815383494,-0.18300203979,-1.2552512,0.81395195,9.36535075,0.0,-16.3726959229,11.445646286,-5.08194303513,-0.0971840694547,-0.0235815383494,-0.18300203979,5.46000003815,-294.032653809,-344.896759033,25.5578918457,-6.5217952728,-16.5178327561,4.611442565899999,16.390396118199998,-5.040898799899998,16.0
2018-10-05 18:55:40.700,0.109025642922,-0.246216772208,-0.927332059119,-0.173263683915,0.0214391127229,-0.208614349365,-1.42196425,0.65704555,8.2768126,0.0,-16.3726959229,11.445646286,-5.08194303513,-0.0971840694547,-0.0235815383494,-0.18300203979,5.92000007629,-315.472595215,-343.324493408,19.0133934021,-3.379844665500002,-10.581207275399999,4.4351844788,16.336149215699997,-5.156891345979998,16.0
2018-10-05 18:55:40.750,0.109025642922,-0.246216772208,-0.927332059119,-0.173263683915,0.0214391127229,-0.208614349365,-1.42196425,0.65704555,8.2768126,0.0,-16.3726959229,11.445646286,-5.08194303513,-0.0971840694547,-0.0235815383494,-0.18300203979,6.39999961853,-315.472595215,-341.75213623,19.0133934021,-3.509843826299999,-11.8212070465,4.3181848526,16.306093215899995,-5.223103523249998,16.0
2018-10-05 18:55:40.800,0.109025642922,-0.246216772208,-0.927332059119,-0.173263683915,0.0214391127229,-0.208614349365,-1.42196425,0.65704555,8.2768126,0.0,-16.3726959229,11.445646286,-5.08194303513,-0.0971840694547,-0.0235815383494,-0.18300203979,6.39999961853,-315.472595215,-341.75213623,19.0133934021,-3.6398448943999995,-11.831207275399999,4.0707836151,16.253366470299998,-5.311222553249999,16.0
2018-10-05 18:55:40.850,0.109025642922,-0.246216772208,-0.927332059119,-0.173263683915,0.0214391127229,-0.208614349365,-1.42196425,0.65704555,8.2768126,0.0,-16.2196750641,12.0975503922,-5.37215852737,-0.173263683915,0.0214391127229,-0.208614349365,6.89999961853,-317.993743896,-340.196746826,19.0133934021,-3.7798442839999993,-11.8412075043,3.9024496077999995,16.219675064099995,-5.372158527369998,16.0
2018-10-05 18:55:40.900,0.109025642922,-0.246216772208,-0.927332059119,-0.173263683915,0.0214391127229,-0.208614349365,-1.42196425,0.65704555,8.2768126,0.0,-16.2196750641,12.0975503922,-5.37215852737,-0.173263683915,0.0214391127229,-0.208614349365,6.89999961853,-317.993743896,-340.196746826,19.0133934021,-3.9798450470000013,-13.0012073517,3.7319183349999996,16.190853118899998,-5.422966957089998,16.0
2018-10-05 18:55:40.950,0.109025642922,-0.246216772208,-0.927332059119,-0.173263683915,0.0214391127229,-0.208614349365,-1.42196425,0.65704555,8.2768126,0.0,-16.2196750641,12.0975503922,-5.37215852737,-0.173263683915,0.0214391127229,-0.208614349365,6.89999961853,-317.993743896,-340.196746826,19.0133934021,-4.1098442077,-13.0212068558,3.6776227950999996,16.18186969209999,-5.447222709659998,16.0
2018-10-05 18:55:41.000,0.109025642922,-0.246216772208,-0.927332059119,-0.173263683915,0.0214391127229,-0.208614349365,-1.42196425,0.65704555,8.2768126,0.0,-16.2196750641,12.0975503922,-5.37215852737,-0.173263683915,0.0214391127229,-0.208614349365,7.39999961853,-317.993743896,-338.632843018,19.0133934021,-4.259843826299999,-14.101207733099999,3.4598360061999998,16.14234100646107,-5.501757144929998,16.0
2018-10-05 18:55:41.050,0.128153800092,-0.205048874484,-0.927366260508,-0.201450616121,0.00629921769723,-0.196883454919,-1.59848395,0.69627215,9.30651085,0.0,-16.2196750641,12.0975503922,-5.37215852737,-0.173263683915,0.0214391127229,-0.208614349365,7.39999961853,-317.993743896,-338.632843018,19.0133934021,-4.259843826299999,-14.101207733099999,3.4598360061999998,16.14234100646107,-5.501757144929998,16.0
2018-10-05 18:55:41.100,0.128153800092,-0.205048874484,-0.927366260508,-0.201450616121,0.00629921769723,-0.196883454919,-1.59848395,0.69627215,9.30651085,0.0,-16.117357254,12.7897939682,-5.57446146011,-0.201450616121,0.00629921769723,-0.196883454919,7.89999961853,-325.180419922,-337.087677002,15.322673797599997,-3.009832382199999,-9.267660140989998,3.258354187,16.12072502436107,-5.560785770419998,16.0
2018-10-05 18:55:41.150,0.128153800092,-0.205048874484,-0.927366260508,-0.201450616121,0.00629921769723,-0.196883454919,-1.59848395,0.69627215,9.30651085,0.0,-16.117357254,12.7897939682,-5.57446146011,-0.201450616121,0.00629921769723,-0.196883454919,8.42000007629,-325.180419922,-335.523773193,15.322673797599997,-3.079832076999999,-9.277660369869999,3.1602916717999996,16.12051903076107,-5.583868980409998,16.0
2018-10-05 18:55:41.200,0.128153800092,-0.205048874484,-0.927366260508,-0.201450616121,0.00629921769723,-0.196883454919,-1.59848395,0.69627215,9.30651085,0.0,-16.117357254,12.7897939682,-5.57446146011,-0.201450616121,0.00629921769723,-0.196883454919,8.42000007629,-325.180419922,-335.523773193,15.322673797599997,-3.1798324585000017,-10.147660255429999,3.035078048700001,16.1385993994749,-5.634846687319998,16.0
2018-10-05 18:55:41.250,0.128153800092,-0.205048874484,-0.927366260508,-0.201450616121,0.00629921769723,-0.196883454919,-1.59848395,0.69627215,9.30651085,0.0,-16.117357254,12.7897939682,-5.57446146011,-0.201450616121,0.00629921769723,-0.196883454919,8.93999958038,-346.357543945,-334.08694458,15.322673797599997,-3.189832687399999,-10.147660255429999,2.9528264999000005,16.166989725073698,-5.666575908659998,15.9899997711
2018-10-05 18:55:41.300,0.128153800092,-0.205048874484,-0.927366260508,-0.201450616121,0.00629921769723,-0.196883454919,-1.59848395,0.69627215,9.30651085,0.0,-16.117357254,12.7897939682,-5.57446146011,-0.201450616121,0.00629921769723,-0.196883454919,8.93999958038,-346.357543945,-334.08694458,15.322673797599997,-3.2498321533000016,-10.527660369869999,2.9528264999000005,16.166989725073698,-5.666575908659998,15.9899997711
2018-10-05 18:55:41.350,0.128153800092,-0.205048874484,-0.927366260508,-0.201450616121,0.00629921769723,-0.196883454919,-1.59848395,0.69627215,9.30651085,0.0,-16.117357254,12.7897939682,-5.57446146011,-0.201450616121,0.00629921769723,-0.196883454919,9.46999931335,-347.357543945,-332.526763916,15.322673797599997,-3.259832382199999,-11.25766038894,2.7002592087000004,16.1565450839737,-5.7919754981999985,15.9899997711
2018-10-05 18:55:41.400,0.145514960035,-0.166987413898,-0.925119050932,-0.166514113545,0.0121833831072,-0.143253281713,-1.67693715,0.3530394,8.8455983,0.0,-16.0958480835,13.2996253967,-5.7919754982,-0.201450616121,0.00629921769723,-0.196883454919,9.46999931335,-347.357543945,-332.526763916,11.7793693542,-2.186975479099999,-5.7419219017400005,2.5845890044999997,16.140344064673698,-5.836832046509998,15.9899997711
2018-10-05 18:55:41.450,0.145514960035,-0.166987413898,-0.925119050932,-0.166514113545,0.0121833831072,-0.143253281713,-1.67693715,0.3530394,8.8455983,0.0,-16.0958480835,13.2996253967,-5.7919754982,-0.201450616121,0.00629921769723,-0.196883454919,10.0,-363.433837891,-330.992034912,11.7793693542,-2.2069759367999993,-6.47192144398,2.4891328811999998,16.139609735473698,-5.8371443748499985,15.9899997711
2018-10-05 18:55:41.500,0.145514960035,-0.166987413898,-0.925119050932,-0.166514113545,0.0121833831072,-0.143253281713,-1.67693715,0.3530394,8.8455983,0.0,-16.0958480835,13.2996253967,-5.7919754982,-0.201450616121,0.00629921769723,-0.196883454919,10.0,-363.433837891,-330.992034912,11.7793693542,-2.2069759367999993,-6.47192144398,2.3886241913,16.1414999179737,-5.829353332519998,15.9899997711
2018-10-05 18:55:41.550,0.145514960035,-0.166987413898,-0.925119050932,-0.166514113545,0.0121833831072,-0.143253281713,-1.67693715,0.3530394,8.8455983,0.0,-16.0958480835,13.2996253967,-5.7919754982,-0.201450616121,0.00629921769723,-0.196883454919,10.5500001907,-363.433837891,-329.414825439,11.7793693542,-2.226976394600001,-7.26192188267,2.2545595169000006,16.145341318073697,-5.852616310119998,15.9899997711
2018-10-05 18:55:41.600,0.145514960035,-0.166987413898,-0.925119050932,-0.166514113545,0.0121833831072,-0.143253281713,-1.67693715,0.3530394,8.8455983,0.0,-16.0958480835,13.2996253967,-5.7919754982,-0.201450616121,0.00629921769723,-0.196883454919,10.5500001907,-363.433837891,-329.414825439,11.7793693542,-2.226976394600001,-7.26192188267,2.2545595169000006,16.145341318073697,-5.852616310119998,15.9899997711
2018-10-05 18:55:41.650,0.145514960035,-0.166987413898,-0.925119050932,-0.166514113545,0.0121833831072,-0.143253281713,-1.67693715,0.3530394,8.8455983,0.0,-16.0958480835,13.2996253967,-5.7919754982,-0.201450616121,0.00629921769723,-0.196883454919,10.5500001907,-363.433837891,-329.414825439,11.7793693542,-2.226976394600001,-7.26192188267,2.091718673700001,16.1338552646737,-5.928098201749998,15.9899997711
2018-10-05 18:55:41.700,0.145514960035,-0.166987413898,-0.925119050932,-0.166514113545,0.0121833831072,-0.143253281713,-1.67693715,0.3530394,8.8455983,0.0,-16.0731582642,13.9081659317,-5.92809820175,-0.166514113545,0.0121833831072,-0.143253281713,11.0999994278,-351.206207275,-327.871398926,11.7793693542,-2.2069759367999993,-7.87192153935,2.0263566971000007,16.1361593417737,-5.960115909579998,15.9899997711
2018-10-05 18:55:41.750,0.153521319443,-0.145925621285,-0.924585318619,-0.125096678734,-0.0111982068047,-0.0103323124349,-1.9024901,0.2157463,9.2574776,0.0,-16.0731582642,13.9081659317,-5.92809820175,-0.166514113545,0.0121833831072,-0.143253281713,11.0999994278,-351.206207275,-327.871398926,11.7793693542,-2.2069759367999993,-7.87192153935,2.0263566971000007,16.1361593417737,-5.960115909579998,15.9899997711
2018-10-05 18:55:41.800,0.153521319443,-0.145925621285,-0.924585318619,-0.125096678734,-0.0111982068047,-0.0103323124349,-1.9024901,0.2157463,9.2574776,0.0,-16.0731582642,13.9081659317,-5.92809820175,-0.166514113545,0.0121833831072,-0.143253281713,11.6499996185,-351.206207275,-326.310974121,10.290813446000001,-1.9048709870000025,-5.4572277069299995,1.898612976099999,16.538625210517,-6.025921344759999,15.9899997711
2018-10-05 18:55:41.850,0.153521319443,-0.145925621285,-0.924585318619,-0.125096678734,-0.0111982068047,-0.0103323124349,-1.9024901,0.2157463,9.2574776,0.0,-16.0731582642,13.9081659317,-5.92809820175,-0.166514113545,0.0121833831072,-0.143253281713,12.2100000381,-373.859222412,-325.2862854,11.290813446000001,-1.9048709870000025,-5.4572277069299995,1.8267679215000001,16.544774502517,-6.072256565089998,16.0
2018-10-05 18:55:41.900,0.153521319443,-0.145925621285,-0.924585318619,-0.125096678734,-0.0111982068047,-0.0103323124349,-1.9024901,0.2157463,9.2574776,0.0,-16.1046600342,14.220831871,-6.08641290665,-0.125096678734,-0.0111982068047,-0.0103323124349,12.2100000381,-373.859222412,-325.2862854,11.290813446000001,-1.844869613700002,-3.38722753527,1.746396064799999,16.565238446017002,-6.092565059659998,16.0
2018-10-05 18:55:41.950,0.153521319443,-0.145925621285,-0.924585318619,-0.125096678734,-0.0111982068047,-0.0103323124349,-1.9024901,0.2157463,9.2574776,0.0,-16.1046600342,14.220831871,-6.08641290665,-0.125096678734,-0.0111982068047,-0.0103323124349,12.2100000381,-373.859222412,-325.2862854,11.290813446000001,-1.844869613700002,-3.38722753527,1.6910839080999995,16.586535900817,-6.107701301569998,16.0
2018-10-05 18:55:42.000,0.153521319443,-0.145925621285,-0.924585318619,-0.125096678734,-0.0111982068047,-0.0103323124349,-1.9024901,0.2157463,9.2574776,0.0,-16.1046600342,14.220831871,-6.08641290665,-0.125096678734,-0.0111982068047,-0.0103323124349,12.7699995041,-372.859191895,-323.693084717,11.290813446000001,-1.7648696900000012,-3.6872277259999997,1.6179828643999983,16.788905680157,-6.1233134269699985,16.0
2018-10-05 18:55:42.050,0.153521319443,-0.145925621285,-0.924585318619,-0.125096678734,-0.0111982068047,-0.0103323124349,-1.9024901,0.2157463,9.2574776,0.0,-16.1046600342,14.220831871,-6.08641290665,-0.125096678734,-0.0111982068047,-0.0103323124349,13.3400001526,-381.092468262,-322.294677734,12.290813446000001,-1.6948699952000013,-2.7772274017500003,1.5454216003999992,16.813403666057,-6.122004032139999,16.0
2018-10-05 18:55:42.100,0.153521319443,-0.145925621285,-0.924585318619,-0.125096678734,-0.0111982068047,-0.0103323124349,-1.9024901,0.2157463,9.2574776,0.0,-16.1046600342,14.220831871,-6.08641290665,-0.125096678734,-0.0111982068047,-0.0103323124349,13.3400001526,-381.092468262,-322.294677734,12.290813446000001,-1.6948699952000013,-2.7772274017500003,1.5454216003999992,16.813403666057,-6.122004032139999,16.0
2018-10-05 18:55:42.150,0.153521319443,-0.145925621285,-0.924585318619,-0.125096678734,-0.0111982068047,-0.0103323124349,-1.9024901,0.2157463,9.2574776,0.0,-16.2086677551,14.5193967819,-6.11653232574,-0.125096678734,-0.0111982068047,-0.0103323124349,13.9099998474,-381.092468262,-320.676757812,12.290813446000001,-1.6948699952000013,-2.7772274017500003,1.4394502639999995,16.859201014057,-6.114266872409998,16.0
2018-10-05 18:55:42.200,0.1617666062,-0.118069705869,-0.926837607235,-0.0606524832547,-0.00821937527508,-0.0620673969388,-1.8632635,0.65704555,9.9439431,0.0,-16.2086677551,14.5193967819,-6.11653232574,-0.125096678734,-0.0111982068047,-0.0103323124349,13.9099998474,-381.092468262,-320.676757812,11.572319030800003,-1.6844520568999997,0.5351147651600003,1.3693237304999997,16.885272562457,-6.108638286589998,16.0
2018-10-05 18:55:42.250,0.1617666062,-0.118069705869,-0.926837607235,-0.0606524832547,-0.00821937527508,-0.0620673969388,-1.8632635,0.65704555,9.9439431,0.0,-16.2086677551,14.5193967819,-6.11653232574,-0.125096678734,-0.0111982068047,-0.0103323124349,13.9099998474,-381.092468262,-320.676757812,11.572319030800003,-1.6844520568999997,0.5351147651600003,1.3693237304999997,16.885272562457,-6.108638286589998,16.0
2018-10-05 18:55:42.300,0.1617666062,-0.118069705869,-0.926837607235,-0.0606524832547,-0.00821937527508,-0.0620673969388,-1.8632635,0.65704555,9.9439431,0.0,-16.2086677551,14.5193967819,-6.11653232574,-0.125096678734,-0.0111982068047,-0.0103323124349,13.9099998474,-381.092468262,-320.676757812,11.572319030800003,-1.6844520568999997,0.5351147651600003,1.2258539200000005,17.71134603027,-6.175691127779999,16.0
2018-10-05 18:55:42.350,0.1617666062,-0.118069705869,-0.926837607235,-0.0606524832547,-0.00821937527508,-0.0620673969388,-1.8632635,0.65704555,9.9439431,0.0,-16.2086677551,14.5193967819,-6.11653232574,-0.125096678734,-0.0111982068047,-0.0103323124349,14.4799995422,-399.649230957,-319.410369873,14.572319030800003,-1.5744533538999974,5.3251142501899995,1.2258539200000005,17.71134603027,-6.175691127779999,16.0
2018-10-05 18:55:42.400,0.1617666062,-0.118069705869,-0.926837607235,-0.0606524832547,-0.00821937527508,-0.0620673969388,-1.8632635,0.65704555,9.9439431,0.0,-16.3209342957,14.8401184082,-6.14821577072,-0.0606524832547,-0.00821937527508,-0.0620673969388,15.0599994659,-399.649230957,-317.718536377,14.572319030800003,-1.4144535064999992,5.115114211990001,1.071095466600001,17.76452672477,-6.137973308559999,16.0
2018-10-05 18:55:42.450,0.1617666062,-0.118069705869,-0.926837607235,-0.0606524832547,-0.00821937527508,-0.0620673969388,-1.8632635,0.65704555,9.9439431,0.0,-16.3209342957,14.8401184082,-6.14821577072,-0.0606524832547,-0.00821937527508,-0.0620673969388,15.0599994659,-399.649230957,-317.718536377,14.572319030800003,-1.4144535064999992,5.115114211990001,1.0412387848000009,17.77700078487,-6.117865085599998,16.0
2018-10-05 18:55:42.500,0.1617666062,-0.118069705869,-0.926837607235,-0.0606524832547,-0.00821937527508,-0.0620673969388,-1.8632635,0.65704555,9.9439431,0.0,-16.3209342957,14.8401184082,-6.14821577072,-0.0606524832547,-0.00821937527508,-0.0620673969388,15.6300001144,-423.387512207,-316.03616333,14.572319030800003,-1.3344535827999984,4.90511417389,0.8482837676999999,18.57406663896,-6.002817630769998,16.0
2018-10-05 18:55:42.550,0.15687022134,-0.126278445611,-0.923064452799,0.10501305759,-0.0101164001971,-0.00284623680636,-1.97113665,0.02941995,10.95402805,0.0,-16.3209342957,14.8401184082,-6.14821577072,-0.0606524832547,-0.00821937527508,-0.0620673969388,16.1999988556,-423.387512207,-313.934143066,15.468521118200002,-1.4781761169999967,8.338658332810002,0.7362346648999996,18.622757434860002,-5.904742240909998,16.0
2018-10-05 18:55:42.600,0.15687022134,-0.126278445611,-0.923064452799,0.10501305759,-0.0101164001971,-0.00284623680636,-1.97113665,0.02941995,10.95402805,0.0,-16.4517993927,15.166217804,-5.86094331741,0.10501305759,-0.0101164001971,-0.00284623680636,16.1999988556,-423.387512207,-313.934143066,15.468521118200002,-1.4681758880999993,8.34865856171,0.6840362547999987,18.63570451736,-5.8609433174099985,16.0
2018-10-05 18:55:42.650,0.15687022134,-0.126278445611,-0.923064452799,0.10501305759,-0.0101164001971,-0.00284623680636,-1.97113665,0.02941995,10.95402805,0.0,-16.4517993927,15.166217804,-5.86094331741,0.10501305759,-0.0101164001971,-0.00284623680636,16.1999988556,-423.387512207,-313.934143066,15.468521118200002,-1.4681758880999993,8.34865856171,0.6840362547999987,18.63570451736,-5.8609433174099985,16.0
2018-10-05 18:55:42.700,0.15687022134,-0.126278445611,-0.923064452799,0.10501305759,-0.0101164001971,-0.00284623680636,-1.97113665,0.02941995,10.95402805,0.0,-16.4517993927,15.166217804,-5.86094331741,0.10501305759,-0.0101164001971,-0.00284623680636,16.75,-437.417236328,-312.182159424,15.468521118200002,-1.4281749725999973,8.138657569910002,0.4458093643000005,19.13026618957,-5.749264717099998,16.0
2018-10-05 18:55:42.750,0.15687022134,-0.126278445611,-0.923064452799,0.10501305759,-0.0101164001971,-0.00284623680636,-1.97113665,0.02941995,10.95402805,0.0,-16.4517993927,15.166217804,-5.86094331741,0.10501305759,-0.0101164001971,-0.00284623680636,16.75,-437.417236328,-312.182159424,15.468521118200002,-1.4281749725999973,8.14865779881,0.40731525420000025,19.14652061467,-5.714189052579998,16.0
2018-10-05 18:55:42.800,0.15687022134,-0.126278445611,-0.923064452799,0.10501305759,-0.0101164001971,-0.00284623680636,-1.97113665,0.02941995,10.95402805,0.0,-16.4517993927,15.166217804,-5.86094331741,0.10501305759,-0.0101164001971,-0.00284623680636,16.75,-437.417236328,-312.182159424,15.468521118200002,-1.4281749725999973,8.14865779881,0.40731525420000025,19.14652061467,-5.714189052579998,16.0
2018-10-05 18:55:42.850,0.15687022134,-0.126278445611,-0.923064452799,0.10501305759,-0.0101164001971,-0.00284623680636,-1.97113665,0.02941995,10.95402805,0.0,-16.5729141235,15.5851831436,-5.52793502808,0.10501305759,-0.0101164001971,-0.00284623680636,17.2999992371,-437.417236328,-309.842224121,17.4685211182,-1.4181747436999999,10.518658638009999,0.23259449000000032,19.18919563297,-5.545003890989999,16.0
2018-10-05 18:55:42.900,0.15687022134,-0.126278445611,-0.923064452799,0.10501305759,-0.0101164001971,-0.00284623680636,-1.97113665,0.02941995,10.95402805,0.0,-16.5729141235,15.5851831436,-5.52793502808,0.10501305759,-0.0101164001971,-0.00284623680636,17.2999992371,-437.417236328,-309.842224121,17.4685211182,-1.4181747436999999,10.518658638009999,0.23259449000000032,19.18919563297,-5.545003890989999,16.0
2018-10-05 18:55:42.950,0.15687022134,-0.126278445611,-0.923064452799,0.10501305759,-0.0101164001971,-0.00284623680636,-1.97113665,0.02941995,10.95402805,0.0,-16.5729141235,15.5851831436,-5.52793502808,0.10501305759,-0.0101164001971,-0.00284623680636,17.8299999237,-465.767089844,-308.04598999,17.4685211182,-1.4781761169999967,10.24865818021,0.10869026179999963,19.19755172727,-5.496883869169999,16.0
2018-10-05 18:55:43.000,0.149678807498,-0.137877809216,-0.916030095504,0.0194465164095,-0.00430033076555,-0.115652903914,-2.2163029,0.28439285,9.87529655,0.0,-16.5729141235,15.5851831436,-5.52793502808,0.10501305759,-0.0101164001971,-0.00284623680636,18.3500003815,-465.767089844,-302.59072876,20.426052093499997,-1.6430034637000013,16.97483921054,-0.2784175872999999,20.68039131167,-5.542093276979998,16.0
2018-10-05 18:55:43.050,0.149678807498,-0.137877809216,-0.916030095504,0.0194465164095,-0.00430033076555,-0.115652903914,-2.2163029,0.28439285,9.87529655,0.0,-16.5729141235,15.5851831436,-5.52793502808,0.10501305759,-0.0101164001971,-0.00284623680636,18.3500003815,-465.767089844,-302.59072876,20.426052093499997,-1.6430034637000013,16.97483921054,-0.30703830719999914,20.65351295467,-5.603198051449998,16.0
2018-10-05 18:55:43.100,0.149678807498,-0.137877809216,-0.916030095504,0.0194465164095,-0.00430033076555,-0.115652903914,-2.2163029,0.28439285,9.87529655,0.0,-16.4868507385,15.8646259308,-5.7411570549,0.0194465164095,-0.00430033076555,-0.115652903914,18.8699989319,-493.024627686,-300.682891846,20.426052093499997,-1.5030021667,16.64483928684,-0.37484645839999864,20.61081695557,-5.704831123349998,16.0
2018-10-05 18:55:43.150,0.149678807498,-0.137877809216,-0.916030095504,0.0194465164095,-0.00430033076555,-0.115652903914,-2.2163029,0.28439285,9.87529655,0.0,-16.4868507385,15.8646259308,-5.7411570549,0.0194465164095,-0.00430033076555,-0.115652903914,18.8699989319,-493.024627686,-300.682891846,20.426052093499997,-1.4930038452000005,16.65483951564,-0.45322322849999885,20.56370735167,-5.821441650389998,16.0
2018-10-05 18:55:43.200,0.149678807498,-0.137877809216,-0.916030095504,0.0194465164095,-0.00430033076555,-0.115652903914,-2.2163029,0.28439285,9.87529655,0.0,-16.4868507385,15.8646259308,-5.7411570549,0.0194465164095,-0.00430033076555,-0.115652903914,19.4099998474,-493.024627686,-298.772155762,20.426052093499997,-1.2530021667,16.18484020234,-0.8270330429000001,21.60070323943,-5.912478923799998,16.0
2018-10-05 18:55:43.250,0.149678807498,-0.137877809216,-0.916030095504,0.0194465164095,-0.00430033076555,-0.115652903914,-2.2163029,0.28439285,9.87529655,0.0,-16.4868507385,15.8646259308,-5.7411570549,0.0194465164095,-0.00430033076555,-0.115652903914,19.4099998474,-493.024627686,-298.772155762,20.426052093499997,-1.2430038452000005,16.17483997344,-0.9037523268999994,21.536442756630002,-5.9887733459499985,16.0
2018-10-05 18:55:43.300,0.149678807498,-0.137877809216,-0.916030095504,0.0194465164095,-0.00430033076555,-0.115652903914,-2.2163029,0.28439285,9.87529655,0.0,-16.4868507385,15.8646259308,-5.7411570549,0.0194465164095,-0.00430033076555,-0.115652903914,19.9699993134,-499.296569824,-292.531738281,24.426052093499997,-0.9530029296000002,20.984839439439998,-0.9037523268999994,21.536442756630002,-5.9887733459499985,16.0
2018-10-05 18:55:43.350,0.149678807498,-0.137877809216,-0.916030095504,0.0194465164095,-0.00430033076555,-0.115652903914,-2.2163029,0.28439285,9.87529655,0.0,-16.2768878937,16.1908607483,-6.05914163589,0.0194465164095,-0.00430033076555,-0.115652903914,19.9699993134,-499.296569824,-292.531738281,24.426052093499997,-0.9530029296000002,20.984839439439998,-1.0528974533,21.45782184603,-6.059141635889998,16.0
2018-10-05 18:55:43.400,0.124777416136,-0.195496534787,-0.902335675821,0.156191140413,-0.0416076779366,-0.00250614760444,-2.1966896,0.36284605,10.11065615,0.0,-16.2768878937,16.1908607483,-6.05914163589,0.0194465164095,-0.00430033076555,-0.115652903914,20.5499992371,-499.296569824,-290.53515625,24.426052093499997,-0.6530036925999987,20.45483875274,-1.178254127499999,21.41795825963,-6.064679622649998,16.0
2018-10-05 18:55:43.450,0.124777416136,-0.195496534787,-0.902335675821,0.156191140413,-0.0416076779366,-0.00250614760444,-2.1966896,0.36284605,10.11065615,0.0,-16.2768878937,16.1908607483,-6.05914163589,0.0194465164095,-0.00430033076555,-0.115652903914,21.1299991608,-500.063720703,80.2599411011,216.2712860107,-0.6346130370999994,23.5204906463,-25.01064395902,29.7494096756,-5.926426410680001,16.0
2018-10-05 18:55:43.500,0.124777416136,-0.195496534787,-0.902335675821,0.156191140413,-0.0416076779366,-0.00250614760444,-2.1966896,0.36284605,10.11065615,0.0,-16.2768878937,16.1908607483,-6.05914163589,0.0194465164095,-0.00430033076555,-0.115652903914,21.1299991608,-500.063720703,80.2599411011,216.2712860107,-0.6346130370999994,23.560491561899997,-25.01064395902,29.7494096756,-5.926426410680001,16.0
2018-10-05 18:55:43.550,0.124777416136,-0.195496534787,-0.902335675821,0.156191140413,-0.0416076779366,-0.00250614760444,-2.1966896,0.36284605,10.11065615,0.0,-16.15599823,16.7987880707,-5.70552921295,0.156191140413,-0.0416076779366,-0.00250614760444,21.6999988556,-500.063720703,80.7806625366,216.2712860107,-0.6246128081999984,23.560491561899997,-25.278773307819996,29.7239694596,-5.705529212950001,16.0
2018-10-05 18:55:43.600,0.124777416136,-0.195496534787,-0.902335675821,0.156191140413,-0.0416076779366,-0.00250614760444,-2.1966896,0.36284605,10.11065615,0.0,-16.15599823,16.7987880707,-5.70552921295,0.156191140413,-0.0416076779366,-0.00250614760444,21.6999988556,-500.063720703,80.7806625366,216.2712860107,-0.6246128081999984,23.570489883400004,-25.53542041782,29.662999153199998,-5.494124412540001,16.0
2018-10-05 18:55:43.650,0.124777416136,-0.195496534787,-0.902335675821,0.156191140413,-0.0416076779366,-0.00250614760444,-2.1966896,0.36284605,10.11065615,0.0,-16.15599823,16.7987880707,-5.70552921295,0.156191140413,-0.0416076779366,-0.00250614760444,22.2099990845,-512.551696777,81.3087768555,216.2712860107,-0.6246128081999984,23.580492019599998,-25.607451438920002,29.6444711686,-5.438179016110001,16.0
2018-10-05 18:55:43.700,0.110956473085,-0.214961362212,-0.891728222872,0.525419414043,-0.00325202662498,-0.176770329475,-1.97113665,0.5099458,13.20955755,0.0,-16.15599823,16.7987880707,-5.70552921295,0.156191140413,-0.0416076779366,-0.00250614760444,22.2099990845,-512.551696777,81.3087768555,216.2712860107,-0.7046127318999993,23.560491561899997,-25.843522071819997,29.556128501899998,-5.343605518340001,16.0
2018-10-05 18:55:43.750,0.110956473085,-0.214961362212,-0.891728222872,0.525419414043,-0.00325202662498,-0.176770329475,-1.97113665,0.5099458,13.20955755,0.0,-16.15599823,16.7987880707,-5.70552921295,0.156191140413,-0.0416076779366,-0.00250614760444,22.7199993134,-512.551696777,81.8746490479,214.1007499695,-1.0167312622000004,21.2116374969,-25.843522071819997,29.556128501899998,-5.343605518340001,16.0
2018-10-05 18:55:43.800,0.110956473085,-0.214961362212,-0.891728222872,0.525419414043,-0.00325202662498,-0.176770329475,-1.97113665,0.5099458,13.20955755,0.0,-15.8862743378,17.5312023163,-5.34031248093,0.525419414043,-0.00325202662498,-0.176770329475,22.7199993134,-512.551696777,81.8746490479,214.1007499695,-1.0167312622000004,21.2116374969,-25.95593547822,29.492775917099998,-5.349070072170001,16.0
2018-10-05 18:55:43.850,0.110956473085,-0.214961362212,-0.891728222872,0.525419414043,-0.00325202662498,-0.176770329475,-1.97113665,0.5099458,13.20955755,0.0,-15.8862743378,17.5312023163,-5.34031248093,0.525419414043,-0.00325202662498,-0.176770329475,22.7199993134,-512.551696777,81.8746490479,214.1007499695,-0.9967308043999985,21.1916370392,-26.17229366302,29.3384304047,-5.338040351870001,16.0
2018-10-05 18:55:43.900,0.110956473085,-0.214961362212,-0.891728222872,0.525419414043,-0.00325202662498,-0.176770329475,-1.97113665,0.5099458,13.20955755,0.0,-15.8862743378,17.5312023163,-5.34031248093,0.525419414043,-0.00325202662498,-0.176770329475,23.1999988556,-544.912353516,82.4624557495,214.1007499695,-0.9767303466999984,21.151636123699998,-26.30992031102,29.213971137999998,-5.439110755920001,16.0
2018-10-05 18:55:43.950,0.110956473085,-0.214961362212,-0.891728222872,0.525419414043,-0.00325202662498,-0.176770329475,-1.97113665,0.5099458,13.20955755,0.0,-15.8862743378,17.5312023163,-5.34031248093,0.525419414043,-0.00325202662498,-0.176770329475,23.1999988556,-544.912353516,82.4624557495,214.1007499695,-0.9567298889,21.121637344400003,-26.35907840732,29.141614914,-5.5972638130200005,16.0
2018-10-05 18:55:44.000,0.110956473085,-0.214961362212,-0.891728222872,0.525419414043,-0.00325202662498,-0.176770329475,-1.97113665,0.5099458,13.20955755,0.0,-15.4296197891,17.9399185181,-5.91937685013,0.525419414043,-0.00325202662498,-0.176770329475,23.7199993134,-544.912353516,83.1192092896,214.1007499695,0.23326873779999957,21.0716381073,-26.401286125219997,29.0383081437,-5.847686767580001,16.0
2018-10-05 18:55:44.050,0.110956473085,-0.214961362212,-0.891728222872,0.525419414043,-0.00325202662498,-0.176770329475,-1.97113665,0.5099458,13.20955755,0.0,-15.4296197891,17.9399185181,-5.91937685013,0.525419414043,-0.00325202662498,-0.176770329475,23.7199993134,-544.912353516,83.1192092896,214.1007499695,0.24326896670000053,21.031637191799998,-26.480013847320002,28.9152851105,-6.037421226500001,16.0
2018-10-05 18:55:44.100,0.110956473085,-0.214961362212,-0.891728222872,0.525419414043,-0.00325202662498,-0.176770329475,-1.97113665,0.5099458,13.20955755,0.0,-15.4296197891,17.9399185181,-5.91937685013,0.525419414043,-0.00325202662498,-0.176770329475,24.2799987793,-530.864318848,83.7934036255,214.1007499695,2.7032699585000017,20.981637954700002,-26.480013847320002,28.9152851105,-6.037421226500001,16.0
2018-10-05 18:55:44.150,0.0694159569269,-0.310337683195,-0.848019774164,0.205771550536,-0.0787184461951,-0.244798123837,-2.0790098,1.08853815,6.8058151,0.0,-15.4296197891,17.9399185181,-5.91937685013,0.525419414043,-0.00325202662498,-0.176770329475,24.2799987793,-530.864318848,83.7934036255,214.1007499695,2.7032699585000017,9.2392101288,-26.64188480382,28.7523612977,-6.223339557650001,16.0
2018-10-05 18:55:44.200,0.0694159569269,-0.310337683195,-0.848019774164,0.205771550536,-0.0787184461951,-0.244798123837,-2.0790098,1.08853815,6.8058151,0.0,-15.4296197891,17.9399185181,-5.91937685013,0.525419414043,-0.00325202662498,-0.176770329475,24.8699989319,-530.864318848,84.4805526733,210.0252799988,6.217466354400003,9.209207534799997,-26.78637409212,28.5907373429,-6.327697277070001,16.0
2018-10-05 18:55:44.250,0.0694159569269,-0.310337683195,-0.848019774164,0.205771550536,-0.0787184461951,-0.244798123837,-2.0790098,1.08853815,6.8058151,0.0,-15.4296197891,17.9399185181,-5.91937685013,0.525419414043,-0.00325202662498,-0.176770329475,25.4899997711,-522.164733887,85.2054672241,210.0252799988,8.547466278100002,9.209207534799997,-26.78637409212,28.5907373429,-6.327697277070001,16.0
2018-10-05 18:55:44.300,0.0694159569269,-0.310337683195,-0.848019774164,0.205771550536,-0.0787184461951,-0.244798123837,-2.0790098,1.08853815,6.8058151,0.0,-14.6890592575,18.7490139008,-6.2308921814,0.205771550536,-0.0787184461951,-0.244798123837,25.4899997711,-522.164733887,85.2054672241,210.0252799988,8.547466278100002,9.209207534799997,-27.11316585542,28.333707809499998,-6.286704063420001,16.0
2018-10-05 18:55:44.350,0.0694159569269,-0.310337683195,-0.848019774164,0.205771550536,-0.0787184461951,-0.244798123837,-2.0790098,1.08853815,6.8058151,0.0,-14.6890592575,18.7490139008,-6.2308921814,0.205771550536,-0.0787184461951,-0.244798123837,26.1199989319,-522.164733887,85.9860687256,210.0252799988,8.537467002900001,9.289209365800001,-27.489527702319997,28.100221634,-6.077113628390001,16.0
2018-10-05 18:55:44.400,0.0694159569269,-0.310337683195,-0.848019774164,0.205771550536,-0.0787184461951,-0.244798123837,-2.0790098,1.08853815,6.8058151,0.0,-14.6890592575,18.7490139008,-6.2308921814,0.205771550536,-0.0787184461951,-0.244798123837,26.1199989319,-522.164733887,85.9860687256,210.0252799988,10.577466964800001,9.349206924399997,-27.86928462982,27.832537651099997,-5.848266124730001,16.0
2018-10-05 18:55:44.450,0.0694159569269,-0.310337683195,-0.848019774164,0.205771550536,-0.0787184461951,-0.244798123837,-2.0790098,1.08853815,6.8058151,0.0,-14.6890592575,18.7490139008,-6.2308921814,0.205771550536,-0.0787184461951,-0.244798123837,26.7199993134,-508.925811768,86.8461761475,210.0252799988,10.587466240000001,9.399209976200002,-28.095137596119997,27.655201912,-5.742354869840001,16.0
2018-10-05 18:55:44.500,0.0694159569269,-0.310337683195,-0.848019774164,0.205771550536,-0.0787184461951,-0.244798123837,-2.0790098,1.08853815,6.8058151,0.0,-13.8143835068,19.9691734314,-5.54847764969,0.205771550536,-0.0787184461951,-0.244798123837,26.7199993134,-508.925811768,86.8461761475,210.0252799988,12.507466316260002,9.509206771799999,-28.44915866852,27.3823547364,-5.548477649690001,16.0
2018-10-05 18:55:44.550,0.0320636474873,-0.314993990667,-0.814742569425,0.368717730045,-0.274981230497,-0.195875838399,-2.04958985,0.44129925,15.5925735,0.0,-13.8143835068,19.9691734314,-5.54847764969,0.205771550536,-0.0787184461951,-0.244798123837,26.7199993134,-508.925811768,86.8461761475,210.0252799988,12.507466316260002,9.599206924399997,-28.696335792519996,27.1860408783,-5.403952121730001,16.0
2018-10-05 18:55:44.600,0.0320636474873,-0.314993990667,-0.814742569425,0.368717730045,-0.274981230497,-0.195875838399,-2.04958985,0.44129925,15.5925735,0.0,-13.8143835068,19.9691734314,-5.54847764969,0.205771550536,-0.0787184461951,-0.244798123837,27.2899990082,-508.925811768,87.7758865356,201.29501342769998,12.93330383306,9.008478164699998,-28.994584083519996,26.9061965943,-5.287066459660001,16.0
2018-10-05 18:55:44.650,0.0320636474873,-0.314993990667,-0.814742569425,0.368717730045,-0.274981230497,-0.195875838399,-2.04958985,0.44129925,15.5925735,0.0,-13.8143835068,19.9691734314,-5.54847764969,0.205771550536,-0.0787184461951,-0.244798123837,27.8199996948,-537.589477539,88.7926483154,201.29501342769998,12.943303108270001,9.098478317300003,-29.18764400482,26.7168312073,-5.197066783910001,16.0
2018-10-05 18:55:44.700,0.0320636474873,-0.314993990667,-0.814742569425,0.368717730045,-0.274981230497,-0.195875838399,-2.04958985,0.44129925,15.5925735,0.0,-13.8143835068,19.9691734314,-5.54847764969,0.205771550536,-0.0787184461951,-0.244798123837,27.8199996948,-537.589477539,88.7926483154,201.29501342769998,14.70330333715,9.208478927700003,-29.41499996182,26.5013189316,-5.074782848360001,16.0
2018-10-05 18:55:44.750,0.0320636474873,-0.314993990667,-0.814742569425,0.368717730045,-0.274981230497,-0.195875838399,-2.04958985,0.44129925,15.5925735,0.0,-13.8143835068,19.9691734314,-5.54847764969,0.205771550536,-0.0787184461951,-0.244798123837,28.3299999237,-537.589477539,89.8988418579,201.29501342769998,16.33330345159,9.4184780121,-29.41499996182,26.5013189316,-5.074782848360001,16.0
2018-10-05 18:55:44.800,0.0320636474873,-0.314993990667,-0.814742569425,0.368717730045,-0.274981230497,-0.195875838399,-2.04958985,0.44129925,15.5925735,0.0,-12.2008562088,21.6391105652,-4.60909318924,0.368717730045,-0.274981230497,-0.195875838399,28.3299999237,-537.589477539,89.8988418579,201.29501342769998,16.33330345159,9.4184780121,-30.00348567962,25.9022731781,-4.697609901430001,16.0
2018-10-05 18:55:44.850,0.0320636474873,-0.314993990667,-0.814742569425,0.368717730045,-0.274981230497,-0.195875838399,-2.04958985,0.44129925,15.5925735,0.0,-12.2008562088,21.6391105652,-4.60909318924,0.368717730045,-0.274981230497,-0.195875838399,28.3299999237,-537.589477539,89.8988418579,201.29501342769998,16.34330320363,9.588479995799997,-30.45536899562,25.3627824784,-4.376913070680001,16.0
2018-10-05 18:55:44.900,0.0320636474873,-0.314993990667,-0.814742569425,0.368717730045,-0.274981230497,-0.195875838399,-2.04958985,0.44129925,15.5925735,0.0,-12.2008562088,21.6391105652,-4.60909318924,0.368717730045,-0.274981230497,-0.195875838399,28.7899990082,-504.668243408,91.0731964111,201.29501342769998,17.79330348973,9.808477401800001,-30.68930530552,25.081908226099998,-4.207952022550001,16.0
2018-10-05 18:55:44.950,-0.0309537248407,-0.321526207952,-0.782157151087,0.339476525784,-0.37924259901,-0.181779682636,-1.59848395,0.44129925,16.3378789,0.0,-12.2008562088,21.6391105652,-4.60909318924,0.368717730045,-0.274981230497,-0.195875838399,28.7899990082,-504.668243408,91.0731964111,201.29501342769998,17.8033034802,9.868478775099998,-30.801362037620002,24.9353952408,-4.123774528500001,16.0
2018-10-05 18:55:45.000,-0.0309537248407,-0.321526207952,-0.782157151087,0.339476525784,-0.37924259901,-0.181779682636,-1.59848395,0.44129925,16.3378789,0.0,-10.7659292221,22.7392597198,-3.81944346428,0.339476525784,-0.37924259901,-0.181779682636,29.2199993134,-504.668243408,92.3449935913,193.7580566406,15.260010242469999,7.070781707799995,-31.316716194119998,24.186353683500002,-3.749762296680001,16.0
2018-10-05 18:55:45.050,-0.0309537248407,-0.321526207952,-0.782157151087,0.339476525784,-0.37924259901,-0.181779682636,-1.59848395,0.44129925,16.3378789,0.0,-10.7659292221,22.7392597198,-3.81944346428,0.339476525784,-0.37924259901,-0.181779682636,29.2199993134,-504.668243408,92.3449935913,193.7580566406,15.260010242469999,7.070781707799995,-31.316716194119998,24.186353683500002,-3.749762296680001,16.0
2018-10-05 18:55:45.100,-0.0309537248407,-0.321526207952,-0.782157151087,0.339476525784,-0.37924259901,-0.181779682636,-1.59848395,0.44129925,16.3378789,0.0,-10.7659292221,22.7392597198,-3.81944346428,0.339476525784,-0.37924259901,-0.181779682636,29.5900001526,-528.128234863,93.6943893433,193.7580566406,16.470010161405,7.3107795714999995,-31.60182666782,23.7210245133,-3.517712354660001,16.0
2018-10-05 18:55:45.150,-0.0309537248407,-0.321526207952,-0.782157151087,0.339476525784,-0.37924259901,-0.181779682636,-1.59848395,0.44129925,16.3378789,0.0,-10.7659292221,22.7392597198,-3.81944346428,0.339476525784,-0.37924259901,-0.181779682636,29.5900001526,-528.128234863,93.6943893433,193.7580566406,16.470010161405,7.4107818604,-31.774664878819998,23.422754287769997,-3.380030632020001,16.0
2018-10-05 18:55:45.200,-0.0309537248407,-0.321526207952,-0.782157151087,0.339476525784,-0.37924259901,-0.181779682636,-1.59848395,0.44129925,16.3378789,0.0,-10.7659292221,22.7392597198,-3.81944346428,0.339476525784,-0.37924259901,-0.181779682636,29.9399986267,-528.128234863,95.1317825317,193.7580566406,17.6100101471,7.620780944799996,-32.10234928132,22.78172302251,-3.092890739440001,16.0
2018-10-05 18:55:45.250,-0.0309537248407,-0.321526207952,-0.782157151087,0.339476525784,-0.37924259901,-0.181779682636,-1.59848395,0.44129925,16.3378789,0.0,-8.86004734039,23.7913856506,-2.91514372826,0.339476525784,-0.37924259901,-0.181779682636,30.25,-539.597290039,96.65574646,193.7580566406,18.620010137559998,7.700778961200001,-32.35232639312,22.249959945729998,-2.831829547880001,16.0
2018-10-05 18:55:45.300,-0.0309537248407,-0.321526207952,-0.782157151087,0.339476525784,-0.37924259901,-0.181779682636,-1.59848395,0.44129925,16.3378789,0.0,-8.86004734039,23.7913856506,-2.91514372826,0.339476525784,-0.37924259901,-0.181779682636,30.25,-539.597290039,96.65574646,193.7580566406,18.620010137559998,7.700778961200001,-32.35232639312,22.249959945729998,-2.831829547880001,16.0
2018-10-05 18:55:45.350,-0.0309537248407,-0.321526207952,-0.782157151087,0.339476525784,-0.37924259901,-0.181779682636,-1.59848395,0.44129925,16.3378789,0.0,-8.86004734039,23.7913856506,-2.91514372826,0.339476525784,-0.37924259901,-0.181779682636,30.5299987793,-539.597290039,98.2488250732,193.7580566406,18.6100101471,7.870780944799996,-32.74063205722,21.36000108724,-2.374290227890001,16.0
2018-10-05 18:55:45.400,-0.111155028671,-0.292188333865,-0.736904472187,-0.0117020215839,-0.440781116486,-0.219204604626,-0.99047165,0.55897905,17.42641705,0.0,-8.86004734039,23.7913856506,-2.91514372826,0.339476525784,-0.37924259901,-0.181779682636,30.5299987793,-539.597290039,98.2488250732,193.7580566406,18.6100101471,7.870780944799996,-32.74063205722,21.36000108724,-2.374290227890001,16.0
2018-10-05 18:55:45.450,-0.111155028671,-0.292188333865,-0.736904472187,-0.0117020215839,-0.440781116486,-0.219204604626,-0.99047165,0.55897905,17.42641705,0.0,-7.02089548111,24.5159282684,-1.94878971577,-0.0117020215839,-0.440781116486,-0.219204604626,30.5299987793,-539.597290039,98.2488250732,182.1523952484,13.12484049792,7.154697418199994,-32.99591350552,20.58886671071,-1.9487897157700012,16.0
2018-10-05 18:55:45.500,-0.111155028671,-0.292188333865,-0.736904472187,-0.0117020215839,-0.440781116486,-0.219204604626,-0.99047165,0.55897905,17.42641705,0.0,-7.02089548111,24.5159282684,-1.94878971577,-0.0117020215839,-0.440781116486,-0.219204604626,30.7399997711,-517.191894531,99.9190216064,182.1523952484,13.79484057422,7.224697112999998,-33.11719417572,20.20095300679,-1.725883603100001,16.0
2018-10-05 18:55:45.550,-0.111155028671,-0.292188333865,-0.736904472187,-0.0117020215839,-0.440781116486,-0.219204604626,-0.99047165,0.55897905,17.42641705,0.0,-7.02089548111,24.5159282684,-1.94878971577,-0.0117020215839,-0.440781116486,-0.219204604626,30.9200000763,-517.191894531,101.662345886,182.1523952484,13.79484057422,7.334697723399998,-33.32537174222,19.437906265309998,-1.3136649131800011,16.0
2018-10-05 18:55:45.600,-0.111155028671,-0.292188333865,-0.736904472187,-0.0117020215839,-0.440781116486,-0.219204604626,-0.99047165,0.55897905,17.42641705,0.0,-7.02089548111,24.5159282684,-1.94878971577,-0.0117020215839,-0.440781116486,-0.219204604626,30.9200000763,-517.191894531,101.662345886,182.1523952484,14.34484052653,7.394695281899999,-33.36108875272,19.24011373525,-1.216848850250001,16.0
2018-10-05 18:55:45.650,-0.111155028671,-0.292188333865,-0.736904472187,-0.0117020215839,-0.440781116486,-0.219204604626,-0.99047165,0.55897905,17.42641705,0.0,-7.02089548111,24.5159282684,-1.94878971577,-0.0117020215839,-0.440781116486,-0.219204604626,30.9200000763,-517.191894531,101.662345886,182.1523952484,14.34484052653,7.484695434499997,-33.46420955662,18.66121530538,-0.921671271324001,16.0
