%time,field.orientation.x,field.orientation.y,field.orientation.z,field.angular_velocity.x,field.angular_velocity.y,field.angular_velocity.z,field.linear_acceleration.x,field.linear_acceleration.y,field.linear_acceleration.z,field.data,field.twist.linear.x,field.twist.linear.y,field.twist.linear.z,field.twist.angular.x,field.twist.angular.y,field.twist.angular.z,field.alt_error,field.aspd_error,field.xtrack_error,delta_yaw,delta_pitch,delta_roll,delta_x,delta_y,delta_z,delta_roll_airspeed
2018-09-11 18:55:44.750,,,,,,,,,,0.0,,,,,,,-0.299999982119,-681.6484375,-40.0780754089,174.15618896479998,-5.097830593588,51.011674881000005,,,,
2018-09-11 18:55:44.800,,,,,,,,,,0.0,,,,,,,-0.42999997735,-684.812133789,-37.9364318848,175.0142974854,-4.823815196757,37.89690685269,-5.44620037079,20.5206623077,1.26898860931,15.0
2018-09-11 18:55:44.850,-0.00570186757533,-0.0243759772976,-0.986003686358,1.19835186005,-0.00392702966928,-0.0465687327087,-0.40207265,0.12748645,8.46313895,0.0,,,,,,,-0.42999997735,-684.812133789,-37.9364318848,175.0142974854,-4.803815215827,37.89690685269,-5.44620037079,20.5206623077,1.26898860931,15.0
2018-09-11 18:55:44.900,-0.00570186757533,-0.0243759772976,-0.986003686358,1.19835186005,-0.00392702966928,-0.0465687327087,-0.40207265,0.12748645,8.46313895,0.0,,,,,,,-0.42999997735,-684.812133789,-37.9364318848,175.0142974854,-4.803815215827,37.89690685269,10.49659872055,20.415330886799996,1.315568923950002,15.0
2018-09-11 18:55:44.950,-0.00570186757533,-0.0243759772976,-0.986003686358,1.19835186005,-0.00392702966928,-0.0465687327087,-0.40207265,0.12748645,8.46313895,0.0,-20.3773155212,5.53440856934,1.33601284027,1.19835186005,-0.00392702966928,-0.0465687327087,-0.569999992847,-684.812133789,-202.537109375,27.014297485399993,-7.163815349337,40.52690792079,10.39832496643,20.283449172999998,1.351535677910002,16.0
2018-09-11 18:55:45.000,-0.00570186757533,-0.0243759772976,-0.986003686358,1.19835186005,-0.00392702966928,-0.0465687327087,-0.40207265,0.12748645,8.46313895,0.0,-20.3773155212,5.53440856934,1.33601284027,1.19835186005,-0.00392702966928,-0.0465687327087,-0.699999988079,-571.916564941,-200.525253296,27.014297485399993,-9.433815330267,39.706908225990006,10.2314286232,20.100568771399995,1.326838493350002,16.0
2018-09-11 18:55:45.050,-0.00570186757533,-0.0243759772976,-0.986003686358,1.19835186005,-0.00392702966928,-0.0465687327087,-0.40207265,0.12748645,8.46313895,0.0,-20.3773155212,5.53440856934,1.33601284027,1.19835186005,-0.00392702966928,-0.0465687327087,-0.699999988079,-571.916564941,-200.525253296,27.014297485399993,-9.383815139537,39.706908225990006,10.2314286232,20.100568771399995,1.326838493350002,16.0
2018-09-11 18:55:45.100,-0.00570186757533,-0.0243759772976,-0.986003686358,1.19835186005,-0.00392702966928,-0.0465687327087,-0.40207265,0.12748645,8.46313895,0.0,-20.3773155212,5.53440856934,1.33601284027,1.19835186005,-0.00392702966928,-0.0465687327087,-0.829999983311,-571.916564941,-198.496520996,27.014297485399993,-11.543814986967,38.75690746309,10.047954082490001,19.907068252599995,1.2068858146700019,16.0
2018-09-11 18:55:45.150,-0.00570186757533,-0.0243759772976,-0.986003686358,1.19835186005,-0.00392702966928,-0.0465687327087,-0.40207265,0.12748645,8.46313895,0.0,-19.8179283142,6.03984451294,1.14090299606,1.19835186005,-0.00392702966928,-0.0465687327087,-0.829999983311,-571.916564941,-198.496520996,27.014297485399993,-11.543814986967,38.75690746309,10.010598182679999,19.866403579699995,1.162361502650002,16.0
2018-09-11 18:55:45.200,-0.00570186757533,-0.0243759772976,-0.986003686358,1.19835186005,-0.00392702966928,-0.0465687327087,-0.40207265,0.12748645,8.46313895,0.0,-19.8179283142,6.03984451294,1.14090299606,1.19835186005,-0.00392702966928,-0.0465687327087,-0.829999983311,-571.916564941,-198.496520996,27.014297485399993,-11.503815025067,38.75690746309,9.86287164688,19.723409652699996,1.055752038960002,16.0
2018-09-11 18:55:45.250,-0.00570186757533,-0.0243759772976,-0.986003686358,1.19835186005,-0.00392702966928,-0.0465687327087,-0.40207265,0.12748645,8.46313895,0.0,-19.8179283142,6.03984451294,1.14090299606,1.19835186005,-0.00392702966928,-0.0465687327087,-0.949999988079,-543.12689209,-196.543746948,27.014297485399993,-13.553815215867,37.80690670009,9.67855787277,19.535303115799998,0.842754662037002,16.0
2018-09-11 18:55:45.300,-0.0277791010858,-0.23293968656,-0.958537940336,0.344503939152,0.0932438373566,-0.0817186832428,-1.3533177,0.53936575,7.87473995,0.0,-19.8179283142,6.03984451294,1.14090299606,1.19835186005,-0.00392702966928,-0.0465687327087,-0.949999988079,-543.12689209,-196.543746948,27.014297485399993,-13.553815215867,37.80690670009,9.67855787277,19.535303115799998,0.842754662037002,16.0
2018-09-11 18:55:45.350,-0.0277791010858,-0.23293968656,-0.958537940336,0.344503939152,0.0932438373566,-0.0817186832428,-1.3533177,0.53936575,7.87473995,0.0,-19.8179283142,6.03984451294,1.14090299606,1.19835186005,-0.00392702966928,-0.0465687327087,-1.06999993324,-543.12689209,-194.582611084,27.145660400400004,-14.042808651880001,12.552421569800003,9.53981876373,19.394645690899996,0.681956887245002,16.0
2018-09-11 18:55:45.400,-0.0277791010858,-0.23293968656,-0.958537940336,0.344503939152,0.0932438373566,-0.0817186832428,-1.3533177,0.53936575,7.87473995,0.0,-19.2625656128,6.5866150856,0.426433146,0.344503939152,0.0932438373566,-0.0817186832428,-1.06999993324,-543.12689209,-194.582611084,27.145660400400004,-14.03280842308,12.532421112000002,9.4133849144,19.262565612799996,0.42643314600000193,16.0
2018-09-11 18:55:45.450,-0.0277791010858,-0.23293968656,-0.958537940336,0.344503939152,0.0932438373566,-0.0817186832428,-1.3533177,0.53936575,7.87473995,0.0,-19.2625656128,6.5866150856,0.426433146,0.344503939152,0.0932438373566,-0.0817186832428,-1.13999998569,-507.498931885,-192.655303955,27.145660400400004,-15.742809414880002,11.542419433600003,9.26533794403,19.088556289699998,0.04069477692250196,16.0
2018-09-11 18:55:45.500,-0.0277791010858,-0.23293968656,-0.958537940336,0.344503939152,0.0932438373566,-0.0817186832428,-1.3533177,0.53936575,7.87473995,0.0,-19.2625656128,6.5866150856,0.426433146,0.344503939152,0.0932438373566,-0.0817186832428,-1.13999998569,-507.498931885,-192.655303955,27.145660400400004,-15.742809414880002,11.542419433600003,9.26533794403,19.088556289699998,0.04069477692250196,16.0
2018-09-11 18:55:45.550,-0.0277791010858,-0.23293968656,-0.958537940336,0.344503939152,0.0932438373566,-0.0817186832428,-1.3533177,0.53936575,7.87473995,0.0,-19.2625656128,6.5866150856,0.426433146,0.344503939152,0.0932438373566,-0.0817186832428,-1.17999994755,-507.498931885,-190.753341675,27.145660400400004,-17.24280941488,10.672420501700003,9.15769577026,18.928264617899995,-0.4001260399819981,16.0
2018-09-11 18:55:45.600,-0.0277791010858,-0.23293968656,-0.958537940336,0.344503939152,0.0932438373566,-0.0817186832428,-1.3533177,0.53936575,7.87473995,0.0,-19.2625656128,6.5866150856,0.426433146,0.344503939152,0.0932438373566,-0.0817186832428,-1.17999994755,-507.498931885,-190.753341675,27.145660400400004,-17.23280918598,10.642421722400002,9.06930971146,18.795732498199996,-0.720989048480998,16.0
2018-09-11 18:55:45.650,-0.00440870100245,-0.276876046727,-0.941414305523,0.204759195447,0.108409002423,-0.27747130394,-1.63771055,0.48052585,4.1384063,0.0,-18.7045269012,6.99334335327,-0.952945709229,0.344503939152,0.0932438373566,-0.0817186832428,-1.15999996662,-479.901123047,-188.893661499,27.145660400400004,-18.53280842308,9.782421112000002,8.983644008639999,18.664627075199995,-1.060234665869998,16.0
2018-09-11 18:55:45.700,-0.00440870100245,-0.276876046727,-0.941414305523,0.204759195447,0.108409002423,-0.27747130394,-1.63771055,0.48052585,4.1384063,0.0,-18.7045269012,6.99334335327,-0.952945709229,0.344503939152,0.0932438373566,-0.0817186832428,-1.15999996662,-479.901123047,-188.893661499,27.145660400400004,-18.53280842308,9.782421112000002,8.983644008639999,18.664627075199995,-1.060234665869998,16.0
2018-09-11 18:55:45.750,-0.00440870100245,-0.276876046727,-0.941414305523,0.204759195447,0.108409002423,-0.27747130394,-1.63771055,0.48052585,4.1384063,0.0,-18.7045269012,6.99334335327,-0.952945709229,0.344503939152,0.0932438373566,-0.0817186832428,-1.10000002384,-479.901123047,-187.033966064,24.489189147900007,-15.28866481783,4.1645240783999995,8.983644008639999,18.664627075199995,-1.060234665869998,16.0
2018-09-11 18:55:45.800,-0.00440870100245,-0.276876046727,-0.941414305523,0.204759195447,0.108409002423,-0.27747130394,-1.63771055,0.48052585,4.1384063,0.0,-18.7045269012,6.99334335327,-0.952945709229,0.344503939152,0.0932438373566,-0.0817186832428,-1.10000002384,-479.901123047,-187.033966064,24.489189147900007,-15.28866481783,4.1645240783999995,8.752209186550001,18.378726959199998,-1.667551755909998,16.0
2018-09-11 18:55:45.850,-0.00440870100245,-0.276876046727,-0.941414305523,0.204759195447,0.108409002423,-0.27747130394,-1.63771055,0.48052585,4.1384063,0.0,-18.7045269012,6.99334335327,-0.952945709229,0.344503939152,0.0932438373566,-0.0817186832428,-0.969999969006,-453.483947754,-185.191116333,24.489189147900007,-14.98866367343,2.9945259093999965,8.58729934692,18.185127258299996,-2.072329521179998,16.0
2018-09-11 18:55:45.900,-0.00440870100245,-0.276876046727,-0.941414305523,0.204759195447,0.108409002423,-0.27747130394,-1.63771055,0.48052585,4.1384063,0.0,-18.1383590698,7.45257425308,-2.18786406517,0.204759195447,0.108409002423,-0.27747130394,-0.799999952316,-453.483947754,-183.407516479,24.489189147900007,-14.79866313933,1.8145256043000018,8.58729934692,18.185127258299996,-2.072329521179998,16.0
2018-09-11 18:55:45.950,-0.00440870100245,-0.276876046727,-0.941414305523,0.204759195447,0.108409002423,-0.27747130394,-1.63771055,0.48052585,4.1384063,0.0,-18.1383590698,7.45257425308,-2.18786406517,0.204759195447,0.108409002423,-0.27747130394,-0.799999952316,-453.483947754,-183.407516479,24.489189147900007,-14.718663215629999,1.7645225524999972,8.379752159119999,17.945600509599995,-2.5770399570499984,16.0
2018-09-11 18:55:46.000,-0.00440870100245,-0.276876046727,-0.941414305523,0.204759195447,0.108409002423,-0.27747130394,-1.63771055,0.48052585,4.1384063,0.0,-18.1383590698,7.45257425308,-2.18786406517,0.204759195447,0.108409002423,-0.27747130394,-0.799999952316,-453.483947754,-183.407516479,24.489189147900007,-14.718663215629999,1.7645225524999972,8.379752159119999,17.945600509599995,-2.5770399570499984,16.0
2018-09-11 18:55:46.050,0.0227097804267,-0.314627864978,-0.920235079605,-0.0137960314751,0.0872504785657,-0.250878304243,-1.9809433,0.6472389,5.8643767,0.0,-18.1383590698,7.45257425308,-2.18786406517,0.204759195447,0.108409002423,-0.27747130394,-0.579999983311,-422.09967041,-181.623886108,21.197189331100006,-9.5594158173,-3.1671867371000033,8.16049957275,17.706134796099995,-3.0561118125899984,16.0
2018-09-11 18:55:46.100,0.0227097804267,-0.314627864978,-0.920235079605,-0.0137960314751,0.0872504785657,-0.250878304243,-1.9809433,0.6472389,5.8643767,0.0,-18.1383590698,7.45257425308,-2.18786406517,0.204759195447,0.108409002423,-0.27747130394,-0.579999983311,-422.09967041,-181.623886108,21.197189331100006,-9.5594158173,-3.1671867371000033,8.16049957275,17.706134796099995,-3.0561118125899984,16.0
2018-09-11 18:55:46.150,0.0227097804267,-0.314627864978,-0.920235079605,-0.0137960314751,0.0872504785657,-0.250878304243,-1.9809433,0.6472389,5.8643767,0.0,-18.1383590698,7.45257425308,-2.18786406517,0.204759195447,0.108409002423,-0.27747130394,-0.310000002384,-422.09967041,-179.874084473,21.197189331100006,-9.649415969900001,-4.437189102200001,7.835654258730001,17.404666900599995,-3.553863763809998,16.0
2018-09-11 18:55:46.200,0.0227097804267,-0.314627864978,-0.920235079605,-0.0137960314751,0.0872504785657,-0.250878304243,-1.9809433,0.6472389,5.8643767,0.0,-17.3493099213,8.24058437347,-3.59825968742,-0.0137960314751,0.0872504785657,-0.250878304243,0.00999999977648,-394.285583496,-178.149658203,21.197189331100006,-9.7694168091,-6.077188491800001,7.835654258730001,17.404666900599995,-3.553863763809998,16.0
2018-09-11 18:55:46.250,0.0227097804267,-0.314627864978,-0.920235079605,-0.0137960314751,0.0872504785657,-0.250878304243,-1.9809433,0.6472389,5.8643767,0.0,-17.3493099213,8.24058437347,-3.59825968742,-0.0137960314751,0.0872504785657,-0.250878304243,0.00999999977648,-394.285583496,-178.149658203,21.197189331100006,-9.7694168091,-6.077188491800001,7.52820110321,17.190128326399996,-3.7292141914399983,16.0
2018-09-11 18:55:46.300,0.0227097804267,-0.314627864978,-0.920235079605,-0.0137960314751,0.0872504785657,-0.250878304243,-1.9809433,0.6472389,5.8643767,0.0,-17.3493099213,8.24058437347,-3.59825968742,-0.0137960314751,0.0872504785657,-0.250878304243,0.00999999977648,-394.285583496,-178.149658203,21.197189331100006,-9.779417037999998,-6.1771888733,7.52820110321,17.190128326399996,-3.7292141914399983,16.0
2018-09-11 18:55:46.350,0.0227097804267,-0.314627864978,-0.920235079605,-0.0137960314751,0.0872504785657,-0.250878304243,-1.9809433,0.6472389,5.8643767,0.0,-17.3493099213,8.24058437347,-3.59825968742,-0.0137960314751,0.0872504785657,-0.250878304243,0.340000003576,-394.285583496,-176.501174927,21.197189331100006,-9.7694168091,-7.947187423700001,7.185102462770001,16.935997009299996,-3.9881505966199984,16.0
2018-09-11 18:55:46.400,0.0488550435643,-0.314407424868,-0.909141750754,-0.00680098868906,0.0390493273735,-0.169687449932,-2.2163029,0.93163175,7.75706015,0.0,-16.9359970093,8.81489753723,-3.98815059662,-0.0137960314751,0.0872504785657,-0.250878304243,0.699999988079,-370.471557617,-174.844360352,21.197189331100006,-9.7594165802,-7.987188339199999,7.04895973206,16.834003448499995,-4.101136207579998,16.0
2018-09-11 18:55:46.450,0.0488550435643,-0.314407424868,-0.909141750754,-0.00680098868906,0.0390493273735,-0.169687449932,-2.2163029,0.93163175,7.75706015,0.0,-16.9359970093,8.81489753723,-3.98815059662,-0.0137960314751,0.0872504785657,-0.250878304243,0.699999988079,-370.471557617,-174.844360352,17.708858489999997,-5.669162750199998,-8.678104400600002,6.844646453859999,16.691947936999995,-4.259217739109999,16.0
2018-09-11 18:55:46.500,0.0488550435643,-0.314407424868,-0.909141750754,-0.00680098868906,0.0390493273735,-0.169687449932,-2.2163029,0.93163175,7.75706015,0.0,-16.9359970093,8.81489753723,-3.98815059662,-0.0137960314751,0.0872504785657,-0.250878304243,0.699999988079,-370.471557617,-174.844360352,17.708858489999997,-5.719163894600001,-8.7081031799,6.774870872499999,16.642480850199995,-4.3078746795699985,16.0
2018-09-11 18:55:46.550,0.0488550435643,-0.314407424868,-0.909141750754,-0.00680098868906,0.0390493273735,-0.169687449932,-2.2163029,0.93163175,7.75706015,0.0,-16.9359970093,8.81489753723,-3.98815059662,-0.0137960314751,0.0872504785657,-0.250878304243,1.07999992371,-370.471557617,-173.204421997,17.708858489999997,-5.919162750199998,-10.4581031799,6.49487781525,16.455101013199997,-4.486461639399998,16.0
2018-09-11 18:55:46.600,0.0488550435643,-0.314407424868,-0.909141750754,-0.00680098868906,0.0390493273735,-0.169687449932,-2.2163029,0.93163175,7.75706015,0.0,-16.3651733398,9.62567901611,-4.59498071671,-0.00680098868906,0.0390493273735,-0.169687449932,1.07999992371,-370.471557617,-173.204421997,17.708858489999997,-5.9891643524,-10.478103637700002,6.43248558044,16.409194946299998,-4.539015769959998,16.0
2018-09-11 18:55:46.650,0.0488550435643,-0.314407424868,-0.909141750754,-0.00680098868906,0.0390493273735,-0.169687449932,-2.2163029,0.93163175,7.75706015,0.0,-16.3651733398,9.62567901611,-4.59498071671,-0.00680098868906,0.0390493273735,-0.169687449932,1.48000001907,-382.639312744,-171.58140564,17.708858489999997,-6.429162979099999,-12.198102951000003,6.2256269455,16.241703033399997,-4.791148185729998,16.0
2018-09-11 18:55:46.700,0.0685526228094,-0.290130918294,-0.90895191224,-0.278509527445,0.0450337938964,-0.243243917823,-2.1378497,1.1571847,6.54103555,0.0,-16.3651733398,9.62567901611,-4.59498071671,-0.00680098868906,0.0390493273735,-0.169687449932,1.48000001907,-382.639312744,-171.58140564,17.708858489999997,-6.429162979099999,-12.198102951000003,6.182376861570001,16.202281951899998,-4.8638038635299985,16.0
2018-09-11 18:55:46.750,0.0685526228094,-0.290130918294,-0.90895191224,-0.278509527445,0.0450337938964,-0.243243917823,-2.1378497,1.1571847,6.54103555,0.0,-16.3651733398,9.62567901611,-4.59498071671,-0.00680098868906,0.0390493273735,-0.169687449932,1.91999995708,-382.639312744,-169.975326538,15.161220550499998,-4.568759918200001,-9.871747970600001,6.001686096189999,16.047863006599997,-5.145080566409998,16.0
2018-09-11 18:55:46.800,0.0685526228094,-0.290130918294,-0.90895191224,-0.278509527445,0.0450337938964,-0.243243917823,-2.1378497,1.1571847,6.54103555,0.0,-16.3651733398,9.62567901611,-4.59498071671,-0.00680098868906,0.0390493273735,-0.169687449932,1.91999995708,-382.639312744,-169.975326538,15.161220550499998,-4.668760299700001,-9.921747207700001,5.911890983599999,15.969843864399996,-5.277389526369999,16.0
2018-09-11 18:55:46.850,0.0685526228094,-0.290130918294,-0.90895191224,-0.278509527445,0.0450337938964,-0.243243917823,-2.1378497,1.1571847,6.54103555,0.0,-16.3651733398,9.62567901611,-4.59498071671,-0.00680098868906,0.0390493273735,-0.169687449932,2.37999987602,-374.637207031,-168.377685547,15.161220550499998,-4.8087596893,-11.251747131399998,5.7695178986,15.858037948599996,-5.449230194089998,16.0
2018-09-11 18:55:46.900,0.0685526228094,-0.290130918294,-0.90895191224,-0.278509527445,0.0450337938964,-0.243243917823,-2.1378497,1.1571847,6.54103555,0.0,-15.8167085648,10.2844371796,-5.50516271591,-0.278509527445,0.0450337938964,-0.243243917823,2.37999987602,-374.637207031,-168.377685547,15.161220550499998,-4.878759384200002,-11.2717475892,5.715562820400001,15.816708564799997,-5.505162715909998,16.0
2018-09-11 18:55:46.950,0.0685526228094,-0.290130918294,-0.90895191224,-0.278509527445,0.0450337938964,-0.243243917823,-2.1378497,1.1571847,6.54103555,0.0,-15.8167085648,10.2844371796,-5.50516271591,-0.278509527445,0.0450337938964,-0.243243917823,2.86999988556,-374.637207031,-166.796951294,15.161220550499998,-5.068759918200001,-12.671747207700001,5.5058612823,15.658966064499996,-5.711311817169999,16.0
2018-09-11 18:55:47.000,0.0685526228094,-0.290130918294,-0.90895191224,-0.278509527445,0.0450337938964,-0.243243917823,-2.1378497,1.1571847,6.54103555,0.0,-15.8167085648,10.2844371796,-5.50516271591,-0.278509527445,0.0450337938964,-0.243243917823,2.86999988556,-374.637207031,-166.796951294,15.161220550499998,-5.2187595368,-12.7117481232,5.3782825469999995,15.576000213599997,-5.770112037659998,16.0
2018-09-11 18:55:47.050,0.0685526228094,-0.290130918294,-0.90895191224,-0.278509527445,0.0450337938964,-0.243243917823,-2.1378497,1.1571847,6.54103555,0.0,-15.8167085648,10.2844371796,-5.50516271591,-0.278509527445,0.0450337938964,-0.243243917823,3.39999985695,-363.007354736,-165.241500854,15.161220550499998,-5.3087596893,-14.2617473603,5.1765203476,15.462483406099997,-5.845991134639998,16.0
2018-09-11 18:55:47.100,0.0685526228094,-0.290130918294,-0.90895191224,-0.278509527445,0.0450337938964,-0.243243917823,-2.1378497,1.1571847,6.54103555,0.0,-15.3647241592,10.9997882843,-5.91443920135,-0.278509527445,0.0450337938964,-0.243243917823,3.39999985695,-363.007354736,-165.241500854,15.161220550499998,-5.438758850100001,-14.2917480469,5.0532264709,15.392715454099996,-5.891656398769999,16.0
2018-09-11 18:55:47.150,0.0983441356391,-0.253230364142,-0.903750103145,-0.168392598629,0.00738714123145,-0.164857417345,-2.353596,0.4707192,9.1005712,0.0,-15.3647241592,10.9997882843,-5.91443920135,-0.278509527445,0.0450337938964,-0.243243917823,3.9399998188,-363.007354736,-163.711486816,15.161220550499998,-5.588760376,-15.9317474366,4.8788108826,15.298458099399996,-5.967127799989998,16.0
2018-09-11 18:55:47.200,0.0983441356391,-0.253230364142,-0.903750103145,-0.168392598629,0.00738714123145,-0.164857417345,-2.353596,0.4707192,9.1005712,0.0,-15.3647241592,10.9997882843,-5.91443920135,-0.278509527445,0.0450337938964,-0.243243917823,3.9399998188,-363.007354736,-163.711486816,10.262992858899999,-2.5097751618000004,-10.0023765564,4.825629234299999,15.270133018499996,-5.991750240329998,16.0
2018-09-11 18:55:47.250,0.0983441356391,-0.253230364142,-0.903750103145,-0.168392598629,0.00738714123145,-0.164857417345,-2.353596,0.4707192,9.1005712,0.0,-15.3647241592,10.9997882843,-5.91443920135,-0.278509527445,0.0450337938964,-0.243243917823,4.48999977112,-368.886169434,-162.189819336,10.262992858899999,-2.6697750091999986,-11.4623765945,4.825629234299999,15.270133018499996,-5.991750240329998,16.0
2018-09-11 18:55:47.300,0.0983441356391,-0.253230364142,-0.903750103145,-0.168392598629,0.00738714123145,-0.164857417345,-2.353596,0.4707192,9.1005712,0.0,-15.3647241592,10.9997882843,-5.91443920135,-0.278509527445,0.0450337938964,-0.243243917823,5.05999994278,-368.886169434,-160.685165405,10.262992858899999,-2.789775848399998,-12.9623765945,4.472741127000001,15.074038505599997,-6.154242515559998,16.0
2018-09-11 18:55:47.350,0.0983441356391,-0.253230364142,-0.903750103145,-0.168392598629,0.00738714123145,-0.164857417345,-2.353596,0.4707192,9.1005712,0.0,-15.3647241592,10.9997882843,-5.91443920135,-0.278509527445,0.0450337938964,-0.243243917823,5.05999994278,-368.886169434,-160.685165405,10.262992858899999,-2.8797760009999998,-12.9723768234,4.299533844000001,14.993362426799996,-6.200153350829998,16.0
2018-09-11 18:55:47.400,0.0983441356391,-0.253230364142,-0.903750103145,-0.168392598629,0.00738714123145,-0.164857417345,-2.353596,0.4707192,9.1005712,0.0,-14.9933624268,11.700466156,-6.20015335083,-0.168392598629,0.00738714123145,-0.164857417345,5.05999994278,-368.886169434,-160.685165405,10.262992858899999,-2.9197750091999986,-12.9823760986,4.246643066400001,14.966136932399996,-6.225172042849998,16.0
2018-09-11 18:55:47.450,0.0983441356391,-0.253230364142,-0.903750103145,-0.168392598629,0.00738714123145,-0.164857417345,-2.353596,0.4707192,9.1005712,0.0,-14.9933624268,11.700466156,-6.20015335083,-0.168392598629,0.00738714123145,-0.164857417345,5.63999986649,-374.664123535,-159.205871582,10.262992858899999,-3.1997756957999997,-14.3123760223,4.114181518600001,14.902219772299997,-6.310329437259998,16.0
2018-09-11 18:55:47.500,0.118327045129,-0.222483069768,-0.901962146709,-0.295632898808,0.014770725742,-0.167554974556,-2.40262925,0.0392266,9.30651085,0.0,-14.9933624268,11.700466156,-6.20015335083,-0.168392598629,0.00738714123145,-0.164857417345,5.63999986649,-374.664123535,-159.205871582,10.262992858899999,-3.1997756957999997,-14.3123760223,4.0134906769,14.858756065399996,-6.350069999689998,16.0
2018-09-11 18:55:47.550,0.118327045129,-0.222483069768,-0.901962146709,-0.295632898808,0.014770725742,-0.167554974556,-2.40262925,0.0392266,9.30651085,0.0,-14.9933624268,11.700466156,-6.20015335083,-0.168392598629,0.00738714123145,-0.164857417345,6.23000001907,-374.664123535,-157.726577759,7.385345459,-1.8760757445999978,-10.81539249417,3.8412675858000007,14.789047241199997,-6.375170707699998,16.0
2018-09-11 18:55:47.600,0.118327045129,-0.222483069768,-0.901962146709,-0.295632898808,0.014770725742,-0.167554974556,-2.40262925,0.0392266,9.30651085,0.0,-14.736746788,12.3115348816,-6.39761018753,-0.295632898808,0.014770725742,-0.167554974556,6.23000001907,-374.664123535,-157.726577759,7.385345459,-1.9760761261000006,-10.825392723050001,3.733133316,14.751193046599996,-6.387109756469998,16.0
2018-09-11 18:55:47.650,0.118327045129,-0.222483069768,-0.901962146709,-0.295632898808,0.014770725742,-0.167554974556,-2.40262925,0.0392266,9.30651085,0.0,-14.736746788,12.3115348816,-6.39761018753,-0.295632898808,0.014770725742,-0.167554974556,6.82999992371,-375.966644287,-156.247283936,7.385345459,-2.1160755157999986,-12.06539297101,3.6020584105999998,14.713432311999997,-6.420442104339998,16.0
2018-09-11 18:55:47.700,0.118327045129,-0.222483069768,-0.901962146709,-0.295632898808,0.014770725742,-0.167554974556,-2.40262925,0.0392266,9.30651085,0.0,-14.736746788,12.3115348816,-6.39761018753,-0.295632898808,0.014770725742,-0.167554974556,6.82999992371,-375.966644287,-156.247283936,7.385345459,-2.2260761261000006,-12.08539295193,3.5133228302,14.665192604099996,-6.546803474429998,16.0
2018-09-11 18:55:47.750,0.118327045129,-0.222483069768,-0.901962146709,-0.295632898808,0.014770725742,-0.167554974556,-2.40262925,0.0392266,9.30651085,0.0,-14.736746788,12.3115348816,-6.39761018753,-0.295632898808,0.014770725742,-0.167554974556,7.42999982834,-375.966644287,-154.776382446,7.385345459,-2.306076049799998,-12.91539287564,3.4604959488,14.619836807299997,-6.657322883609998,16.0
2018-09-11 18:55:47.800,0.118327045129,-0.222483069768,-0.901962146709,-0.295632898808,0.014770725742,-0.167554974556,-2.40262925,0.0392266,9.30651085,0.0,-14.736746788,12.3115348816,-6.39761018753,-0.295632898808,0.014770725742,-0.167554974556,7.42999982834,-375.966644287,-154.776382446,7.385345459,-2.306076049799998,-12.91539287564,3.4604959488,14.619836807299997,-6.657322883609998,16.0
2018-09-11 18:55:47.850,0.118327045129,-0.222483069768,-0.901962146709,-0.295632898808,0.014770725742,-0.167554974556,-2.40262925,0.0392266,9.30651085,0.0,-14.5195045471,12.7036142349,-6.91985464096,-0.295632898808,0.014770725742,-0.167554974556,8.03999996185,-391.547973633,-153.356262207,7.385345459,-2.4360752105999985,-13.70539283749,3.3244428635,14.531728744499997,-6.888071537019998,16.0
2018-09-11 18:55:47.900,0.118327045129,-0.222483069768,-0.901962146709,-0.295632898808,0.014770725742,-0.167554974556,-2.40262925,0.0392266,9.30651085,0.0,-14.5195045471,12.7036142349,-6.91985464096,-0.295632898808,0.014770725742,-0.167554974556,8.68999958038,-391.547973633,-151.893875122,7.385345459,-2.486076354999998,-13.71539306638,3.3244428635,14.531728744499997,-6.888071537019998,16.0
2018-09-11 18:55:47.950,0.142467987797,-0.188180796233,-0.895360668122,-0.0739471316338,-0.0073140123859,-0.131621718407,-2.5301157,0.00980665,8.4141057,0.0,-14.5195045471,12.7036142349,-6.91985464096,-0.295632898808,0.014770725742,-0.167554974556,8.68999958038,-391.547973633,-151.893875122,3.2749519348000007,-0.7933921814000016,-8.944021224930001,3.1398591995,14.442398071299996,-7.032237529749998,16.0
2018-09-11 18:55:48.000,0.142467987797,-0.188180796233,-0.895360668122,-0.0739471316338,-0.0073140123859,-0.131621718407,-2.5301157,0.00980665,8.4141057,0.0,-14.5195045471,12.7036142349,-6.91985464096,-0.295632898808,0.014770725742,-0.167554974556,8.68999958038,-391.547973633,-151.893875122,3.2749519348000007,-0.8333930969000001,-8.95402097697,3.0598621367999996,14.403393745399997,-7.082516193389998,16.0
2018-09-11 18:55:48.050,0.142467987797,-0.188180796233,-0.895360668122,-0.0739471316338,-0.0073140123859,-0.131621718407,-2.5301157,0.00980665,8.4141057,0.0,-14.5195045471,12.7036142349,-6.91985464096,-0.295632898808,0.014770725742,-0.167554974556,9.35999965668,-397.018249512,-150.448303223,3.2749519348000007,-0.9133930206000009,-9.95402097697,2.942485809300001,14.362348556499997,-7.132526874539998,16.0
2018-09-11 18:55:48.100,0.142467987797,-0.188180796233,-0.895360668122,-0.0739471316338,-0.0073140123859,-0.131621718407,-2.5301157,0.00980665,8.4141057,0.0,-14.5195045471,12.7036142349,-6.91985464096,-0.295632898808,0.014770725742,-0.167554974556,10.0399999619,-397.018249512,-149.019729614,3.2749519348000007,-1.0133934021000002,-10.764021158170001,2.942485809300001,14.362348556499997,-7.132526874539998,16.0
2018-09-11 18:55:48.150,0.142467987797,-0.188180796233,-0.895360668122,-0.0739471316338,-0.0073140123859,-0.131621718407,-2.5301157,0.00980665,8.4141057,0.0,-14.5195045471,12.7036142349,-6.91985464096,-0.295632898808,0.014770725742,-0.167554974556,10.0399999619,-397.018249512,-149.019729614,3.2749519348000007,-1.0133934021000002,-10.764021158170001,2.7467908858999994,14.322278022799997,-7.157436847689998,16.0
2018-09-11 18:55:48.200,0.142467987797,-0.188180796233,-0.895360668122,-0.0739471316338,-0.0073140123859,-0.131621718407,-2.5301157,0.00980665,8.4141057,0.0,-14.3111686707,13.290845871,-7.16463327408,-0.0739471316338,-0.0073140123859,-0.131621718407,10.0399999619,-397.018249512,-149.019729614,3.2749519348000007,-1.0833930969,-10.764021158170001,2.6554040908999994,14.283866882299996,-7.215300083159998,16.0
2018-09-11 18:55:48.250,0.142467987797,-0.188180796233,-0.895360668122,-0.0739471316338,-0.0073140123859,-0.131621718407,-2.5301157,0.00980665,8.4141057,0.0,-14.3111686707,13.290845871,-7.16463327408,-0.0739471316338,-0.0073140123859,-0.131621718407,10.7199993134,-412.712097168,-147.608062744,3.2749519348000007,-0.08339309690000007,-11.52402091022,2.5792312622000004,14.257629394499997,-7.301069259639998,16.0
2018-09-11 18:55:48.300,0.158955458895,-0.155115179535,-0.89999367308,-0.262399703264,0.0144230276346,0.022362915799,-2.65760215,0.7256921,7.87473995,0.0,-14.3111686707,13.290845871,-7.16463327408,-0.0739471316338,-0.0073140123859,-0.131621718407,10.7199993134,-412.712097168,-147.608062744,3.2749519348000007,-0.08339309690000007,-11.52402091022,2.5637693405000004,14.252259254499997,-7.333777904509998,16.0
2018-09-11 18:55:48.350,0.158955458895,-0.155115179535,-0.89999367308,-0.262399703264,0.0144230276346,0.022362915799,-2.65760215,0.7256921,7.87473995,0.0,-14.3111686707,13.290845871,-7.16463327408,-0.0739471316338,-0.0073140123859,-0.131621718407,11.4299993515,-412.712097168,-146.171005249,2.8713035582999993,2.6232166290000016,-7.59363579749,2.5100536346,14.245517730699996,-7.463974952699998,16.0
2018-09-11 18:55:48.400,0.158955458895,-0.155115179535,-0.89999367308,-0.262399703264,0.0144230276346,0.022362915799,-2.65760215,0.7256921,7.87473995,0.0,-14.2459135056,13.5062532425,-7.49175977707,-0.262399703264,0.0144230276346,0.022362915799,11.4299993515,-412.712097168,-146.171005249,2.8713035582999993,2.6232166290000016,-7.59363579749,2.4566192627000003,14.246899604799996,-7.523802757259999,16.0
2018-09-11 18:55:48.450,0.158955458895,-0.155115179535,-0.89999367308,-0.262399703264,0.0144230276346,0.022362915799,-2.65760215,0.7256921,7.87473995,0.0,-14.2459135056,13.5062532425,-7.49175977707,-0.262399703264,0.0144230276346,0.022362915799,12.1399993896,-432.711975098,-144.759338379,2.8713035582999993,4.983215332,-7.833635807030001,2.4279422759999996,14.245680808999996,-7.568191051479999,16.0
2018-09-11 18:55:48.500,0.158955458895,-0.155115179535,-0.89999367308,-0.262399703264,0.0144230276346,0.022362915799,-2.65760215,0.7256921,7.87473995,0.0,-14.2459135056,13.5062532425,-7.49175977707,-0.262399703264,0.0144230276346,0.022362915799,12.1399993896,-432.711975098,-144.759338379,2.8713035582999993,4.983215332,-7.833635807030001,2.4090824127,14.248800277699996,-7.582476615909998,16.0
2018-09-11 18:55:48.550,0.158955458895,-0.155115179535,-0.89999367308,-0.262399703264,0.0144230276346,0.022362915799,-2.65760215,0.7256921,7.87473995,0.0,-14.2459135056,13.5062532425,-7.49175977707,-0.262399703264,0.0144230276346,0.022362915799,12.8699998856,-432.711975098,-143.330657959,2.8713035582999993,7.323215484599999,-8.12363588809,2.339427948000001,14.268372535699996,-7.584699153899998,16.0
2018-09-11 18:55:48.600,0.158955458895,-0.155115179535,-0.89999367308,-0.262399703264,0.0144230276346,0.022362915799,-2.65760215,0.7256921,7.87473995,0.0,-14.2989807129,13.7014513016,-7.5824174881,-0.262399703264,0.0144230276346,0.022362915799,12.8699998856,-432.711975098,-143.330657959,2.8713035582999993,7.323215484599999,-8.12363588809,2.3135480880999992,14.289510726899996,-7.583398818969998,16.0
2018-09-11 18:55:48.650,0.170194750415,-0.117464802365,-0.902151631076,-0.0734856724739,-0.0452703796327,-0.101581938565,-2.745862,0.8237586,9.6889702,0.0,-14.2989807129,13.7014513016,-7.5824174881,-0.262399703264,0.0144230276346,0.022362915799,13.6099996567,-437.740722656,-141.902084351,2.8713035582999993,9.6332159042,-8.253635883320001,2.2706718445000007,14.306963920599996,-7.646957397459998,16.0
2018-09-11 18:55:48.700,0.170194750415,-0.117464802365,-0.902151631076,-0.0734856724739,-0.0452703796327,-0.101581938565,-2.745862,0.8237586,9.6889702,0.0,-14.2989807129,13.7014513016,-7.5824174881,-0.262399703264,0.0144230276346,0.022362915799,14.3499994278,-437.740722656,-140.473480225,1.5372962952000009,9.2204504013,-3.3899414539299997,2.2630462646,14.306194305399996,-7.706438541409998,16.0
2018-09-11 18:55:48.750,0.170194750415,-0.117464802365,-0.902151631076,-0.0734856724739,-0.0452703796327,-0.101581938565,-2.745862,0.8237586,9.6889702,0.0,-14.2989807129,13.7014513016,-7.5824174881,-0.262399703264,0.0144230276346,0.022362915799,14.3499994278,-437.740722656,-140.473480225,1.5372962952000009,9.2204504013,-3.3899414539299997,2.2630462646,14.306194305399996,-7.706438541409998,16.0
2018-09-11 18:55:48.800,0.170194750415,-0.117464802365,-0.902151631076,-0.0734856724739,-0.0452703796327,-0.101581938565,-2.745862,0.8237586,9.6889702,0.0,-14.2989807129,13.7014513016,-7.5824174881,-0.262399703264,0.0144230276346,0.022362915799,14.3499994278,-437.740722656,-140.473480225,1.5372962952000009,11.6304502487,-3.47994148731,2.2223377228000007,14.312341690099997,-7.785626411439998,16.0
2018-09-11 18:55:48.850,0.170194750415,-0.117464802365,-0.902151631076,-0.0734856724739,-0.0452703796327,-0.101581938565,-2.745862,0.8237586,9.6889702,0.0,-14.2989807129,13.7014513016,-7.5824174881,-0.262399703264,0.0144230276346,0.022362915799,15.1099996567,-457.080657959,-139.036468506,1.5372962952000009,14.04045009615,-3.61994147301,2.1735954285000005,14.314275741599996,-7.8606181144699985,16.0
2018-09-11 18:55:48.900,0.170194750415,-0.117464802365,-0.902151631076,-0.0734856724739,-0.0452703796327,-0.101581938565,-2.745862,0.8237586,9.6889702,0.0,-14.3204851151,13.8378543854,-7.86399126053,-0.0734856724739,-0.0452703796327,-0.101581938565,15.1099996567,-457.080657959,-139.036468506,1.5372962952000009,14.04045009615,-3.61994147301,2.1526422500999995,14.334630012499996,-7.858758449549998,16.0
2018-09-11 18:55:48.950,0.170194750415,-0.117464802365,-0.902151631076,-0.0734856724739,-0.0452703796327,-0.101581938565,-2.745862,0.8237586,9.6889702,0.0,-14.3204851151,13.8378543854,-7.86399126053,-0.0734856724739,-0.0452703796327,-0.101581938565,15.8800001144,-457.080657959,-137.5909729,1.5372962952000009,16.4504504204,-3.73994147778,2.1193466187,14.358720779399997,-7.8347754478499985,16.0
2018-09-11 18:55:49.000,0.170194750415,-0.117464802365,-0.902151631076,-0.0734856724739,-0.0452703796327,-0.101581938565,-2.745862,0.8237586,9.6889702,0.0,-14.3204851151,13.8378543854,-7.86399126053,-0.0734856724739,-0.0452703796327,-0.101581938565,15.8800001144,-457.080657959,-137.5909729,1.5372962952000009,16.4504504204,-3.72994148731,2.0134859085,14.431558608999996,-7.640183448789998,16.0
2018-09-11 18:55:49.050,0.152370176483,-0.0934251649684,-0.904590651362,0.182389065623,-0.199546083808,0.00544054387137,-2.57914895,0.12748645,13.0232312,0.0,-14.3204851151,13.8378543854,-7.86399126053,-0.0734856724739,-0.0452703796327,-0.101581938565,16.6599998474,-427.264770508,-136.14541626,1.5372962952000009,18.72044992449,-3.83994138241,1.9761629104999994,14.446571350099996,-7.591238975519998,16.0
2018-09-11 18:55:49.100,0.152370176483,-0.0934251649684,-0.904590651362,0.182389065623,-0.199546083808,0.00544054387137,-2.57914895,0.12748645,13.0232312,0.0,-14.5074071884,14.1215810776,-7.39659261703,0.182389065623,-0.199546083808,0.00544054387137,16.6599998474,-427.264770508,-136.14541626,0.23671340939999652,15.753616809890001,-1.76379501819,1.9198474884000003,14.488217353799996,-7.459896087649998,16.0
2018-09-11 18:55:49.150,0.152370176483,-0.0934251649684,-0.904590651362,0.182389065623,-0.199546083808,0.00544054387137,-2.57914895,0.12748645,13.0232312,0.0,-14.5074071884,14.1215810776,-7.39659261703,0.182389065623,-0.199546083808,0.00544054387137,17.3999996185,-427.264770508,-134.691482544,0.23671340939999652,17.82361698155,-1.99379503727,1.7016439438000006,14.625310897799997,-6.971652030939998,16.0
2018-09-11 18:55:49.200,0.152370176483,-0.0934251649684,-0.904590651362,0.182389065623,-0.199546083808,0.00544054387137,-2.57914895,0.12748645,13.0232312,0.0,-14.5074071884,14.1215810776,-7.39659261703,0.182389065623,-0.199546083808,0.00544054387137,17.3999996185,-427.264770508,-134.691482544,0.23671340939999652,17.82361698155,-1.99379503727,1.7016439438000006,14.625310897799997,-6.971652030939998,16.0
2018-09-11 18:55:49.250,0.152370176483,-0.0934251649684,-0.904590651362,0.182389065623,-0.199546083808,0.00544054387137,-2.57914895,0.12748645,13.0232312,0.0,-14.5074071884,14.1215810776,-7.39659261703,0.182389065623,-0.199546083808,0.00544054387137,17.3999996185,-427.264770508,-134.691482544,0.23671340939999652,17.82361698155,-1.99379503727,1.7016439438000006,14.625310897799997,-6.971652030939998,16.0
2018-09-11 18:55:49.300,0.152370176483,-0.0934251649684,-0.904590651362,0.182389065623,-0.199546083808,0.00544054387137,-2.57914895,0.12748645,13.0232312,0.0,-14.5074071884,14.1215810776,-7.39659261703,0.182389065623,-0.199546083808,0.00544054387137,18.7600002289,-446.945556641,-131.741287231,0.23671340939999652,21.203616917174,-2.493795037268,1.3790311813000002,14.849817275999996,-6.0420083999599985,16.0
2018-09-11 18:55:49.350,0.152370176483,-0.0934251649684,-0.904590651362,0.182389065623,-0.199546083808,0.00544054387137,-2.57914895,0.12748645,13.0232312,0.0,-14.8863887787,14.6594352722,-5.91940069199,0.182389065623,-0.199546083808,0.00544054387137,18.7600002289,-446.945556641,-131.741287231,0.23671340939999652,21.203616917174,-2.493795037268,1.3790311813000002,14.849817275999996,-6.0420083999599985,16.0
2018-09-11 18:55:49.400,0.11141236306,-0.0781791923989,-0.913769297657,-0.178435772657,-0.300178259611,0.0558084137738,-1.81423025,0.50013915,16.30845895,0.0,-14.8863887787,14.6594352722,-5.91940069199,0.182389065623,-0.199546083808,0.00544054387137,18.7600002289,-446.945556641,-131.741287231,0.23671340939999652,21.203616917174,-2.493795037268,1.2657880783,14.962998390199996,-5.613003253939998,16.0
2018-09-11 18:55:49.450,0.11141236306,-0.0781791923989,-0.913769297657,-0.178435772657,-0.300178259611,0.0558084137738,-1.81423025,0.50013915,16.30845895,0.0,-14.8863887787,14.6594352722,-5.91940069199,0.182389065623,-0.199546083808,0.00544054387137,19.3199996948,-490.943145752,-130.236618042,1.003963470499997,17.43530273441,-2.802442908292,1.1349887848000009,15.133491516099996,-5.018137931819998,16.0
2018-09-11 18:55:49.500,0.11141236306,-0.0781791923989,-0.913769297657,-0.178435772657,-0.300178259611,0.0558084137738,-1.81423025,0.50013915,16.30845895,0.0,-14.8863887787,14.6594352722,-5.91940069199,0.182389065623,-0.199546083808,0.00544054387137,19.3199996948,-490.943145752,-130.236618042,1.003963470499997,17.43530273441,-2.802442908292,1.1349887848000009,15.133491516099996,-5.018137931819998,16.0
2018-09-11 18:55:49.550,0.11141236306,-0.0781791923989,-0.913769297657,-0.178435772657,-0.300178259611,0.0558084137738,-1.81423025,0.50013915,16.30845895,0.0,-14.8863887787,14.6594352722,-5.91940069199,0.182389065623,-0.199546083808,0.00544054387137,19.8199996948,-490.943145752,-128.715057373,1.003963470499997,18.60530281071,-2.622442960744,1.0407161712999997,15.276251792899997,-4.526258468629998,16.0
2018-09-11 18:55:49.600,0.11141236306,-0.0781791923989,-0.913769297657,-0.178435772657,-0.300178259611,0.0558084137738,-1.81423025,0.50013915,16.30845895,0.0,-15.3527231216,14.9935216904,-4.2736287117,-0.178435772657,-0.300178259611,0.0558084137738,20.2399997711,-560.038574219,-127.176597595,1.003963470499997,19.65530300144,-2.20244288445,0.9788007735999997,15.446036338799997,-4.018241405489999,16.0
2018-09-11 18:55:49.650,0.11141236306,-0.0781791923989,-0.913769297657,-0.178435772657,-0.300178259611,0.0558084137738,-1.81423025,0.50013915,16.30845895,0.0,-15.3527231216,14.9935216904,-4.2736287117,-0.178435772657,-0.300178259611,0.0558084137738,20.2399997711,-560.038574219,-127.176597595,1.003963470499997,19.65530300144,-2.20244288445,0.9570140839000008,15.521861076399997,-3.807278394699998,16.0
2018-09-11 18:55:49.700,0.11141236306,-0.0781791923989,-0.913769297657,-0.178435772657,-0.300178259611,0.0558084137738,-1.81423025,0.50013915,16.30845895,0.0,-15.3527231216,14.9935216904,-4.2736287117,-0.178435772657,-0.300178259611,0.0558084137738,20.609998703,-560.038574219,-125.58732605,1.003963470499997,20.66530275349,-1.6524429321299998,0.9570140839000008,15.521861076399997,-3.807278394699998,16.0
2018-09-11 18:55:49.750,0.11141236306,-0.0781791923989,-0.913769297657,-0.178435772657,-0.300178259611,0.0558084137738,-1.81423025,0.50013915,16.30845895,0.0,-15.3527231216,14.9935216904,-4.2736287117,-0.178435772657,-0.300178259611,0.0558084137738,20.609998703,-560.038574219,-125.58732605,1.003963470499997,20.66530275349,-1.6424429416699997,0.9677858353000008,15.709321021999996,-3.395434617999998,16.0
2018-09-11 18:55:49.800,0.0823234860796,-0.00520109053622,-0.920957027345,-0.214733317494,-0.279800534248,-0.0345606952906,-0.89240515,0.588399,14.50403535,0.0,-15.3527231216,14.9935216904,-4.2736287117,-0.178435772657,-0.300178259611,0.0558084137738,20.609998703,-560.038574219,-125.58732605,1.003963470499997,20.66530275349,-1.6424429416699997,0.9677858353000008,15.709321021999996,-3.395434617999998,16.0
2018-09-11 18:55:49.850,0.0823234860796,-0.00520109053622,-0.920957027345,-0.214733317494,-0.279800534248,-0.0345606952906,-0.89240515,0.588399,14.50403535,0.0,-15.870806694,15.0079212189,-2.92037391663,-0.214733317494,-0.279800534248,-0.0345606952906,20.9399986267,-597.321105957,-123.989692688,0.8265953064000016,15.321264266970001,5.54274177552,0.9846563339000003,15.834010124199997,-3.043843269349998,16.0
2018-09-11 18:55:49.900,0.0823234860796,-0.00520109053622,-0.920957027345,-0.214733317494,-0.279800534248,-0.0345606952906,-0.89240515,0.588399,14.50403535,0.0,-15.870806694,15.0079212189,-2.92037391663,-0.214733317494,-0.279800534248,-0.0345606952906,20.9399986267,-597.321105957,-123.989692688,0.8265953064000016,15.321264266970001,5.54274177552,1.0095481873,15.952145576499996,-2.651015758509998,16.0
2018-09-11 18:55:49.950,0.0823234860796,-0.00520109053622,-0.920957027345,-0.214733317494,-0.279800534248,-0.0345606952906,-0.89240515,0.588399,14.50403535,0.0,-15.870806694,15.0079212189,-2.92037391663,-0.214733317494,-0.279800534248,-0.0345606952906,21.2299995422,-597.321105957,-122.375160217,0.8265953064000016,16.07126426697,6.3727416992200006,1.0440979004000006,16.083745956399998,-2.201552867889998,16.0
2018-09-11 18:55:50.000,0.0823234860796,-0.00520109053622,-0.920957027345,-0.214733317494,-0.279800534248,-0.0345606952906,-0.89240515,0.588399,14.50403535,0.0,-15.870806694,15.0079212189,-2.92037391663,-0.214733317494,-0.279800534248,-0.0345606952906,21.2299995422,-597.321105957,-122.375160217,0.8265953064000016,16.07126426697,6.3727416992200006,1.0440979004000006,16.083745956399998,-2.201552867889998,16.0
2018-09-11 18:55:50.050,0.0823234860796,-0.00520109053622,-0.920957027345,-0.214733317494,-0.279800534248,-0.0345606952906,-0.89240515,0.588399,14.50403535,0.0,-16.2494029999,14.879650116,-1.43245148659,-0.214733317494,-0.279800534248,-0.0345606952906,21.4599990845,-623.502319336,-120.735229492,0.8265953064000016,16.52126407623,7.3727416992200006,1.1203498839999995,16.249402999899996,-1.432451486589998,16.0
2018-09-11 18:55:50.100,0.0823234860796,-0.00520109053622,-0.920957027345,-0.214733317494,-0.279800534248,-0.0345606952906,-0.89240515,0.588399,14.50403535,0.0,-16.2494029999,14.879650116,-1.43245148659,-0.214733317494,-0.279800534248,-0.0345606952906,21.4599990845,-623.502319336,-120.735229492,0.8265953064000016,16.52126407623,7.3727416992200006,1.1203498839999995,16.249402999899996,-1.432451486589998,16.0
2018-09-11 18:55:50.150,0.0823234860796,-0.00520109053622,-0.920957027345,-0.214733317494,-0.279800534248,-0.0345606952906,-0.89240515,0.588399,14.50403535,0.0,-16.2494029999,14.879650116,-1.43245148659,-0.214733317494,-0.279800534248,-0.0345606952906,21.6199989319,-623.502319336,-119.086883545,0.8265953064000016,16.86126422882,8.20274162293,1.2217950820999999,16.362180709799997,-0.892108201980998,16.0
2018-09-11 18:55:50.200,0.0823234860796,-0.00520109053622,-0.920957027345,-0.214733317494,-0.279800534248,-0.0345606952906,-0.89240515,0.588399,14.50403535,0.0,-16.2494029999,14.879650116,-1.43245148659,-0.214733317494,-0.279800534248,-0.0345606952906,21.6199989319,-623.502319336,-119.086883545,0.8265953064000016,16.86126422882,8.20274162293,1.2217950820999999,16.362180709799997,-0.892108201980998,16.0
2018-09-11 18:55:50.250,0.0243292343114,0.0107658048511,-0.926188973437,0.128709971905,-0.226186946034,0.0437851734459,-0.40207265,0.196133,14.44519545,0.0,-16.2494029999,14.879650116,-1.43245148659,-0.214733317494,-0.279800534248,-0.0345606952906,21.7199993134,-647.602478027,-117.421546936,0.8265953064000016,17.2212638855,8.962741374970001,1.2893667221000005,16.412220001199998,-0.619111537932998,16.0
2018-09-11 18:55:50.300,0.0243292343114,0.0107658048511,-0.926188973437,0.128709971905,-0.226186946034,0.0437851734459,-0.40207265,0.196133,14.44519545,0.0,-16.2494029999,14.879650116,-1.43245148659,-0.214733317494,-0.279800534248,-0.0345606952906,21.7199993134,-647.602478027,-117.421546936,1.755878448499999,10.38861966133,8.07324004173,1.3501081467000002,16.455940246599997,-0.32304117083499806,16.0
2018-09-11 18:55:50.350,0.0243292343114,0.0107658048511,-0.926188973437,0.128709971905,-0.226186946034,0.0437851734459,-0.40207265,0.196133,14.44519545,0.0,-16.4906787872,14.6142234802,-0.114932321012,0.128709971905,-0.226186946034,0.0437851734459,21.7799987793,-647.602478027,-115.747833252,1.755878448499999,10.59861969948,8.70324015617,1.3857765198000003,16.490678787199997,-0.11493232101199805,16.0
2018-09-11 18:55:50.400,0.0243292343114,0.0107658048511,-0.926188973437,0.128709971905,-0.226186946034,0.0437851734459,-0.40207265,0.196133,14.44519545,0.0,-16.4906787872,14.6142234802,-0.114932321012,0.128709971905,-0.226186946034,0.0437851734459,21.7799987793,-647.602478027,-115.747833252,1.755878448499999,10.59861969948,8.70324015617,1.507481575,16.551462173499996,0.4046423435210019,16.0
2018-09-11 18:55:50.450,0.0243292343114,0.0107658048511,-0.926188973437,0.128709971905,-0.226186946034,0.0437851734459,-0.40207265,0.196133,14.44519545,0.0,-16.4906787872,14.6142234802,-0.114932321012,0.128709971905,-0.226186946034,0.0437851734459,21.7899990082,-644.085144043,-114.074127197,1.755878448499999,10.59861969948,9.49324011803,1.5626649856999997,16.571506500199998,0.687514543533002,16.0
2018-09-11 18:55:50.500,0.0243292343114,0.0107658048511,-0.926188973437,0.128709971905,-0.226186946034,0.0437851734459,-0.40207265,0.196133,14.44519545,0.0,-16.4906787872,14.6142234802,-0.114932321012,0.128709971905,-0.226186946034,0.0437851734459,21.7399997711,-644.085144043,-112.408859253,1.755878448499999,10.38861966133,10.01324009895,1.5816316604999994,16.573463439899996,0.828182339668002,16.0
2018-09-11 18:55:50.550,0.0243292343114,0.0107658048511,-0.926188973437,0.128709971905,-0.226186946034,0.0437851734459,-0.40207265,0.196133,14.44519545,0.0,-16.5794353485,14.3066339493,1.46634364128,0.128709971905,-0.226186946034,0.0437851734459,21.7399997711,-644.085144043,-112.408859253,1.755878448499999,10.38861966133,10.01324009895,1.6933660507,16.579435348499995,1.466343641280002,16.0
2018-09-11 18:55:50.600,0.0243292343114,0.0107658048511,-0.926188973437,0.128709971905,-0.226186946034,0.0437851734459,-0.40207265,0.196133,14.44519545,0.0,-16.5794353485,14.3066339493,1.46634364128,0.128709971905,-0.226186946034,0.0437851734459,21.7399997711,-644.085144043,-112.408859253,1.755878448499999,10.38861966133,10.01324009895,1.7565460205,16.576049804699995,1.682374358180002,16.0
2018-09-11 18:55:50.650,-0.0277420394486,0.000474179002786,-0.929419529533,0.0696687698364,-0.169086247683,0.0493008233607,-0.0392266,0.5295591,14.91591465,0.0,-16.5794353485,14.3066339493,1.46634364128,0.128709971905,-0.226186946034,0.0437851734459,21.6199989319,-624.442260742,-110.718238831,1.755878448499999,10.068619966510001,10.4732401371,1.7975502014,16.558931350699996,1.893933892250002,16.0
2018-09-11 18:55:50.700,-0.0277420394486,0.000474179002786,-0.929419529533,0.0696687698364,-0.169086247683,0.0493008233607,-0.0392266,0.5295591,14.91591465,0.0,-16.5794353485,14.3066339493,1.46634364128,0.128709971905,-0.226186946034,0.0437851734459,21.6199989319,-624.442260742,-110.718238831,2.7711944579999965,4.9740390777600005,7.1591078043,1.8418464660999998,16.545539855999998,2.126301288600002,16.0
2018-09-11 18:55:50.750,-0.0277420394486,0.000474179002786,-0.929419529533,0.0696687698364,-0.169086247683,0.0493008233607,-0.0392266,0.5295591,14.91591465,0.0,-16.5794353485,14.3066339493,1.46634364128,0.128709971905,-0.226186946034,0.0437851734459,21.4699993134,-624.442260742,-109.052909851,2.7711944579999965,4.59403896331,7.389108300209999,1.9324150084999996,16.516851425199995,2.438264846800002,16.0
2018-09-11 18:55:50.800,-0.0277420394486,0.000474179002786,-0.929419529533,0.0696687698364,-0.169086247683,0.0493008233607,-0.0392266,0.5295591,14.91591465,0.0,-16.5794353485,14.3066339493,1.46634364128,0.128709971905,-0.226186946034,0.0437851734459,21.4699993134,-624.442260742,-109.052909851,2.7711944579999965,4.59403896331,7.389108300209999,1.9324150084999996,16.516851425199995,2.438264846800002,16.0
2018-09-11 18:55:50.850,-0.0277420394486,0.000474179002786,-0.929419529533,0.0696687698364,-0.169086247683,0.0493008233607,-0.0392266,0.5295591,14.91591465,0.0,-16.4638137817,13.9691925049,2.76052427292,0.0696687698364,-0.169086247683,0.0493008233607,21.25,-601.126464844,-107.370758057,2.7711944579999965,4.1040391922,7.689107537270001,2.0817499160999997,16.437370300299996,2.883250474930002,16.0
2018-09-11 18:55:50.900,-0.0277420394486,0.000474179002786,-0.929419529533,0.0696687698364,-0.169086247683,0.0493008233607,-0.0392266,0.5295591,14.91591465,0.0,-16.4638137817,13.9691925049,2.76052427292,0.0696687698364,-0.169086247683,0.0493008233607,21.25,-601.126464844,-107.370758057,2.7711944579999965,4.1040391922,7.67910826206,2.1078090668,16.420095443699996,2.933452367780002,16.0
2018-09-11 18:55:50.950,-0.0277420394486,0.000474179002786,-0.929419529533,0.0696687698364,-0.169086247683,0.0493008233607,-0.0392266,0.5295591,14.91591465,0.0,-16.4638137817,13.9691925049,2.76052427292,0.0696687698364,-0.169086247683,0.0493008233607,21.0100002289,-601.126464844,-105.713951111,2.7711944579999965,3.6340389251700005,7.87910807133,2.1853275299000003,16.36919735001979,3.091340541840002,16.0
2018-09-11 18:55:51.000,-0.0277420394486,0.000474179002786,-0.929419529533,0.0696687698364,-0.169086247683,0.0493008233607,-0.0392266,0.5295591,14.91591465,0.0,-16.4638137817,13.9691925049,2.76052427292,0.0696687698364,-0.169086247683,0.0493008233607,21.0100002289,-601.126464844,-105.713951111,2.7711944579999965,3.6340389251700005,7.869107842450001,2.2241268158,16.31759403271979,3.1902823448200017,16.0
2018-09-11 18:55:51.050,-0.0277420394486,0.000474179002786,-0.929419529533,0.0696687698364,-0.169086247683,0.0493008233607,-0.0392266,0.5295591,14.91591465,0.0,-16.2528266907,13.7202072144,3.28188300133,0.0696687698364,-0.169086247683,0.0493008233607,20.7399997711,-576.547607422,-104.084182739,2.7711944579999965,3.1340389251700005,7.889108300209999,2.2797927855999998,16.25417469071979,3.281883001330002,16.0
2018-09-11 18:55:51.100,-0.0584631777463,-0.0087798740509,-0.929003928023,0.107256688178,-0.117491714656,-0.00220311200246,-0.0196133,0.4314926,11.76798,0.0,-16.2528266907,13.7202072144,3.28188300133,0.0696687698364,-0.169086247683,0.0493008233607,20.7399997711,-576.547607422,-104.084182739,2.8926239014000004,0.24354362488000003,5.608124494549999,2.343871116600001,16.17425106091979,3.4197947979000016,16.0
2018-09-11 18:55:51.150,-0.0584631777463,-0.0087798740509,-0.929003928023,0.107256688178,-0.117491714656,-0.00220311200246,-0.0196133,0.4314926,11.76798,0.0,-16.2528266907,13.7202072144,3.28188300133,0.0696687698364,-0.169086247683,0.0493008233607,20.4499988556,-576.547607422,-102.435745239,2.8926239014000004,-0.2964563369800004,5.4981238842,2.436730384799999,16.125715062065,3.552136898040002,16.0
2018-09-11 18:55:51.200,-0.0584631777463,-0.0087798740509,-0.929003928023,0.107256688178,-0.117491714656,-0.00220311200246,-0.0196133,0.4314926,11.76798,0.0,-16.2528266907,13.7202072144,3.28188300133,0.0696687698364,-0.169086247683,0.0493008233607,20.1499996185,-557.691589355,-100.933830261,2.8926239014000004,-0.8464560508700005,5.7981240749400005,2.436730384799999,16.125715062065,3.552136898040002,16.0
2018-09-11 18:55:51.250,-0.0584631777463,-0.0087798740509,-0.929003928023,0.107256688178,-0.117491714656,-0.00220311200246,-0.0196133,0.4314926,11.76798,0.0,-16.2528266907,13.7202072144,3.28188300133,0.0696687698364,-0.169086247683,0.0493008233607,20.1499996185,-557.691589355,-100.933830261,2.8926239014000004,-0.8464560508700005,5.7981240749400005,2.436730384799999,16.125715062065,3.552136898040002,16.0
2018-09-11 18:55:51.300,-0.0584631777463,-0.0087798740509,-0.929003928023,0.107256688178,-0.117491714656,-0.00220311200246,-0.0196133,0.4314926,11.76798,0.0,-15.8835201263,13.4150972366,3.92477941513,0.107256688178,-0.117491714656,-0.00220311200246,20.1499996185,-557.691589355,-100.933830261,2.8926239014000004,-0.8464560508700005,5.7981240749400005,2.5611782073999994,15.974813267565,3.8705911636400017,16.0
2018-09-11 18:55:51.350,-0.0584631777463,-0.0087798740509,-0.929003928023,0.107256688178,-0.117491714656,-0.00220311200246,-0.0196133,0.4314926,11.76798,0.0,-15.8835201263,13.4150972366,3.92477941513,0.107256688178,-0.117491714656,-0.00220311200246,19.8299999237,-557.691589355,-99.3311691284,2.8926239014000004,-1.6064562797600006,5.7081239223499995,2.6498212813999995,15.850796505765,4.061302661900002,16.0
2018-09-11 18:55:51.400,-0.0584631777463,-0.0087798740509,-0.929003928023,0.107256688178,-0.117491714656,-0.00220311200246,-0.0196133,0.4314926,11.76798,0.0,-15.8835201263,13.4150972366,3.92477941513,0.107256688178,-0.117491714656,-0.00220311200246,19.4899997711,-528.025634766,-97.994178772,2.8926239014000004,-1.6064562797600006,5.7081239223499995,2.6498212813999995,15.850796505765,4.061302661900002,16.0
2018-09-11 18:55:51.450,-0.0721166816007,-0.0131242270768,-0.929328582589,0.15255112946,-0.030119009316,-0.00264142872766,-0.1569064,0.28439285,11.6895268,0.0,-15.8835201263,13.4150972366,3.92477941513,0.107256688178,-0.117491714656,-0.00220311200246,19.4899997711,-528.025634766,-97.994178772,3.168590545699999,-3.6142349243200003,5.40275001526,2.756066322299999,15.824560552787,4.203161239620002,16.0
2018-09-11 18:55:51.500,-0.0721166816007,-0.0131242270768,-0.929328582589,0.15255112946,-0.030119009316,-0.00264142872766,-0.1569064,0.28439285,11.6895268,0.0,-15.5321512222,13.1775608063,4.27483844757,0.15255112946,-0.030119009316,-0.00264142872766,19.4899997711,-528.025634766,-97.994178772,3.168590545699999,-3.6142349243200003,5.40275001526,2.7979822158999994,15.763368040287,4.2508335113500015,16.0
2018-09-11 18:55:51.550,-0.0721166816007,-0.0131242270768,-0.929328582589,0.15255112946,-0.030119009316,-0.00264142872766,-0.1569064,0.28439285,11.6895268,0.0,-15.5321512222,13.1775608063,4.27483844757,0.15255112946,-0.030119009316,-0.00264142872766,19.4899997711,-528.025634766,-97.994178772,3.168590545699999,-3.6142349243200003,5.40275001526,2.7979822158999994,15.763368040287,4.2508335113500015,16.0
2018-09-11 18:55:51.600,-0.0721166816007,-0.0131242270768,-0.929328582589,0.15255112946,-0.030119009316,-0.00264142872766,-0.1569064,0.28439285,11.6895268,0.0,-15.5321512222,13.1775608063,4.27483844757,0.15255112946,-0.030119009316,-0.00264142872766,19.1499996185,-528.025634766,-96.4911804199,3.168590545699999,-4.28423500061,5.17274951935,2.8880052566999996,15.629003912187,4.298576354980002,16.0
2018-09-11 18:55:51.650,-0.0721166816007,-0.0131242270768,-0.929328582589,0.15255112946,-0.030119009316,-0.00264142872766,-0.1569064,0.28439285,11.6895268,0.0,-15.5321512222,13.1775608063,4.27483844757,0.15255112946,-0.030119009316,-0.00264142872766,18.7799987793,-486.560424805,-94.9624176025,3.168590545699999,-4.98423504829,4.9727497100799996,2.9668493270999985,15.507989317187,4.242628097530002,16.0
2018-09-11 18:55:51.700,-0.0721166816007,-0.0131242270768,-0.929328582589,0.15255112946,-0.030119009316,-0.00264142872766,-0.1569064,0.28439285,11.6895268,0.0,-15.5321512222,13.1775608063,4.27483844757,0.15255112946,-0.030119009316,-0.00264142872766,18.4099998474,-486.560424805,-93.4166107178,3.168590545699999,-5.6342349052400005,4.702750205989999,3.014425277699999,15.405777364987001,4.183731079100002,16.0
2018-09-11 18:55:51.750,-0.0721166816007,-0.0131242270768,-0.929328582589,0.15255112946,-0.030119009316,-0.00264142872766,-0.1569064,0.28439285,11.6895268,0.0,-15.5321512222,13.1775608063,4.27483844757,0.15255112946,-0.030119009316,-0.00264142872766,18.4099998474,-486.560424805,-93.4166107178,3.168590545699999,-5.6342349052400005,4.702750205989999,3.014425277699999,15.405777364987001,4.183731079100002,16.0
2018-09-11 18:55:51.800,-0.0721166816007,-0.0131242270768,-0.929328582589,0.15255112946,-0.030119009316,-0.00264142872766,-0.1569064,0.28439285,11.6895268,0.0,-15.1331396103,12.9249801636,4.02454423904,0.15255112946,-0.030119009316,-0.00264142872766,18.4099998474,-486.560424805,-93.4166107178,3.168590545699999,-5.6342349052400005,4.702750205989999,3.014425277699999,15.405777364987001,4.183731079100002,16.0
2018-09-11 18:55:51.850,-0.0721166816007,-0.0131242270768,-0.929328582589,0.15255112946,-0.030119009316,-0.00264142872766,-0.1569064,0.28439285,11.6895268,0.0,-15.1331396103,12.9249801636,4.02454423904,0.15255112946,-0.030119009316,-0.00264142872766,18.0599994659,-451.30557251,-91.8877182007,3.168590545699999,-6.15423488617,4.5527496337899995,3.104672431899999,15.271008878987,3.972810983660002,16.0
2018-09-11 18:55:51.900,-0.0749715533111,-0.0295184585845,-0.927072675454,-0.0296643152833,0.0346069484949,-0.0742815062404,-0.2941995,0.30400615,9.22805765,0.0,-15.1331396103,12.9249801636,4.02454423904,0.15255112946,-0.030119009316,-0.00264142872766,18.0599994659,-451.30557251,-91.8877182007,3.168590545699999,-6.15423488617,4.5527496337899995,3.1051177978,15.864313900425,3.9418497085600017,16.0
2018-09-11 18:55:51.950,-0.0749715533111,-0.0295184585845,-0.927072675454,-0.0296643152833,0.0346069484949,-0.0742815062404,-0.2941995,0.30400615,9.22805765,0.0,-15.1331396103,12.9249801636,4.02454423904,0.15255112946,-0.030119009316,-0.00264142872766,17.7099990845,-451.30557251,-91.3219146729,5.526107788099999,-6.331699699166,6.3520832061900006,3.1729393005000013,15.751236736725,3.8377737999000017,16.0
2018-09-11 18:55:52.000,-0.0749715533111,-0.0295184585845,-0.927072675454,-0.0296643152833,0.0346069484949,-0.0742815062404,-0.2941995,0.30400615,9.22805765,0.0,-14.8241567612,12.7886447906,3.77984809875,-0.0296643152833,0.0346069484949,-0.0742815062404,17.7099990845,-451.30557251,-91.3219146729,5.526107788099999,-6.331699699166,6.3520832061900006,3.1994009018000007,15.655451595825001,3.751109123230002,16.0
2018-09-11 18:55:52.050,-0.0749715533111,-0.0295184585845,-0.927072675454,-0.0296643152833,0.0346069484949,-0.0742815062404,-0.2941995,0.30400615,9.22805765,0.0,-14.8241567612,12.7886447906,3.77984809875,-0.0296643152833,0.0346069484949,-0.0742815062404,17.3899993896,-426.075378418,-89.7673797607,5.526107788099999,-6.851699694994,6.02208328249,3.2389059067000012,15.576583683525,3.636380195620002,16.0
2018-09-11 18:55:52.100,-0.0749715533111,-0.0295184585845,-0.927072675454,-0.0296643152833,0.0346069484949,-0.0742815062404,-0.2941995,0.30400615,9.22805765,0.0,-14.8241567612,12.7886447906,3.77984809875,-0.0296643152833,0.0346069484949,-0.0742815062404,17.3899993896,-426.075378418,-89.7673797607,5.526107788099999,-6.851699694994,6.02208328249,3.2290363311999997,15.81183385848,3.600337505340002,16.0
