%time,field.orientation.x,field.orientation.y,field.orientation.z,field.angular_velocity.x,field.angular_velocity.y,field.angular_velocity.z,field.linear_acceleration.x,field.linear_acceleration.y,field.linear_acceleration.z,field.data,field.twist.linear.x,field.twist.linear.y,field.twist.linear.z,field.twist.angular.x,field.twist.angular.y,field.twist.angular.z,field.alt_error,field.aspd_error,field.xtrack_error,delta_yaw,delta_pitch,delta_roll,delta_x,delta_y,delta_z,delta_roll_airspeed
2018-09-11 22:02:38.000,,,,,,,,,,0.0,-18.0612983704,-0.890971601009,-0.990527272224,-0.023549515754,0.0722070038319,0.0267855431885,0.070000000298,-1987.90112305,-42.6210365295,174.1715927124,0.3956294059700003,-43.53319883349,0.923684537411,18.0704402924,-1.09109759331,15.0
2018-09-11 22:02:38.050,0.0258918690171,0.0117734528556,-0.999473125881,0.072866126895,0.0181859508157,-0.036570392549,-0.12748645,0.1569064,8.18855275,0.0,-18.0612983704,-0.890971601009,-0.990527272224,-0.023549515754,0.0722070038319,0.0267855431885,0.070000000298,-1987.90112305,-42.6210365295,174.1715927124,3.165629357098,25.40680170061,0.944483101368,18.0773296356,-1.13554883003,15.0
2018-09-11 22:02:38.100,0.0258918690171,0.0117734528556,-0.999473125881,0.072866126895,0.0181859508157,-0.036570392549,-0.12748645,0.1569064,8.18855275,0.0,-18.0612983704,-0.890971601009,-0.990527272224,-0.023549515754,0.0722070038319,0.0267855431885,0.070000000298,-1987.90112305,-42.6210365295,174.1715927124,3.165629357098,25.40680170061,16.96511888504,18.084646224999997,-1.183668375019998,15.0
2018-09-11 22:02:38.150,0.0258918690171,0.0117734528556,-0.999473125881,0.072866126895,0.0181859508157,-0.036570392549,-0.12748645,0.1569064,8.18855275,0.0,-18.0926322937,-1.00113654137,-1.2587583065,0.072866126895,0.0181859508157,-0.036570392549,0.189999997616,-487.901123047,-273.019989014,44.1715927124,-0.8443706035599998,46.096802234609996,16.987776935101,18.090225219699995,-1.232589960099998,16.0
2018-09-11 22:02:38.200,0.0258918690171,0.0117734528556,-0.999473125881,0.072866126895,0.0181859508157,-0.036570392549,-0.12748645,0.1569064,8.18855275,0.0,-18.0926322937,-1.00113654137,-1.2587583065,0.072866126895,0.0181859508157,-0.036570392549,0.189999997616,-487.901123047,-273.019989014,44.1715927124,-0.8443706035599998,46.096802234609996,17.03082561493,18.098217010499997,-1.298691987989998,16.0
2018-09-11 22:02:38.250,0.0258918690171,0.0117734528556,-0.999473125881,0.072866126895,0.0181859508157,-0.036570392549,-0.12748645,0.1569064,8.18855275,0.0,-18.0926322937,-1.00113654137,-1.2587583065,0.072866126895,0.0181859508157,-0.036570392549,0.319999992847,-389.194671631,-271.211029053,44.1715927124,-2.53437066078,46.096802234609996,17.05392372608,18.107606887799996,-1.328086853029998,16.0
2018-09-11 22:02:38.300,0.0258918690171,0.0117734528556,-0.999473125881,0.072866126895,0.0181859508157,-0.036570392549,-0.12748645,0.1569064,8.18855275,0.0,-18.0926322937,-1.00113654137,-1.2587583065,0.072866126895,0.0181859508157,-0.036570392549,0.319999992847,-389.194671631,-271.211029053,44.1715927124,-2.53437066078,46.096802234609996,17.05392372608,18.107606887799996,-1.328086853029998,16.0
2018-09-11 22:02:38.350,0.0293200086263,-0.0436678034738,-0.998461421126,1.11373889446,0.0894435048103,-0.0532666817307,-0.1176798,0.02941995,9.42419065,0.0,-18.0926322937,-1.00113654137,-1.2587583065,0.072866126895,0.0181859508157,-0.036570392549,0.459999978542,-389.194671631,-269.402069092,44.1715927124,-3.724370718,46.08680009841,17.02881133556,18.118761062599997,-1.337848901749998,16.0
2018-09-11 22:02:38.400,0.0293200086263,-0.0436678034738,-0.998461421126,1.11373889446,0.0894435048103,-0.0532666817307,-0.1176798,0.02941995,9.42419065,0.0,-18.125711441,-0.998173236847,-1.36381947994,1.11373889446,0.0894435048103,-0.0532666817307,0.599999964237,-395.542327881,-267.584625244,44.134223938000005,-4.18541407585,39.717623710590004,16.919554054737,18.133090972899996,-1.395169258119998,16.0
2018-09-11 22:02:38.450,0.0293200086263,-0.0436678034738,-0.998461421126,1.11373889446,0.0894435048103,-0.0532666817307,-0.1176798,0.02941995,9.42419065,0.0,-18.125711441,-0.998173236847,-1.36381947994,1.11373889446,0.0894435048103,-0.0532666817307,0.599999964237,-395.542327881,-267.584625244,44.134223938000005,-4.18541407585,39.717623710590004,16.919554054737,18.133090972899996,-1.395169258119998,16.0
2018-09-11 22:02:38.500,0.0293200086263,-0.0436678034738,-0.998461421126,1.11373889446,0.0894435048103,-0.0532666817307,-0.1176798,0.02941995,9.42419065,0.0,-18.125711441,-0.998173236847,-1.36381947994,1.11373889446,0.0894435048103,-0.0532666817307,0.599999964237,-395.542327881,-267.584625244,44.134223938000005,-4.145414113999999,39.717623710590004,16.748319268227,18.140399932899996,-1.407725691799998,16.0
2018-09-11 22:02:38.550,0.0293200086263,-0.0436678034738,-0.998461421126,1.11373889446,0.0894435048103,-0.0532666817307,-0.1176798,0.02941995,9.42419065,0.0,-18.125711441,-0.998173236847,-1.36381947994,1.11373889446,0.0894435048103,-0.0532666817307,0.740000009537,-395.542327881,-265.775665283,44.134223938000005,-5.06541466713,39.707625389090005,16.585597395897,18.146142959599995,-1.406865835189998,16.0
2018-09-11 22:02:38.600,0.0293200086263,-0.0436678034738,-0.998461421126,1.11373889446,0.0894435048103,-0.0532666817307,-0.1176798,0.02941995,9.42419065,0.0,-18.125711441,-0.998173236847,-1.36381947994,1.11373889446,0.0894435048103,-0.0532666817307,0.740000009537,-395.542327881,-265.775665283,44.134223938000005,-5.045414209370001,39.697623252890004,16.469667047262,18.144676208499998,-1.418189764019998,16.0
2018-09-11 22:02:38.650,0.0347966518527,-0.187909325817,-0.981307596135,0.627949953079,0.0268062874675,0.00185644999146,-0.40207265,0.57859235,10.002783,0.0,-18.1441669464,-0.413692384958,-1.42559099197,1.11373889446,0.0894435048103,-0.0532666817307,0.870000004768,-396.713623047,-263.958221436,44.134223938000005,-6.005414247520001,39.697623252890004,16.34755179286,18.147277831999997,-1.423692345619998,16.0
2018-09-11 22:02:38.700,0.0347966518527,-0.187909325817,-0.981307596135,0.627949953079,0.0268062874675,0.00185644999146,-0.40207265,0.57859235,10.002783,0.0,-18.1441669464,-0.413692384958,-1.42559099197,1.11373889446,0.0894435048103,-0.0532666817307,0.870000004768,-396.713623047,-263.958221436,44.192535400400004,-5.024284839629999,23.0389900208,16.212119027972,18.142990112299998,-1.427024364469998,16.0
2018-09-11 22:02:38.750,0.0347966518527,-0.187909325817,-0.981307596135,0.627949953079,0.0268062874675,0.00185644999146,-0.40207265,0.57859235,10.002783,0.0,-18.1441669464,-0.413692384958,-1.42559099197,1.11373889446,0.0894435048103,-0.0532666817307,1.01999998093,-396.713623047,-262.140808105,44.192535400400004,-5.9942851066300005,23.0289916992,15.865851327777,18.133232116699997,-1.459343552589998,16.0
2018-09-11 22:02:38.800,0.0347966518527,-0.187909325817,-0.981307596135,0.627949953079,0.0268062874675,0.00185644999146,-0.40207265,0.57859235,10.002783,0.0,-18.1441669464,-0.413692384958,-1.42559099197,1.11373889446,0.0894435048103,-0.0532666817307,1.15999996662,-391.569335938,-260.331817627,44.192535400400004,-7.03428506853,23.018989562999998,15.715180724859,18.122257232699997,-1.477361917499998,16.0
2018-09-11 22:02:38.850,0.0347966518527,-0.187909325817,-0.981307596135,0.627949953079,0.0268062874675,0.00185644999146,-0.40207265,0.57859235,10.002783,0.0,-18.1164474487,0.420078575611,-1.52826273441,0.627949953079,0.0268062874675,0.00185644999146,1.15999996662,-391.569335938,-260.331817627,44.192535400400004,-7.03428506853,23.018989562999998,15.715180724859,18.122257232699997,-1.477361917499998,16.0
2018-09-11 22:02:38.900,0.0347966518527,-0.187909325817,-0.981307596135,0.627949953079,0.0268062874675,0.00185644999146,-0.40207265,0.57859235,10.002783,0.0,-18.1164474487,0.420078575611,-1.52826273441,0.627949953079,0.0268062874675,0.00185644999146,1.15999996662,-391.569335938,-260.331817627,44.192535400400004,-6.9942851066300005,22.988990783699997,15.510859310627,18.108856201199995,-1.556151390079998,16.0
2018-09-11 22:02:38.950,0.0347966518527,-0.187909325817,-0.981307596135,0.627949953079,0.0268062874675,0.00185644999146,-0.40207265,0.57859235,10.002783,0.0,-18.1164474487,0.420078575611,-1.52826273441,0.627949953079,0.0268062874675,0.00185644999146,1.29999995232,-391.569335938,-258.522827148,44.192535400400004,-8.03428506853,22.958992004400002,15.224209964275,18.084838867199995,-1.682736515999998,16.0
2018-09-11 22:02:39.000,0.0427394891975,-0.267613190932,-0.961539745714,0.335546463728,-0.00248571066186,-0.248534157872,-0.7060788,0.95124505,9.09076455,0.0,-18.1164474487,0.420078575611,-1.52826273441,0.627949953079,0.0268062874675,0.00185644999146,1.29999995232,-391.569335938,-258.522827148,44.192535400400004,-8.014285564429999,22.938991546700002,15.06711602211,18.069171905499996,-1.744335651399998,16.0
2018-09-11 22:02:39.050,0.0427394891975,-0.267613190932,-0.961539745714,0.335546463728,-0.00248571066186,-0.248534157872,-0.7060788,0.95124505,9.09076455,0.0,-18.1164474487,0.420078575611,-1.52826273441,0.627949953079,0.0268062874675,0.00185644999146,1.44999992847,-390.605926514,-256.722320557,42.3627700806,-7.40861749649,13.607978820800003,14.91515851021,18.058965682999997,-1.812716364859998,16.0
2018-09-11 22:02:39.100,0.0427394891975,-0.267613190932,-0.961539745714,0.335546463728,-0.00248571066186,-0.248534157872,-0.7060788,0.95124505,9.09076455,0.0,-18.0440406799,1.25065767765,-1.88023853302,0.335546463728,-0.00248571066186,-0.248534157872,1.62000000477,-384.578125,-254.921813965,42.3627700806,-8.478617191289999,13.557975768999999,14.74934232235,18.044040679899997,-1.880238533019998,16.0
2018-09-11 22:02:39.150,0.0427394891975,-0.267613190932,-0.961539745714,0.335546463728,-0.00248571066186,-0.248534157872,-0.7060788,0.95124505,9.09076455,0.0,-18.0440406799,1.25065767765,-1.88023853302,0.335546463728,-0.00248571066186,-0.248534157872,1.62000000477,-384.578125,-254.921813965,42.3627700806,-8.478617191289999,13.557975768999999,14.57711756229,18.026153564499996,-1.944567680359998,16.0
2018-09-11 22:02:39.200,0.0427394891975,-0.267613190932,-0.961539745714,0.335546463728,-0.00248571066186,-0.248534157872,-0.7060788,0.95124505,9.09076455,0.0,-18.0440406799,1.25065767765,-1.88023853302,0.335546463728,-0.00248571066186,-0.248534157872,1.79999995232,-384.578125,-253.138183594,42.3627700806,-9.53861761089,13.477977752600001,14.30369329453,17.995149612399995,-2.0662994384799984,16.0
2018-09-11 22:02:39.250,0.0427394891975,-0.267613190932,-0.961539745714,0.335546463728,-0.00248571066186,-0.248534157872,-0.7060788,0.95124505,9.09076455,0.0,-18.0440406799,1.25065767765,-1.88023853302,0.335546463728,-0.00248571066186,-0.248534157872,1.79999995232,-384.578125,-253.138183594,42.3627700806,-9.51861715319,13.437976837099999,13.94425702095,17.947589874299997,-2.2197289466899983,16.0
2018-09-11 22:02:39.300,0.0427394891975,-0.267613190932,-0.961539745714,0.335546463728,-0.00248571066186,-0.248534157872,-0.7060788,0.95124505,9.09076455,0.0,-18.0440406799,1.25065767765,-1.88023853302,0.335546463728,-0.00248571066186,-0.248534157872,1.79999995232,-384.578125,-253.138183594,42.3627700806,-9.51861715319,13.437976837099999,13.94425702095,17.947589874299997,-2.2197289466899983,16.0
2018-09-11 22:02:39.350,0.0427394891975,-0.267613190932,-0.961539745714,0.335546463728,-0.00248571066186,-0.248534157872,-0.7060788,0.95124505,9.09076455,0.0,-17.8889942169,2.41215419769,-2.42351484299,0.335546463728,-0.00248571066186,-0.248534157872,2.0,-384.578125,-251.346115112,42.3627700806,-10.59861803059,13.367977142300003,13.67465543747,17.907060623199996,-2.3694007396699983,16.0
2018-09-11 22:02:39.400,0.0520341735168,-0.321054401081,-0.939457751657,0.252713829279,0.0766241624951,-0.344492167234,-0.97085835,0.6080123,8.14932615,0.0,-17.8889942169,2.41215419769,-2.42351484299,0.335546463728,-0.00248571066186,-0.248534157872,2.0,-384.578125,-251.346115112,36.11470031739999,-7.044746398910002,7.228317260700003,13.34633111954,17.838224410999995,-2.630540847779998,16.0
2018-09-11 22:02:39.450,0.0520341735168,-0.321054401081,-0.939457751657,0.252713829279,0.0766241624951,-0.344492167234,-0.97085835,0.6080123,8.14932615,0.0,-17.8889942169,2.41215419769,-2.42351484299,0.335546463728,-0.00248571066186,-0.248534157872,2.0,-384.578125,-251.346115112,36.11470031739999,-7.044746398910002,7.228317260700003,13.34633111954,17.838224410999995,-2.630540847779998,16.0
2018-09-11 22:02:39.500,0.0520341735168,-0.321054401081,-0.939457751657,0.252713829279,0.0766241624951,-0.344492167234,-0.97085835,0.6080123,8.14932615,0.0,-17.8889942169,2.41215419769,-2.42351484299,0.335546463728,-0.00248571066186,-0.248534157872,2.23000001907,-387.230102539,-249.57093811,36.11470031739999,-7.994745254509999,6.228317260700003,12.95850586891,17.747217178299998,-3.014001846309998,16.0
2018-09-11 22:02:39.550,0.0520341735168,-0.321054401081,-0.939457751657,0.252713829279,0.0766241624951,-0.344492167234,-0.97085835,0.6080123,8.14932615,0.0,-17.6882019043,3.24293017387,-3.30350828171,0.252713829279,0.0766241624951,-0.344492167234,2.49000000954,-387.230102539,-247.804244995,36.11470031739999,-8.87474632261,5.228317260700003,12.82074189186,17.707717895499997,-3.1994297504399984,16.0
2018-09-11 22:02:39.600,0.0520341735168,-0.321054401081,-0.939457751657,0.252713829279,0.0766241624951,-0.344492167234,-0.97085835,0.6080123,8.14932615,0.0,-17.6882019043,3.24293017387,-3.30350828171,0.252713829279,0.0766241624951,-0.344492167234,2.79999995232,-384.775360107,-246.054428101,36.11470031739999,-8.844745636010002,5.068317413300001,12.63186430931,17.649259567299996,-3.5089869499199984,16.0
2018-09-11 22:02:39.650,0.0520341735168,-0.321054401081,-0.939457751657,0.252713829279,0.0766241624951,-0.344492167234,-0.97085835,0.6080123,8.14932615,0.0,-17.6882019043,3.24293017387,-3.30350828171,0.252713829279,0.0766241624951,-0.344492167234,2.79999995232,-384.775360107,-246.054428101,36.11470031739999,-9.444746017409999,4.158317565900006,12.49042487144,17.609867095899997,-3.7005014419599984,16.0
2018-09-11 22:02:39.700,0.0727730937942,-0.355486842958,-0.918434900425,0.259369909763,-0.0587392896414,-0.353878647089,-1.0983448,0.42168595,6.42335575,0.0,-17.6882019043,3.24293017387,-3.30350828171,0.252713829279,0.0766241624951,-0.344492167234,2.79999995232,-384.775360107,-246.054428101,36.11470031739999,-9.32474517821,4.0783195495000015,12.33772683144,17.568601608299996,-3.8811182975799983,16.0
2018-09-11 22:02:39.750,0.0727730937942,-0.355486842958,-0.918434900425,0.259369909763,-0.0587392896414,-0.353878647089,-1.0983448,0.42168595,6.42335575,0.0,-17.6882019043,3.24293017387,-3.30350828171,0.252713829279,0.0766241624951,-0.344492167234,3.15999984741,-384.775360107,-244.313095093,31.812065124499995,-4.558999061600002,-0.599781036399996,12.085550308230001,17.496969222999997,-4.1332445144699985,16.0
2018-09-11 22:02:39.800,0.0727730937942,-0.355486842958,-0.918434900425,0.259369909763,-0.0587392896414,-0.353878647089,-1.0983448,0.42168595,6.42335575,0.0,-17.3956680298,4.29327392578,-4.430164814,0.259369909763,-0.0587392896414,-0.353878647089,3.55999994278,-325.776672363,-242.588653564,31.812065124499995,-4.469000816400001,-0.6697807311999995,11.80543136597,17.419683456399998,-4.3612933158899985,16.0
2018-09-11 22:02:39.850,0.0727730937942,-0.355486842958,-0.918434900425,0.259369909763,-0.0587392896414,-0.353878647089,-1.0983448,0.42168595,6.42335575,0.0,-17.3956680298,4.29327392578,-4.430164814,0.259369909763,-0.0587392896414,-0.353878647089,3.55999994278,-325.776672363,-242.588653564,31.812065124499995,-4.469000816400001,-0.6697807311999995,11.80543136597,17.419683456399998,-4.3612933158899985,16.0
2018-09-11 22:02:39.900,0.0727730937942,-0.355486842958,-0.918434900425,0.259369909763,-0.0587392896414,-0.353878647089,-1.0983448,0.42168595,6.42335575,0.0,-17.3956680298,4.29327392578,-4.430164814,0.259369909763,-0.0587392896414,-0.353878647089,3.55999994278,-325.776672363,-242.588653564,31.812065124499995,-4.3690004348999985,-1.9497795105000009,11.314419746399999,17.285907745399996,-4.7075719833399985,16.0
2018-09-11 22:02:39.950,0.0727730937942,-0.355486842958,-0.918434900425,0.259369909763,-0.0587392896414,-0.353878647089,-1.0983448,0.42168595,6.42335575,0.0,-17.3956680298,4.29327392578,-4.430164814,0.259369909763,-0.0587392896414,-0.353878647089,4.0,-325.776672363,-240.872634888,31.812065124499995,-4.3289995194,-3.349781036399996,11.2206120491,17.255765914899996,-4.780470371249998,16.0
2018-09-11 22:02:40.000,0.0727730937942,-0.355486842958,-0.918434900425,0.259369909763,-0.0587392896414,-0.353878647089,-1.0983448,0.42168595,6.42335575,0.0,-17.3956680298,4.29327392578,-4.430164814,0.259369909763,-0.0587392896414,-0.353878647089,4.0,-325.776672363,-240.872634888,31.812065124499995,-4.308999061600002,-3.499778747599997,10.95820569992,17.167200088499996,-5.029197216029998,16.0
2018-09-11 22:02:40.050,0.0727730937942,-0.355486842958,-0.918434900425,0.259369909763,-0.0587392896414,-0.353878647089,-1.0983448,0.42168595,6.42335575,0.0,-17.077129364,5.29151201248,-5.28739738464,0.259369909763,-0.0587392896414,-0.353878647089,4.48000001907,-309.055511475,-239.190429688,31.812065124499995,-4.3289995194,-4.859779357900003,10.79570293427,17.102991104099996,-5.203768253329998,16.0
2018-09-11 22:02:40.100,0.0727730937942,-0.355486842958,-0.918434900425,0.259369909763,-0.0587392896414,-0.353878647089,-1.0983448,0.42168595,6.42335575,0.0,-17.077129364,5.29151201248,-5.28739738464,0.259369909763,-0.0587392896414,-0.353878647089,4.48000001907,-309.055511475,-239.190429688,31.812065124499995,-4.388998985299999,-4.949779510500001,10.53316450119,17.012380599999997,-5.439874172209998,16.0
2018-09-11 22:02:40.150,0.0727730937942,-0.355486842958,-0.918434900425,0.259369909763,-0.0587392896414,-0.353878647089,-1.0983448,0.42168595,6.42335575,0.0,-17.077129364,5.29151201248,-5.28739738464,0.259369909763,-0.0587392896414,-0.353878647089,5.0,-309.055511475,-237.516708374,31.812065124499995,-4.439000129700002,-6.309780120900001,10.33682489395,16.949678420999998,-5.576336860659998,16.0
2018-09-11 22:02:40.200,0.0814746438506,-0.367989243692,-0.896183777864,-0.0691593214869,-0.0889618769288,-0.248016700149,-1.4513842,0.4118793,8.2571993,0.0,-17.077129364,5.29151201248,-5.28739738464,0.259369909763,-0.0587392896414,-0.353878647089,5.0,-309.055511475,-237.516708374,23.706359863299994,-0.2885627747000008,-8.369461059599999,10.03748703003,16.852769851699996,-5.763969421389998,16.0
2018-09-11 22:02:40.250,0.0814746438506,-0.367989243692,-0.896183777864,-0.0691593214869,-0.0889618769288,-0.248016700149,-1.4513842,0.4118793,8.2571993,0.0,-17.077129364,5.29151201248,-5.28739738464,0.259369909763,-0.0587392896414,-0.353878647089,5.55999994278,-314.977661133,-235.859893799,23.706359863299994,-0.2885627747000008,-8.369461059599999,9.83154201508,16.790575027499997,-5.878225326539998,16.0
2018-09-11 22:02:40.300,0.0814746438506,-0.367989243692,-0.896183777864,-0.0691593214869,-0.0889618769288,-0.248016700149,-1.4513842,0.4118793,8.2571993,0.0,-16.659538269,6.5805606842,-6.09020090103,-0.0691593214869,-0.0889618769288,-0.248016700149,5.55999994278,-314.977661133,-235.859893799,23.706359863299994,-0.46856117250000295,-8.409461975099994,9.52355670929,16.693246841399997,-6.038355350489998,16.0
2018-09-11 22:02:40.350,0.0814746438506,-0.367989243692,-0.896183777864,-0.0691593214869,-0.0889618769288,-0.248016700149,-1.4513842,0.4118793,8.2571993,0.0,-16.659538269,6.5805606842,-6.09020090103,-0.0691593214869,-0.0889618769288,-0.248016700149,6.13999986649,-314.977661133,-234.219985962,23.706359863299994,-0.6985626221000025,-10.059461593699996,9.20076656342,16.588100433299996,-6.168793201449998,16.0
2018-09-11 22:02:40.400,0.0814746438506,-0.367989243692,-0.896183777864,-0.0691593214869,-0.0889618769288,-0.248016700149,-1.4513842,0.4118793,8.2571993,0.0,-16.659538269,6.5805606842,-6.09020090103,-0.0691593214869,-0.0889618769288,-0.248016700149,6.75,-308.300964355,-232.605392456,23.706359863299994,-0.9985618591000005,-10.069461822599997,8.87250137329,16.483921050999996,-6.279004573819998,16.0
2018-09-11 22:02:40.450,0.0814746438506,-0.367989243692,-0.896183777864,-0.0691593214869,-0.0889618769288,-0.248016700149,-1.4513842,0.4118793,8.2571993,0.0,-16.659538269,6.5805606842,-6.09020090103,-0.0691593214869,-0.0889618769288,-0.248016700149,6.75,-308.300964355,-232.605392456,23.706359863299994,-1.3185615540000022,-11.869461059599999,8.53789710999,16.380491256699997,-6.362320423129998,16.0
2018-09-11 22:02:40.500,0.0814746438506,-0.367989243692,-0.896183777864,-0.0691593214869,-0.0889618769288,-0.248016700149,-1.4513842,0.4118793,8.2571993,0.0,-16.659538269,6.5805606842,-6.09020090103,-0.0691593214869,-0.0889618769288,-0.248016700149,6.75,-308.300964355,-232.605392456,23.706359863299994,-1.4285621643000006,-11.869461059599999,8.429710865019999,16.345027923599996,-6.378547668459999,16.0
2018-09-11 22:02:40.550,0.0814746438506,-0.367989243692,-0.896183777864,-0.0691593214869,-0.0889618769288,-0.248016700149,-1.4513842,0.4118793,8.2571993,0.0,-16.1925582886,8.04337501526,-6.41725206375,-0.0691593214869,-0.0889618769288,-0.248016700149,7.36999988556,-313.067443848,-231.007736206,23.706359863299994,-1.638561248800002,-13.759462356599997,8.20053100586,16.268886566199996,-6.413832664489998,16.0
2018-09-11 22:02:40.600,0.0814746438506,-0.367989243692,-0.896183777864,-0.0691593214869,-0.0889618769288,-0.248016700149,-1.4513842,0.4118793,8.2571993,0.0,-16.1925582886,8.04337501526,-6.41725206375,-0.0691593214869,-0.0889618769288,-0.248016700149,7.36999988556,-313.067443848,-231.007736206,23.706359863299994,-1.9185619354000032,-13.739461898799998,7.84300231934,16.153953552199997,-6.428894519809998,16.0
2018-09-11 22:02:40.650,0.0752870172527,-0.317535628735,-0.898241391556,-0.167414218187,-0.174678087234,-0.274886488914,-1.65732385,0.5687857,11.3364874,0.0,-16.1925582886,8.04337501526,-6.41725206375,-0.0691593214869,-0.0889618769288,-0.248016700149,7.98999977112,-313.067443848,-229.427017212,23.706359863299994,-2.1585617066000005,-15.889461517399997,7.50047588348,16.039445877099997,-6.440112590789998,16.0
2018-09-11 22:02:40.700,0.0752870172527,-0.317535628735,-0.898241391556,-0.167414218187,-0.174678087234,-0.274886488914,-1.65732385,0.5687857,11.3364874,0.0,-16.1925582886,8.04337501526,-6.41725206375,-0.0691593214869,-0.0889618769288,-0.248016700149,7.98999977112,-313.067443848,-229.427017212,15.459014892600003,-2.133348465000001,-8.6930465698,7.17621326447,15.921586990399996,-6.451324939729998,16.0
2018-09-11 22:02:40.750,0.0752870172527,-0.317535628735,-0.898241391556,-0.167414218187,-0.174678087234,-0.274886488914,-1.65732385,0.5687857,11.3364874,0.0,-16.1925582886,8.04337501526,-6.41725206375,-0.0691593214869,-0.0889618769288,-0.248016700149,8.61999988556,-313.067443848,-227.854614258,15.459014892600003,-2.2733478546000008,-10.783046722399998,6.953252792360001,15.834399223299997,-6.449614047999998,16.0
2018-09-11 22:02:40.800,0.0752870172527,-0.317535628735,-0.898241391556,-0.167414218187,-0.174678087234,-0.274886488914,-1.65732385,0.5687857,11.3364874,0.0,-15.7473697662,9.27629947662,-6.42879104614,-0.167414218187,-0.174678087234,-0.274886488914,8.61999988556,-313.067443848,-227.854614258,15.459014892600003,-2.2733478546000008,-10.783046722399998,6.72370052338,15.747369766199997,-6.428791046139998,16.0
2018-09-11 22:02:40.850,0.0752870172527,-0.317535628735,-0.898241391556,-0.167414218187,-0.174678087234,-0.274886488914,-1.65732385,0.5687857,11.3364874,0.0,-15.7473697662,9.27629947662,-6.42879104614,-0.167414218187,-0.174678087234,-0.274886488914,9.23999977112,-349.000366211,-226.32460022,15.459014892600003,-2.2233486175999992,-13.0830459594,6.49668598175,15.659327506999997,-6.408935546879998,16.0
2018-09-11 22:02:40.900,0.0752870172527,-0.317535628735,-0.898241391556,-0.167414218187,-0.174678087234,-0.274886488914,-1.65732385,0.5687857,11.3364874,0.0,-15.7473697662,9.27629947662,-6.42879104614,-0.167414218187,-0.174678087234,-0.274886488914,9.23999977112,-349.000366211,-226.32460022,15.459014892600003,-2.2433471679999997,-13.0830459594,6.0520658493,15.482949256899996,-6.359001159669998,16.0
2018-09-11 22:02:40.950,0.0752870172527,-0.317535628735,-0.898241391556,-0.167414218187,-0.174678087234,-0.274886488914,-1.65732385,0.5687857,11.3364874,0.0,-15.7473697662,9.27629947662,-6.42879104614,-0.167414218187,-0.174678087234,-0.274886488914,9.8499994278,-349.000366211,-224.802993774,15.459014892600003,-2.2233486175999992,-15.4630470275,5.9471178055,15.435011863699996,-6.353661537169998,16.0
2018-09-11 22:02:41.000,0.0730459571305,-0.283969197995,-0.894160378351,-0.300558328629,-0.118968874216,-0.198211193085,-1.71616375,0.4511059,11.69933345,0.0,-15.7473697662,9.27629947662,-6.42879104614,-0.167414218187,-0.174678087234,-0.274886488914,10.4600000381,-364.443786621,-223.315216064,9.449268341100002,-2.2270374297999993,-10.668048858599999,5.526216506999999,15.254732131999996,-6.276983261109998,16.0
2018-09-11 22:02:41.050,0.0730459571305,-0.283969197995,-0.894160378351,-0.300558328629,-0.118968874216,-0.198211193085,-1.71616375,0.4511059,11.69933345,0.0,-15.1717681885,10.6682949066,-6.24544239044,-0.300558328629,-0.118968874216,-0.198211193085,10.4600000381,-364.443786621,-223.315216064,9.449268341100002,-2.217037201,-13.0380487442,5.428387641900001,15.211417198199996,-6.263141155239998,16.0
2018-09-11 22:02:41.100,0.0730459571305,-0.283969197995,-0.894160378351,-0.300558328629,-0.118968874216,-0.198211193085,-1.71616375,0.4511059,11.69933345,0.0,-15.1717681885,10.6682949066,-6.24544239044,-0.300558328629,-0.118968874216,-0.198211193085,11.0500001907,-364.443786621,-221.84437561,9.449268341100002,-2.2470378876000012,-13.068048477199998,5.080772399900001,15.056951522799997,-6.2525086402899985,16.0
2018-09-11 22:02:41.150,0.0730459571305,-0.283969197995,-0.894160378351,-0.300558328629,-0.118968874216,-0.198211193085,-1.71616375,0.4511059,11.69933345,0.0,-15.1717681885,10.6682949066,-6.24544239044,-0.300558328629,-0.118968874216,-0.198211193085,11.0500001907,-364.443786621,-221.84437561,9.449268341100002,-2.1770381928000013,-15.138048171999998,5.0038471222,15.017654418899996,-6.249873638149999,16.0
2018-09-11 22:02:41.200,0.0730459571305,-0.283969197995,-0.894160378351,-0.300558328629,-0.118968874216,-0.198211193085,-1.71616375,0.4511059,11.69933345,0.0,-15.1717681885,10.6682949066,-6.24544239044,-0.300558328629,-0.118968874216,-0.198211193085,11.0500001907,-364.443786621,-221.84437561,9.449268341100002,-2.207036972099999,-15.128047943099999,5.0038471222,15.017654418899996,-6.249873638149999,16.0
2018-09-11 22:02:41.250,0.0730459571305,-0.283969197995,-0.894160378351,-0.300558328629,-0.118968874216,-0.198211193085,-1.71616375,0.4511059,11.69933345,0.0,-15.1717681885,10.6682949066,-6.24544239044,-0.300558328629,-0.118968874216,-0.198211193085,11.6399993896,-382.304962158,-220.407287598,9.449268341100002,-0.5870380401999995,-17.0880479813,4.5918493271,14.826840400699997,-6.204487323759998,16.0
2018-09-11 22:02:41.300,0.0730459571305,-0.283969197995,-0.894160378351,-0.300558328629,-0.118968874216,-0.198211193085,-1.71616375,0.4511059,11.69933345,0.0,-14.6823472977,11.7355556488,-6.13651418686,-0.300558328629,-0.118968874216,-0.198211193085,11.6399993896,-382.304962158,-220.407287598,9.449268341100002,-0.6070365905999999,-17.0780487061,4.343098640399999,14.718063354499996,-6.154790401459998,16.0
2018-09-11 22:02:41.350,0.0821778743854,-0.236332596557,-0.894117482833,-0.110981121659,-0.071697935462,-0.161134153605,-1.8240369,0.28439285,11.5914603,0.0,-14.6823472977,11.7355556488,-6.13651418686,-0.300558328629,-0.118968874216,-0.198211193085,12.2299995422,-382.304962158,-218.97869873,9.449268341100002,1.422962188699998,-19.048048019409997,4.186934471100001,14.646400451699996,-6.120008468629998,16.0
2018-09-11 22:02:41.400,0.0821778743854,-0.236332596557,-0.894117482833,-0.110981121659,-0.071697935462,-0.161134153605,-1.8240369,0.28439285,11.5914603,0.0,-14.6823472977,11.7355556488,-6.13651418686,-0.300558328629,-0.118968874216,-0.198211193085,12.2299995422,-382.304962158,-218.97869873,4.652015685999999,1.3946266174000002,-12.536689758309999,3.981548309300001,14.532444953899997,-6.108611583709998,16.0
2018-09-11 22:02:41.450,0.0821778743854,-0.236332596557,-0.894117482833,-0.110981121659,-0.071697935462,-0.161134153605,-1.8240369,0.28439285,11.5914603,0.0,-14.6823472977,11.7355556488,-6.13651418686,-0.300558328629,-0.118968874216,-0.198211193085,12.8099994659,-371.880523682,-217.583786011,4.652015685999999,3.4246273040999995,-14.296689987189998,3.8244733810000007,14.435865402199996,-6.160881519319998,16.0
2018-09-11 22:02:41.500,0.0821778743854,-0.236332596557,-0.894117482833,-0.110981121659,-0.071697935462,-0.161134153605,-1.8240369,0.28439285,11.5914603,0.0,-14.6823472977,11.7355556488,-6.13651418686,-0.300558328629,-0.118968874216,-0.198211193085,12.8099994659,-371.880523682,-217.583786011,4.652015685999999,3.4146270751999985,-14.296689987189998,3.7237501143999996,14.375305175799996,-6.197551250459998,16.0
2018-09-11 22:02:41.550,0.0821778743854,-0.236332596557,-0.894117482833,-0.110981121659,-0.071697935462,-0.161134153605,-1.8240369,0.28439285,11.5914603,0.0,-14.2854986191,12.4167499542,-6.25357532501,-0.110981121659,-0.071697935462,-0.161134153605,13.3999996185,-371.880523682,-216.18057251,4.652015685999999,5.504627227799999,-15.69669008256,3.5832500458,14.285498619099997,-6.253575325009998,16.0
2018-09-11 22:02:41.600,0.0821778743854,-0.236332596557,-0.894117482833,-0.110981121659,-0.071697935462,-0.161134153605,-1.8240369,0.28439285,11.5914603,0.0,-14.2854986191,12.4167499542,-6.25357532501,-0.110981121659,-0.071697935462,-0.161134153605,13.9899997711,-395.915222168,-214.828048706,4.652015685999999,5.504627227799999,-15.69669008256,3.3645906448,14.157906532299997,-6.286288738249998,16.0
2018-09-11 22:02:41.650,0.0821778743854,-0.236332596557,-0.894117482833,-0.110981121659,-0.071697935462,-0.161134153605,-1.8240369,0.28439285,11.5914603,0.0,-14.2854986191,12.4167499542,-6.25357532501,-0.110981121659,-0.071697935462,-0.161134153605,13.9899997711,-395.915222168,-214.828048706,4.652015685999999,5.504627227799999,-15.69669008256,3.3645906448,14.157906532299997,-6.286288738249998,16.0
2018-09-11 22:02:41.700,0.0821778743854,-0.236332596557,-0.894117482833,-0.110981121659,-0.071697935462,-0.161134153605,-1.8240369,0.28439285,11.5914603,0.0,-14.2854986191,12.4167499542,-6.25357532501,-0.110981121659,-0.071697935462,-0.161134153605,13.9899997711,-395.915222168,-214.828048706,4.652015685999999,7.584627151499999,-17.066689968109998,3.1204748153999997,14.043267250099996,-6.247677803039998,16.0
2018-09-11 22:02:41.750,0.0821778743854,-0.236332596557,-0.894117482833,-0.110981121659,-0.071697935462,-0.161134153605,-1.8240369,0.28439285,11.5914603,0.0,-14.2854986191,12.4167499542,-6.25357532501,-0.110981121659,-0.071697935462,-0.161134153605,14.5899991989,-395.915222168,-213.458648682,4.652015685999999,9.594626426669999,-18.616689920429998,2.9524087906,13.956830978399996,-6.202201366419998,16.0
2018-09-11 22:02:41.800,0.0889481088493,-0.197057639238,-0.891914790713,-0.138709336519,-0.163279488683,-0.0893625691533,-1.77500365,0.16671305,11.15016105,0.0,-13.9303178787,13.1050643921,-6.168592453,-0.138709336519,-0.163279488683,-0.0893625691533,15.1899995804,-406.505401611,-212.097686768,0.7975807190000026,11.102844715070002,-14.844386100740001,2.894935607900001,13.930317878699997,-6.168592452999998,16.0
2018-09-11 22:02:41.850,0.0889481088493,-0.197057639238,-0.891914790713,-0.138709336519,-0.163279488683,-0.0893625691533,-1.77500365,0.16671305,11.15016105,0.0,-13.9303178787,13.1050643921,-6.168592453,-0.138709336519,-0.163279488683,-0.0893625691533,15.1899995804,-406.505401611,-212.097686768,0.7975807190000026,11.102844715070002,-14.844386100740001,2.7848882674999995,13.879125595099996,-6.1391582488999985,16.0
2018-09-11 22:02:41.900,0.0889481088493,-0.197057639238,-0.891914790713,-0.138709336519,-0.163279488683,-0.0893625691533,-1.77500365,0.16671305,11.15016105,0.0,-13.9303178787,13.1050643921,-6.168592453,-0.138709336519,-0.163279488683,-0.0893625691533,15.1899995804,-406.505401611,-212.097686768,0.7975807190000026,11.09284496303,-14.834386110280002,2.5522012710999995,13.792415965261071,-6.016077995299998,16.0
2018-09-11 22:02:41.950,0.0889481088493,-0.197057639238,-0.891914790713,-0.138709336519,-0.163279488683,-0.0893625691533,-1.77500365,0.16671305,11.15016105,0.0,-13.9303178787,13.1050643921,-6.168592453,-0.138709336519,-0.163279488683,-0.0893625691533,15.7699995041,-406.505401611,-210.772262573,0.7975807190000026,12.972844600630001,-16.2143859863,2.4937953948999994,13.770723689261072,-5.962243556979998,16.0
2018-09-11 22:02:42.000,0.0889481088493,-0.197057639238,-0.891914790713,-0.138709336519,-0.163279488683,-0.0893625691533,-1.77500365,0.16671305,11.15016105,0.0,-13.9303178787,13.1050643921,-6.168592453,-0.138709336519,-0.163279488683,-0.0893625691533,15.7699995041,-406.505401611,-210.772262573,0.7975807190000026,12.952844619710001,-16.2143859863,2.3188333511000003,13.71218048396107,-5.805910110469998,16.0
2018-09-11 22:02:42.050,0.0889481088493,-0.197057639238,-0.891914790713,-0.138709336519,-0.163279488683,-0.0893625691533,-1.77500365,0.16671305,11.15016105,0.0,-13.6509914398,13.9034938812,-5.56251573563,-0.138709336519,-0.163279488683,-0.0893625691533,16.3299999237,-425.521484375,-209.445022583,0.7975807190000026,14.652844667390001,-17.554385989876003,2.1510276794000003,13.666040766861071,-5.6294016838099985,16.0
2018-09-11 22:02:42.100,0.0889481088493,-0.197057639238,-0.891914790713,-0.138709336519,-0.163279488683,-0.0893625691533,-1.77500365,0.16671305,11.15016105,0.0,-13.6509914398,13.9034938812,-5.56251573563,-0.138709336519,-0.163279488683,-0.0893625691533,16.3299999237,-425.521484375,-209.445022583,0.7975807190000026,14.652844667390001,-17.554385989876003,2.0465040207000005,13.64401756586107,-5.519038677219998,16.0
2018-09-11 22:02:42.150,0.0809914798921,-0.144630459992,-0.896922476747,-0.245992928743,-0.140143319964,-0.0712084323168,-1.3533177,0.38245935,12.67999845,0.0,-13.6509914398,13.9034938812,-5.56251573563,-0.138709336519,-0.163279488683,-0.0893625691533,16.8699989319,-425.521484375,-208.109344482,0.7975807190000026,16.27284479137,-18.77438592908,1.9440631865999993,13.612553942861071,-5.406203269959998,16.0
2018-09-11 22:02:42.200,0.0809914798921,-0.144630459992,-0.896922476747,-0.245992928743,-0.140143319964,-0.0712084323168,-1.3533177,0.38245935,12.67999845,0.0,-13.6509914398,13.9034938812,-5.56251573563,-0.138709336519,-0.163279488683,-0.0893625691533,16.8699989319,-425.521484375,-208.109344482,-1.5701332092000015,13.1896035671,-13.10478830338,1.7577514648,13.6293749026737,-5.189242362979998,16.0
2018-09-11 22:02:42.250,0.0809914798921,-0.144630459992,-0.896922476747,-0.245992928743,-0.140143319964,-0.0712084323168,-1.3533177,0.38245935,12.67999845,0.0,-13.6509914398,13.9034938812,-5.56251573563,-0.138709336519,-0.163279488683,-0.0893625691533,16.8699989319,-425.521484375,-208.109344482,-1.5701332092000015,13.1896035671,-13.10478830338,1.7577514648,13.6293749026737,-5.189242362979998,16.0
2018-09-11 22:02:42.300,0.0809914798921,-0.144630459992,-0.896922476747,-0.245992928743,-0.140143319964,-0.0712084323168,-1.3533177,0.38245935,12.67999845,0.0,-13.5347280502,14.4946613312,-4.80681085587,-0.245992928743,-0.140143319964,-0.0712084323168,17.3799991608,-448.471832275,-206.885543823,-1.5701332092000015,14.729603469353,-13.77478837967,1.5052232742000005,13.5954250506737,-4.8068108558699985,15.9899997711
2018-09-11 22:02:42.350,0.0809914798921,-0.144630459992,-0.896922476747,-0.245992928743,-0.140143319964,-0.0712084323168,-1.3533177,0.38245935,12.67999845,0.0,-13.5347280502,14.4946613312,-4.80681085587,-0.245992928743,-0.140143319964,-0.0712084323168,17.859998703,-449.47177124,-205.55305481,-1.5701332092000015,16.119603455047,-14.804788351060001,1.4005908966000007,13.576571863173701,-4.6089539527899985,15.9899997711
2018-09-11 22:02:42.400,0.0809914798921,-0.144630459992,-0.896922476747,-0.245992928743,-0.140143319964,-0.0712084323168,-1.3533177,0.38245935,12.67999845,0.0,-13.5347280502,14.4946613312,-4.80681085587,-0.245992928743,-0.140143319964,-0.0712084323168,18.2999992371,-486.618530273,-204.315063477,-1.5701332092000015,17.33960342405,-15.41478824616,1.3092613219999993,13.5682005099737,-4.425632476809998,15.9899997711
2018-09-11 22:02:42.450,0.0809914798921,-0.144630459992,-0.896922476747,-0.245992928743,-0.140143319964,-0.0712084323168,-1.3533177,0.38245935,12.67999845,0.0,-13.5347280502,14.4946613312,-4.80681085587,-0.245992928743,-0.140143319964,-0.0712084323168,18.2999992371,-486.618530273,-204.315063477,-1.5701332092000015,17.33960342405,-15.41478824616,1.2292013167999993,13.618638031166,-4.254329681399998,15.9899997711
2018-09-11 22:02:42.500,0.0809914798921,-0.144630459992,-0.896922476747,-0.245992928743,-0.140143319964,-0.0712084323168,-1.3533177,0.38245935,12.67999845,0.0,-13.5032119751,14.9131965637,-3.88907623291,-0.245992928743,-0.140143319964,-0.0712084323168,18.2999992371,-486.618530273,-204.315063477,-1.5701332092000015,17.32960343359,-15.43478822709,1.1205568314,13.615258209365999,-3.987493276599998,15.9899997711
2018-09-11 22:02:42.550,0.0809914798921,-0.144630459992,-0.896922476747,-0.245992928743,-0.140143319964,-0.0712084323168,-1.3533177,0.38245935,12.67999845,0.0,-13.5032119751,14.9131965637,-3.88907623291,-0.245992928743,-0.140143319964,-0.0712084323168,18.2999992371,-486.618530273,-204.315063477,-1.5701332092000015,17.32960343359,-15.43478822709,1.1205568314,13.615258209365999,-3.987493276599998,15.9899997711
2018-09-11 22:02:42.600,0.0533177361814,-0.0666564200918,-0.905019536461,-0.273215085268,-0.375699490309,0.0114088980481,-0.75511205,0.3726527,16.3182656,0.0,-13.5032119751,14.9131965637,-3.88907623291,-0.245992928743,-0.140143319964,-0.0712084323168,18.7099990845,-486.618530273,-202.977416992,-1.5701332092000015,18.479603290540002,-16.11478805542,0.9612026215,13.968988865617,-3.4187290668499983,15.9899997711
2018-09-11 22:02:42.650,0.0533177361814,-0.0666564200918,-0.905019536461,-0.273215085268,-0.375699490309,0.0114088980481,-0.75511205,0.3726527,16.3182656,0.0,-13.5032119751,14.9131965637,-3.88907623291,-0.245992928743,-0.140143319964,-0.0712084323168,19.0599994659,-520.621398926,-202.130050659,-2.109203338599997,12.82638454438,-7.25249767304,0.9156312942999989,13.981270283417,-3.157099485399998,16.0
2018-09-11 22:02:42.700,0.0533177361814,-0.0666564200918,-0.905019536461,-0.273215085268,-0.375699490309,0.0114088980481,-0.75511205,0.3726527,16.3182656,0.0,-13.5032119751,14.9131965637,-3.88907623291,-0.245992928743,-0.140143319964,-0.0712084323168,19.0599994659,-520.621398926,-202.130050659,-2.109203338599997,12.82638454438,-7.2624976635,0.8501758576,14.018494099417,-2.5919239520999984,16.0
2018-09-11 22:02:42.750,0.0533177361814,-0.0666564200918,-0.905019536461,-0.273215085268,-0.375699490309,0.0114088980481,-0.75511205,0.3726527,16.3182656,0.0,-13.5812959671,15.1599769592,-2.29017114639,-0.273215085268,-0.375699490309,0.0114088980481,19.3500003815,-519.621459961,-200.752716064,-2.109203338599997,13.526384353640001,-7.42249774933,0.8407192229999989,14.025649517817,-2.4445247650099984,16.0
2018-09-11 22:02:42.800,0.0301603649266,-0.0314419110032,-0.90718363414,-0.179526537657,-0.345721393824,-0.015342688188,-0.5687857,0.30400615,17.2989306,0.0,-13.5812959671,15.1599769592,-2.29017114639,-0.273215085268,-0.375699490309,0.0114088980481,19.3500003815,-519.621459961,-200.752716064,-2.109203338599997,13.526384353640001,-7.42249774933,0.8262023925999991,14.047930210817,-1.984722018239998,16.0
2018-09-11 22:02:42.850,0.0301603649266,-0.0314419110032,-0.90718363414,-0.179526537657,-0.345721393824,-0.015342688188,-0.5687857,0.30400615,17.2989306,0.0,-13.5812959671,15.1599769592,-2.29017114639,-0.273215085268,-0.375699490309,0.0114088980481,19.5599994659,-551.401916504,-199.367263794,-2.4524002074999984,9.85818433762,-4.7885917425199995,0.8182706832999997,14.252015650257,-1.476302742959998,16.0
2018-09-11 22:02:42.900,0.0301603649266,-0.0314419110032,-0.90718363414,-0.179526537657,-0.345721393824,-0.015342688188,-0.5687857,0.30400615,17.2989306,0.0,-13.5812959671,15.1599769592,-2.29017114639,-0.273215085268,-0.375699490309,0.0114088980481,19.5599994659,-551.401916504,-199.367263794,-2.4524002074999984,9.85818433762,-4.7885917425199995,0.8358669280999997,14.267280161357,-1.011642336849998,16.0
2018-09-11 22:02:42.950,0.0301603649266,-0.0314419110032,-0.90718363414,-0.179526537657,-0.345721393824,-0.015342688188,-0.5687857,0.30400615,17.2989306,0.0,-13.5812959671,15.1599769592,-2.29017114639,-0.273215085268,-0.375699490309,0.0114088980481,19.7099990845,-551.401916504,-198.186950684,-1.4524002074999984,10.09818410874,-3.40859162808,0.8539180755999993,14.270858347457,-0.862829327582998,16.0
2018-09-11 22:02:43.000,0.0301603649266,-0.0314419110032,-0.90718363414,-0.179526537657,-0.345721393824,-0.015342688188,-0.5687857,0.30400615,17.2989306,0.0,-13.6611280441,15.0380392075,-0.281318664551,-0.179526537657,-0.345721393824,-0.015342688188,19.7099990845,-551.401916504,-198.186950684,-1.4524002074999984,10.09818410874,-3.40859162808,0.9492893218999985,14.297791063757,-0.2813186645509981,16.0
2018-09-11 22:02:43.050,0.0301603649266,-0.0314419110032,-0.90718363414,-0.179526537657,-0.345721393824,-0.015342688188,-0.5687857,0.30400615,17.2989306,0.0,-13.6611280441,15.0380392075,-0.281318664551,-0.179526537657,-0.345721393824,-0.015342688188,19.7600002289,-572.504211426,-196.777084351,-1.4524002074999984,10.158184051509998,-2.89859163761,1.0092144012999995,14.300332605857,0.10083450377000196,16.0
2018-09-11 22:02:43.100,0.0301603649266,-0.0314419110032,-0.90718363414,-0.179526537657,-0.345721393824,-0.015342688188,-0.5687857,0.30400615,17.2989306,0.0,-13.6611280441,15.0380392075,-0.281318664551,-0.179526537657,-0.345721393824,-0.015342688188,19.7600002289,-572.504211426,-196.777084351,-1.4524002074999984,10.158184051509998,-2.89859163761,1.040713310300001,15.09651887417,0.40406116843200196,16.0
2018-09-11 22:02:43.150,0.0301603649266,-0.0314419110032,-0.90718363414,-0.179526537657,-0.345721393824,-0.015342688188,-0.5687857,0.30400615,17.2989306,0.0,-13.6611280441,15.0380392075,-0.281318664551,-0.179526537657,-0.345721393824,-0.015342688188,19.7600002289,-572.504211426,-196.777084351,-1.4524002074999984,10.158184051509998,-2.89859163761,1.040713310300001,15.09651887417,0.40406116843200196,16.0
2018-09-11 22:02:43.200,0.0301603649266,-0.0314419110032,-0.90718363414,-0.179526537657,-0.345721393824,-0.015342688188,-0.5687857,0.30400615,17.2989306,0.0,-13.6611280441,15.0380392075,-0.281318664551,-0.179526537657,-0.345721393824,-0.015342688188,19.7600002289,-572.504211426,-196.002426147,1.5475997925000016,10.19818401337,2.75140821934,1.1127967835000003,15.07759034637,0.687382936478002,16.0
2018-09-11 22:02:43.250,-0.0156128422712,0.00852175562477,-0.906768634272,0.159007295966,-0.231689378619,0.021331967786,-0.26477955,-0.02941995,14.97475455,0.0,-13.6141138077,14.7313585281,0.987650871277,-0.179526537657,-0.345721393824,-0.015342688188,19.6999988556,-577.349487305,-194.508666992,1.5475997925000016,10.11818408966,3.0714083910000003,1.1748857497999996,15.06309354307,0.876323461533002,16.0
2018-09-11 22:02:43.300,-0.0156128422712,0.00852175562477,-0.906768634272,0.159007295966,-0.231689378619,0.021331967786,-0.26477955,-0.02941995,14.97475455,0.0,-13.6141138077,14.7313585281,0.987650871277,-0.179526537657,-0.345721393824,-0.015342688188,19.6999988556,-577.349487305,-194.508666992,1.1664543151999993,3.43591022491,5.021897867326,1.2521047591999999,15.024236083069999,1.198451042180002,16.0
2018-09-11 22:02:43.350,-0.0156128422712,0.00852175562477,-0.906768634272,0.159007295966,-0.231689378619,0.021331967786,-0.26477955,-0.02941995,14.97475455,0.0,-13.6141138077,14.7313585281,0.987650871277,-0.179526537657,-0.345721393824,-0.015342688188,19.6000003815,-557.123535156,-193.02432251,1.1664543151999993,3.23591041565,5.241897657516001,1.2703742980999984,15.73047971726,1.479069709780002,16.0
2018-09-11 22:02:43.400,-0.0156128422712,0.00852175562477,-0.906768634272,0.159007295966,-0.231689378619,0.021331967786,-0.26477955,-0.02941995,14.97475455,0.0,-13.6141138077,14.7313585281,0.987650871277,-0.179526537657,-0.345721393824,-0.015342688188,19.4599990845,-557.123535156,-191.707595825,3.1664543151999993,2.9259104728699996,10.211897924536,1.4017705916999983,15.66814374926,1.845686912540002,16.0
2018-09-11 22:02:43.450,-0.0156128422712,0.00852175562477,-0.906768634272,0.159007295966,-0.231689378619,0.021331967786,-0.26477955,-0.02941995,14.97475455,0.0,-13.6141138077,14.7313585281,0.987650871277,-0.179526537657,-0.345721393824,-0.015342688188,19.4599990845,-557.123535156,-191.707595825,3.1664543151999993,2.9259104728699996,10.211897924536,1.4017705916999983,15.66814374926,1.845686912540002,16.0
2018-09-11 22:02:43.500,-0.0156128422712,0.00852175562477,-0.906768634272,0.159007295966,-0.231689378619,0.021331967786,-0.26477955,-0.02941995,14.97475455,0.0,-13.3878269196,14.2580804825,2.297914505,0.159007295966,-0.231689378619,0.021331967786,19.2899990082,-557.123535156,-190.174804688,3.1664543151999993,2.9259104728699996,10.191897466736,1.5524768828999989,15.59332227706,2.2206299305000017,16.0
2018-09-11 22:02:43.550,-0.0156128422712,0.00852175562477,-0.906768634272,0.159007295966,-0.231689378619,0.021331967786,-0.26477955,-0.02941995,14.97475455,0.0,-13.3878269196,14.2580804825,2.297914505,0.159007295966,-0.231689378619,0.021331967786,19.2899990082,-557.123535156,-190.174804688,3.1664543151999993,2.54591035843,10.401897504935999,1.6387825011999997,15.55233144756,2.370752334590002,16.0
2018-09-11 22:02:43.600,-0.0554670067128,0.00843723191433,-0.911744470259,0.193595305085,-0.112435363233,0.0665168687701,-0.26477955,0.3726527,13.60182355,0.0,-13.3878269196,14.2580804825,2.297914505,0.159007295966,-0.231689378619,0.021331967786,19.2899990082,-557.123535156,-190.174804688,3.1664543151999993,2.54591035843,10.391898229735999,1.5124359130999991,16.88637781147,2.6173667907700016,16.0
2018-09-11 22:02:43.650,-0.0554670067128,0.00843723191433,-0.911744470259,0.193595305085,-0.112435363233,0.0665168687701,-0.26477955,0.3726527,13.60182355,0.0,-13.3878269196,14.2580804825,2.297914505,0.159007295966,-0.231689378619,0.021331967786,19.0599994659,-530.228210449,-187.962524414,9.8050384521,-2.1106038093600006,16.98488867284,1.5509920121,16.85875463487,2.706331729890002,16.0
2018-09-11 22:02:43.700,-0.0554670067128,0.00843723191433,-0.911744470259,0.193595305085,-0.112435363233,0.0665168687701,-0.26477955,0.3726527,13.60182355,0.0,-13.3878269196,14.2580804825,2.297914505,0.159007295966,-0.231689378619,0.021331967786,18.8099994659,-530.228210449,-186.364700317,9.8050384521,-2.7006034851100003,16.99488890174,1.732608795199999,16.75680685047,3.0223650932300017,16.0
2018-09-11 22:02:43.750,-0.0554670067128,0.00843723191433,-0.911744470259,0.193595305085,-0.112435363233,0.0665168687701,-0.26477955,0.3726527,13.60182355,0.0,-13.0827045441,13.7456073761,3.18233990669,0.193595305085,-0.112435363233,0.0665168687701,18.8099994659,-530.228210449,-186.364700317,9.8050384521,-2.7006034851100003,16.99488890174,1.8117017745999995,16.69961023327,3.138427972790002,16.0
2018-09-11 22:02:43.800,-0.0554670067128,0.00843723191433,-0.911744470259,0.193595305085,-0.112435363233,0.0665168687701,-0.26477955,0.3726527,13.60182355,0.0,-13.0827045441,13.7456073761,3.18233990669,0.193595305085,-0.112435363233,0.0665168687701,18.5299987793,-501.76449585,-184.788391113,9.8050384521,-3.26060366631,16.874889969839998,1.9651260375999993,16.57730054857,3.286674976350002,16.0
2018-09-11 22:02:43.850,-0.0554670067128,0.00843723191433,-0.911744470259,0.193595305085,-0.112435363233,0.0665168687701,-0.26477955,0.3726527,13.60182355,0.0,-13.0827045441,13.7456073761,3.18233990669,0.193595305085,-0.112435363233,0.0665168687701,18.5299987793,-501.76449585,-184.788391113,9.8050384521,-3.26060366631,16.874889969839998,1.9651260375999993,16.57730054857,3.286674976350002,16.0
2018-09-11 22:02:43.900,-0.0554670067128,0.00843723191433,-0.911744470259,0.193595305085,-0.112435363233,0.0665168687701,-0.26477955,0.3726527,13.60182355,0.0,-13.0827045441,13.7456073761,3.18233990669,0.193595305085,-0.112435363233,0.0665168687701,18.5299987793,-501.76449585,-184.788391113,9.8050384521,-3.25060343743,16.86488974094,1.7714252471999998,17.524567127220003,3.375108957290002,16.0
2018-09-11 22:02:43.950,-0.0554670067128,0.00843723191433,-0.911744470259,0.193595305085,-0.112435363233,0.0665168687701,-0.26477955,0.3726527,13.60182355,0.0,-13.0827045441,13.7456073761,3.18233990669,0.193595305085,-0.112435363233,0.0665168687701,18.2299995422,-501.76449585,-181.756347656,13.8050384521,-3.7806036472300004,22.04489004614,1.8203067780000008,17.442873477920003,3.397418022160002,15.9899997711
2018-09-11 22:02:44.000,-0.0554670067128,0.00843723191433,-0.911744470259,0.193595305085,-0.112435363233,0.0665168687701,-0.26477955,0.3726527,13.60182355,0.0,-12.6286277771,13.3868780136,3.43647813797,0.193595305085,-0.112435363233,0.0665168687701,18.2299995422,-501.76449585,-181.756347656,13.8050384521,-3.77060365677,22.03488981724,1.8980197907000012,17.31864500042,3.430135250090002,15.9899997711
2018-09-11 22:02:44.050,-0.0554670067128,0.00843723191433,-0.911744470259,0.193595305085,-0.112435363233,0.0665168687701,-0.26477955,0.3726527,13.60182355,0.0,-12.6286277771,13.3868780136,3.43647813797,0.193595305085,-0.112435363233,0.0665168687701,17.9300003052,-459.866241455,-180.165023804,13.8050384521,-4.28060352803,21.48488867284,1.9626388549999998,17.18287992482,3.440304756160002,15.9899997711
2018-09-11 22:02:44.100,-0.0554670067128,0.00843723191433,-0.911744470259,0.193595305085,-0.112435363233,0.0665168687701,-0.26477955,0.3726527,13.60182355,0.0,-12.6286277771,13.3868780136,3.43647813797,0.193595305085,-0.112435363233,0.0665168687701,17.9300003052,-459.866241455,-180.165023804,13.8050384521,-4.28060352803,21.48488867284,1.9626388549999998,17.18287992482,3.440304756160002,15.9899997711
2018-09-11 22:02:44.150,-0.0554670067128,0.00843723191433,-0.911744470259,0.193595305085,-0.112435363233,0.0665168687701,-0.26477955,0.3726527,13.60182355,0.0,-12.6286277771,13.3868780136,3.43647813797,0.193595305085,-0.112435363233,0.0665168687701,17.6399993896,-459.866241455,-177.535507202,15.8050384521,-4.74060356617,23.36488974094,1.847565651,17.51782226563,3.4369072914100016,16.0
2018-09-11 22:02:44.200,-0.113019108622,-0.0690849224575,-0.901406467763,0.437558054924,-0.0553654879332,-0.0791805163026,-0.40207265,0.4118793,10.4735022,0.0,-12.6286277771,13.3868780136,3.43647813797,0.193595305085,-0.112435363233,0.0665168687701,17.6399993896,-459.866241455,-177.535507202,13.9084625244,-6.971340537070001,12.364635467500001,1.8903083801000005,17.35484886173,3.4398460388200016,16.0
2018-09-11 22:02:44.250,-0.113019108622,-0.0690849224575,-0.901406467763,0.437558054924,-0.0553654879332,-0.0791805163026,-0.40207265,0.4118793,10.4735022,0.0,-12.0116653442,13.2112350464,3.42088294029,0.437558054924,-0.0553654879332,-0.0791805163026,17.3400001526,-418.135437012,-175.962112427,13.9084625244,-7.461340487001001,11.464635849,1.9267282486,17.192599296530002,3.4208829402900016,16.0
2018-09-11 22:02:44.300,-0.113019108622,-0.0690849224575,-0.901406467763,0.437558054924,-0.0553654879332,-0.0791805163026,-0.40207265,0.4118793,10.4735022,0.0,-12.0116653442,13.2112350464,3.42088294029,0.437558054924,-0.0553654879332,-0.0791805163026,17.3400001526,-418.135437012,-175.962112427,13.9084625244,-7.451340496538001,11.4846343994,1.9433269501000012,17.08655166623,3.3907275199900018,16.0
2018-09-11 22:02:44.350,-0.113019108622,-0.0690849224575,-0.901406467763,0.437558054924,-0.0553654879332,-0.0791805163026,-0.40207265,0.4118793,10.4735022,0.0,-12.0116653442,13.2112350464,3.42088294029,0.437558054924,-0.0553654879332,-0.0791805163026,17.0499992371,-418.135437012,-174.412719727,13.9084625244,-7.891340434549001,10.564634323100002,0.8066387177000003,19.56632089615,3.336462259290002,16.0
2018-09-11 22:02:44.400,-0.113019108622,-0.0690849224575,-0.901406467763,0.437558054924,-0.0553654879332,-0.0791805163026,-0.40207265,0.4118793,10.4735022,0.0,-12.0116653442,13.2112350464,3.42088294029,0.437558054924,-0.0553654879332,-0.0791805163026,17.0499992371,-418.135437012,-174.412719727,13.9084625244,-7.881340444086001,10.574634552,-21.65650177002,25.1511077881,3.2014117240899993,16.0
2018-09-11 22:02:44.450,-0.113019108622,-0.0690849224575,-0.901406467763,0.437558054924,-0.0553654879332,-0.0791805163026,-0.40207265,0.4118793,10.4735022,0.0,-12.0116653442,13.2112350464,3.42088294029,0.437558054924,-0.0553654879332,-0.0791805163026,16.7700004578,-372.716339111,17.5356464386,178.9084625244,-8.231340453027,31.6746349334,-21.659180641219997,25.0923309327,3.168634891509999,16.0
2018-09-11 22:02:44.500,-0.113019108622,-0.0690849224575,-0.901406467763,0.437558054924,-0.0553654879332,-0.0791805163026,-0.40207265,0.4118793,10.4735022,0.0,-11.33664608,13.1985273361,3.08139038086,0.437558054924,-0.0553654879332,-0.0791805163026,16.7700004578,-372.716339111,17.5356464386,178.9084625244,-8.211340457199,31.714635848999997,-21.68701744082,24.838711738599997,3.056194305419999,16.0
2018-09-11 22:02:44.550,-0.126039056731,-0.11983491973,-0.889427268924,0.415995419025,0.069013081491,-0.139330387115,-0.38245935,0.2745862,8.83579165,0.0,-11.33664608,13.1985273361,3.08139038086,0.437558054924,-0.0553654879332,-0.0791805163026,16.7700004578,-372.716339111,17.5356464386,178.9084625244,-8.211340457199,31.714635848999997,-21.68701744082,24.838711738599997,3.056194305419999,16.0
2018-09-11 22:02:44.600,-0.126039056731,-0.11983491973,-0.889427268924,0.415995419025,0.069013081491,-0.139330387115,-0.38245935,0.2745862,8.83579165,0.0,-11.33664608,13.1985273361,3.08139038086,0.437558054924,-0.0553654879332,-0.0791805163026,16.5100002289,-372.716339111,18.0492115021,177.99180603029998,-7.1393490582718995,25.666166305599997,-21.74843120572,24.5445890427,2.986453294749999,16.0
2018-09-11 22:02:44.650,-0.126039056731,-0.11983491973,-0.889427268924,0.415995419025,0.069013081491,-0.139330387115,-0.38245935,0.2745862,8.83579165,0.0,-11.33664608,13.1985273361,3.08139038086,0.437558054924,-0.0553654879332,-0.0791805163026,16.2600002289,-338.899810791,18.6040534973,178.99180603029998,-7.489349037409999,25.666166305599997,-21.81035900112,24.3062896729,2.9532628059399992,16.0
2018-09-11 22:02:44.700,-0.126039056731,-0.11983491973,-0.889427268924,0.415995419025,0.069013081491,-0.139330387115,-0.38245935,0.2745862,8.83579165,0.0,-11.33664608,13.1985273361,3.08139038086,0.437558054924,-0.0553654879332,-0.0791805163026,16.2600002289,-338.899810791,18.6040534973,178.99180603029998,-7.469349056484,25.666166305599997,-21.857487678520002,24.141669273399998,2.9329748153699993,16.0
2018-09-11 22:02:44.750,-0.126039056731,-0.11983491973,-0.889427268924,0.415995419025,0.069013081491,-0.139330387115,-0.38245935,0.2745862,8.83579165,0.0,-10.4040822983,13.4313621521,2.90316224098,0.415995419025,0.069013081491,-0.139330387115,16.0100002289,-298.76651001,19.1723384857,179.99180603029998,-7.859349012376,25.676164627099997,-21.911347389219998,23.9720535279,2.903162240979999,16.0
2018-09-11 22:02:44.800,-0.126039056731,-0.11983491973,-0.889427268924,0.415995419025,0.069013081491,-0.139330387115,-0.38245935,0.2745862,8.83579165,0.0,-10.4040822983,13.4313621521,2.90316224098,0.415995419025,0.069013081491,-0.139330387115,16.0100002289,-298.76651001,19.1723384857,179.99180603029998,-7.819349050523,25.686166763299997,-22.02482032772,23.6392936707,2.7996163368199993,16.0
2018-09-11 22:02:44.850,-0.126039056731,-0.11983491973,-0.889427268924,0.415995419025,0.069013081491,-0.139330387115,-0.38245935,0.2745862,8.83579165,0.0,-10.4040822983,13.4313621521,2.90316224098,0.415995419025,0.069013081491,-0.139330387115,15.779999733,-298.76651001,19.7958259583,180.99180603029998,-8.129348993299999,25.6961650849,-22.11862468722,23.38710784917,2.7081661224399993,16.0
2018-09-11 22:02:44.900,-0.126039056731,-0.11983491973,-0.889427268924,0.415995419025,0.069013081491,-0.139330387115,-0.38245935,0.2745862,8.83579165,0.0,-10.4040822983,13.4313621521,2.90316224098,0.415995419025,0.069013081491,-0.139330387115,15.779999733,-298.76651001,19.7958259583,180.99180603029998,-8.09934902191,25.6961650849,-22.18991470332,23.202001571700002,2.673931121829999,16.0
2018-09-11 22:02:44.950,-0.126039056731,-0.11983491973,-0.889427268924,0.415995419025,0.069013081491,-0.139330387115,-0.38245935,0.2745862,8.83579165,0.0,-10.4040822983,13.4313621521,2.90316224098,0.415995419025,0.069013081491,-0.139330387115,15.5499992371,-298.76651001,20.4417114258,181.99180603029998,-8.39934897423,25.6961650849,-22.18991470332,23.202001571700002,2.673931121829999,16.0
2018-09-11 22:02:45.000,-0.172626416485,-0.228269294618,-0.861260217578,0.322959572077,0.0703200921416,-0.0637494400144,-0.0784532,0.51975245,9.9439431,0.0,-9.29475593567,13.838757515,2.534273386,0.415995419025,0.069013081491,-0.139330387115,15.5499992371,-298.76651001,20.4417114258,181.99180603029998,-8.379348993299999,25.7061672211,-22.34470272062,22.79227924352,2.477579355239999,16.0
2018-09-11 22:02:45.050,-0.172626416485,-0.228269294618,-0.861260217578,0.322959572077,0.0703200921416,-0.0637494400144,-0.0784532,0.51975245,9.9439431,0.0,-9.29475593567,13.838757515,2.534273386,0.415995419025,0.069013081491,-0.139330387115,15.5499992371,-298.76651001,20.4417114258,181.99180603029998,-8.379348993299999,25.7061672211,-22.34470272062,22.79227924352,2.477579355239999,16.0
2018-09-11 22:02:45.100,-0.172626416485,-0.228269294618,-0.861260217578,0.322959572077,0.0703200921416,-0.0637494400144,-0.0784532,0.51975245,9.9439431,0.0,-9.29475593567,13.838757515,2.534273386,0.415995419025,0.069013081491,-0.139330387115,15.3299999237,-270.850189209,21.1427974701,181.2322540283,-7.604477882379999,11.784477233900006,-22.448711395220002,22.49720382695,2.126365661619999,16.0
2018-09-11 22:02:45.150,-0.172626416485,-0.228269294618,-0.861260217578,0.322959572077,0.0703200921416,-0.0637494400144,-0.0784532,0.51975245,9.9439431,0.0,-9.29475593567,13.838757515,2.534273386,0.415995419025,0.069013081491,-0.139330387115,15.1399993896,-270.850189209,21.8667602539,181.2322540283,-7.6844779252999995,11.8344764709,-22.51492691042,22.33137989049,1.879589200019999,16.0
2018-09-11 22:02:45.200,-0.172626416485,-0.228269294618,-0.861260217578,0.322959572077,0.0703200921416,-0.0637494400144,-0.0784532,0.51975245,9.9439431,0.0,-8.6109457016,14.0970602036,1.60632181168,0.322959572077,0.0703200921416,-0.0637494400144,14.9899997711,-240.868560791,22.6225700378,182.2322540283,-7.66447782516,11.874477386400002,-22.55514049532,22.23084068303,1.694969296459999,16.0
2018-09-11 22:02:45.250,-0.172626416485,-0.228269294618,-0.861260217578,0.322959572077,0.0703200921416,-0.0637494400144,-0.0784532,0.51975245,9.9439431,0.0,-8.6109457016,14.0970602036,1.60632181168,0.322959572077,0.0703200921416,-0.0637494400144,14.9899997711,-240.868560791,22.6225700378,182.2322540283,-7.66447782516,11.874477386400002,-22.55514049532,22.23084068303,1.694969296459999,16.0
2018-09-11 22:02:45.300,-0.172626416485,-0.228269294618,-0.861260217578,0.322959572077,0.0703200921416,-0.0637494400144,-0.0784532,0.51975245,9.9439431,0.0,-8.6109457016,14.0970602036,1.60632181168,0.322959572077,0.0703200921416,-0.0637494400144,14.9899997711,-240.868560791,22.6225700378,182.2322540283,-7.604477882379999,11.9344787597,-22.692743301420002,21.92857074742,1.3014518022499988,16.0
