%time,field.orientation.x,field.orientation.y,field.orientation.z,field.angular_velocity.x,field.angular_velocity.y,field.angular_velocity.z,field.linear_acceleration.x,field.linear_acceleration.y,field.linear_acceleration.z,field.data,field.twist.linear.x,field.twist.linear.y,field.twist.linear.z,field.twist.angular.x,field.twist.angular.y,field.twist.angular.z,field.alt_error,field.aspd_error,field.xtrack_error,delta_yaw,delta_pitch,delta_roll,delta_x,delta_y,delta_z,delta_roll_airspeed
2018-09-11 21:37:18.000,,,,,,,,,,0.0,,,,,,,0.199999988079,-397.025878906,-33.5844726562,173.8359603882,1.1286355256999998,20.764421462999998,-3.755588908890106,0.6426773071000014,-0.505438923836,15.0
2018-09-11 21:37:18.050,,,,,,,,,,0.0,-16.6426773071,3.75558590889,-0.505438923836,0.588435173035,0.0233366917819,-0.0497834421694,0.25,-395.18737793,-31.8737869263,173.8359603882,1.3286354541699998,22.634422302300003,-3.942539354060106,0.5776290893999985,-0.508053719997,15.0
2018-09-11 21:37:18.100,,,,,,,,,,0.0,-16.6426773071,3.75558590889,-0.505438923836,0.588435173035,0.0233366917819,-0.0497834421694,0.25,-395.18737793,-31.8737869263,173.8359603882,1.3286354541699998,22.634422302300003,-3.942539354060106,0.5776290893999985,-0.508053719997,15.0
2018-09-11 21:37:18.150,0.000270598359677,-0.172428482249,-0.973313736874,0.424964785576,-0.0484355278313,-0.0601795092225,-0.5295591,0.48052585,9.8262633,0.0,-16.6426773071,3.75558590889,-0.505438923836,0.588435173035,0.0233366917819,-0.0497834421694,0.25,-395.18737793,-31.8737869263,172.8376464844,1.5235142707799998,13.414216995300002,-4.091924806340106,0.5217895508000012,-0.536676704884,15.0
2018-09-11 21:37:18.200,0.000270598359677,-0.172428482249,-0.973313736874,0.424964785576,-0.0484355278313,-0.0601795092225,-0.5295591,0.48052585,9.8262633,0.0,-16.6426773071,3.75558590889,-0.505438923836,0.588435173035,0.0233366917819,-0.0497834421694,0.299999982119,-395.18737793,-30.1566429138,172.8376464844,1.6835143566099997,15.204217910799997,-4.2175933320301064,0.47144508359999904,-0.620077729225,15.0
2018-09-11 21:37:18.250,0.000270598359677,-0.172428482249,-0.973313736874,0.424964785576,-0.0484355278313,-0.0601795092225,-0.5295591,0.48052585,9.8262633,0.0,-16.410402298,4.37320041656,-0.689123749733,0.424964785576,-0.0484355278313,-0.0601795092225,0.359999984503,-387.726196289,-28.4514350891,173.8376464844,1.9635143279999998,16.9042186737,-4.424537368029459,0.39052963259999984,-0.709558486938,15.0
2018-09-11 21:37:18.300,0.000270598359677,-0.172428482249,-0.973313736874,0.424964785576,-0.0484355278313,-0.0601795092225,-0.5295591,0.48052585,9.8262633,0.0,-16.410402298,4.37320041656,-0.689123749733,0.424964785576,-0.0484355278313,-0.0601795092225,0.359999984503,-387.726196289,-28.4514350891,173.8376464844,1.9635143279999998,16.9042186737,-4.424537368029459,0.39052963259999984,-0.709558486938,15.0
2018-09-11 21:37:18.350,0.000270598359677,-0.172428482249,-0.973313736874,0.424964785576,-0.0484355278313,-0.0601795092225,-0.5295591,0.48052585,9.8262633,0.0,-16.410402298,4.37320041656,-0.689123749733,0.424964785576,-0.0484355278313,-0.0601795092225,0.359999984503,-387.726196289,-28.4514350891,173.8376464844,1.9835143089299998,16.8942165375,-4.596163935869459,0.3276672363000017,-0.776152193546,15.0
2018-09-11 21:37:18.400,-0.00985433872438,-0.227663677953,-0.958220402761,0.348769575357,-0.0733922794461,-0.175760522485,-0.4707192,0.71588545,9.34573745,0.0,-16.410402298,4.37320041656,-0.689123749733,0.424964785576,-0.0484355278313,-0.0601795092225,0.42999997735,-387.726196289,-93.7638626099,-36.1623535156,0.2635142803199999,-61.1557826996,-4.78749055406946,0.2545738220000011,-0.819875240326,16.0
2018-09-11 21:37:18.450,-0.00985433872438,-0.227663677953,-0.958220402761,0.348769575357,-0.0733922794461,-0.175760522485,-0.4707192,0.71588545,9.34573745,0.0,-16.1503238678,5.0595574379,-0.855693638325,0.348769575357,-0.0733922794461,-0.175760522485,0.509999990463,-276.403625488,-94.2313995361,-38.6573562622,-1.0399730205500002,-68.55579948420001,-5.059139437889459,0.15032386780000095,-0.855693638325,16.0
2018-09-11 21:37:18.500,-0.00985433872438,-0.227663677953,-0.958220402761,0.348769575357,-0.0733922794461,-0.175760522485,-0.4707192,0.71588545,9.34573745,0.0,-16.1503238678,5.0595574379,-0.855693638325,0.348769575357,-0.0733922794461,-0.175760522485,0.509999990463,-276.403625488,-94.2313995361,-38.6573562622,-1.0999729633300004,-68.5658016205,-5.253096289849459,0.0701637268000006,-0.852983355522,16.0
2018-09-11 21:37:18.550,-0.00985433872438,-0.227663677953,-0.958220402761,0.348769575357,-0.0733922794461,-0.175760522485,-0.4707192,0.71588545,9.34573745,0.0,-16.1503238678,5.0595574379,-0.855693638325,0.348769575357,-0.0733922794461,-0.175760522485,0.599999964237,-276.403625488,-94.7323379517,-38.6573562622,-2.8499729633300004,-69.4657993317,-5.352655596939459,0.02905464170000016,-0.837509214878,16.0
2018-09-11 21:37:18.600,-0.00985433872438,-0.227663677953,-0.958220402761,0.348769575357,-0.0733922794461,-0.175760522485,-0.4707192,0.71588545,9.34573745,0.0,-16.1503238678,5.0595574379,-0.855693638325,0.348769575357,-0.0733922794461,-0.175760522485,0.599999964237,-276.403625488,-94.7323379517,-38.6573562622,-2.9199731349899998,-69.4758014679,-5.479401774619459,-0.02846145630000052,-0.770247101784,16.0
2018-09-11 21:37:18.650,-0.00985433872438,-0.227663677953,-0.958220402761,0.348769575357,-0.0733922794461,-0.175760522485,-0.4707192,0.71588545,9.34573745,0.0,-16.1503238678,5.0595574379,-0.855693638325,0.348769575357,-0.0733922794461,-0.175760522485,0.680000007153,-271.120452881,-95.2666702271,-38.6573562622,-4.689973115920001,-70.1057987213,-5.479401774619459,-0.02846145630000052,-0.770247101784,16.0
2018-09-11 21:37:18.700,-0.00985433872438,-0.227663677953,-0.958220402761,0.348769575357,-0.0733922794461,-0.175760522485,-0.4707192,0.71588545,9.34573745,0.0,-16.1503238678,5.0595574379,-0.855693638325,0.348769575357,-0.0733922794461,-0.175760522485,0.680000007153,-271.120452881,-95.2666702271,-38.6573562622,-4.689973115920001,-70.1057987213,-5.563685126519459,-0.07410907749999929,-0.648270487785,16.0
2018-09-11 21:37:18.750,-0.00985433872438,-0.227663677953,-0.958220402761,0.348769575357,-0.0733922794461,-0.175760522485,-0.4707192,0.71588545,9.34573745,0.0,-15.9128322601,5.57287216187,-0.593771398067,0.348769575357,-0.0733922794461,-0.175760522485,0.680000007153,-271.120452881,-95.2666702271,-38.6573562622,-4.729973077770001,-70.1057987213,-5.572064585899459,-0.08141994480000037,-0.620774209499,16.0
2018-09-11 21:37:18.800,-0.00985433872438,-0.227663677953,-0.958220402761,0.348769575357,-0.0733922794461,-0.175760522485,-0.4707192,0.71588545,9.34573745,0.0,-15.9128322601,5.57287216187,-0.593771398067,0.348769575357,-0.0733922794461,-0.175760522485,0.75,-271.120452881,-95.8121337891,-39.6573562622,-6.519973039630001,-70.4158000946,-5.548896975729459,-0.08863258360000081,-0.550944328308,16.0
2018-09-11 21:37:18.850,0.0292589964883,0.00525917753488,-0.980246494294,-1.29913830757,0.139749094844,-0.0741983056068,-0.51975245,0.71588545,10.79712165,0.0,-15.9128322601,5.57287216187,-0.593771398067,0.348769575357,-0.0733922794461,-0.175760522485,0.789999961853,-264.043609619,-96.3464584351,-42.596343994099996,-8.54961729054,-43.00164914131,-5.491668410509459,-0.08192253110000003,-0.525141537189,16.0
2018-09-11 21:37:18.900,0.0292589964883,0.00525917753488,-0.980246494294,-1.29913830757,0.139749094844,-0.0741983056068,-0.51975245,0.71588545,10.79712165,0.0,-15.9128322601,5.57287216187,-0.593771398067,0.348769575357,-0.0733922794461,-0.175760522485,0.789999961853,-264.043609619,-96.3464584351,-42.596343994099996,-8.53961801524,-42.981648683509995,-5.436222262589459,-0.06905651089999942,-0.547735869884,16.0
2018-09-11 21:37:18.950,0.0292589964883,0.00525917753488,-0.980246494294,-1.29913830757,0.139749094844,-0.0741983056068,-0.51975245,0.71588545,10.79712165,0.0,-15.9128322601,5.57287216187,-0.593771398067,0.348769575357,-0.0733922794461,-0.175760522485,0.839999973774,-270.602416992,-96.8696594238,-42.596343994099996,-10.13961744304,-42.75164914131,-5.436222262589459,-0.06905651089999942,-0.547735869884,16.0
2018-09-11 21:37:19.000,0.0292589964883,0.00525917753488,-0.980246494294,-1.29913830757,0.139749094844,-0.0741983056068,-0.51975245,0.71588545,10.79712165,0.0,-15.9791879654,5.24824094772,-0.679504990578,-1.29913830757,0.139749094844,-0.0741983056068,0.839999973774,-270.602416992,-96.8696594238,-42.596343994099996,-10.10961771014,-42.731648683509995,-5.24782294770946,-0.020812034600000473,-0.679504990578,16.0
2018-09-11 21:37:19.050,0.0292589964883,0.00525917753488,-0.980246494294,-1.29913830757,0.139749094844,-0.0741983056068,-0.51975245,0.71588545,10.79712165,0.0,-15.9791879654,5.24824094772,-0.679504990578,-1.29913830757,0.139749094844,-0.0741983056068,0.889999985695,-270.602416992,-97.3594589233,-42.596343994099996,-11.62961721424,-42.381646394709996,-5.11074752351946,0.023143768299998868,-0.775309085846,16.0
2018-09-11 21:37:19.100,0.0292589964883,0.00525917753488,-0.980246494294,-1.29913830757,0.139749094844,-0.0741983056068,-0.51975245,0.71588545,10.79712165,0.0,-15.9791879654,5.24824094772,-0.679504990578,-1.29913830757,0.139749094844,-0.0741983056068,0.889999985695,-270.602416992,-97.3594589233,-42.596343994099996,-11.59961748124,-42.36164975171,-4.94368953248946,0.07182502750000097,-0.849377214909,16.0
2018-09-11 21:37:19.150,0.0292589964883,0.00525917753488,-0.980246494294,-1.29913830757,0.139749094844,-0.0741983056068,-0.51975245,0.71588545,10.79712165,0.0,-15.9791879654,5.24824094772,-0.679504990578,-1.29913830757,0.139749094844,-0.0741983056068,0.959999978542,-259.201416016,-97.827003479,-42.596343994099996,-13.02961683274,-41.86164975171,-4.750714488239459,0.12899780269999894,-0.934631645679,16.0
2018-09-11 21:37:19.200,0.0749522083519,0.152544840749,-0.966890508715,-0.562316119671,0.0585529021919,0.07235057652,-0.85317855,0.02941995,9.022118,0.0,-16.1835517883,4.55916643143,-1.06485784054,-0.562316119671,0.0585529021919,0.07235057652,0.959999978542,-259.201416016,-97.827003479,-43.107360839799995,-11.206673622170001,-24.149513244599998,-4.689803309649459,0.1484489441000001,-0.976635992527,16.0
2018-09-11 21:37:19.250,0.0749522083519,0.152544840749,-0.966890508715,-0.562316119671,0.0585529021919,0.07235057652,-0.85317855,0.02941995,9.022118,0.0,-16.1835517883,4.55916643143,-1.06485784054,-0.562316119671,0.0585529021919,0.07235057652,1.04999995232,-259.201416016,-98.2500152588,-44.107360839799995,-12.526673316970001,-23.489513397200003,-4.43613070985946,0.21374702450000171,-1.17976391315,16.0
2018-09-11 21:37:19.300,0.0749522083519,0.152544840749,-0.966890508715,-0.562316119671,0.0585529021919,0.07235057652,-0.85317855,0.02941995,9.022118,0.0,-16.1835517883,4.55916643143,-1.06485784054,-0.562316119671,0.0585529021919,0.07235057652,1.04999995232,-259.201416016,-98.2500152588,-44.107360839799995,-12.51667308807,-23.479515075699997,-4.37885016938946,0.22519111629999955,-1.2445230484,16.0
2018-09-11 21:37:19.350,0.0749522083519,0.152544840749,-0.966890508715,-0.562316119671,0.0585529021919,0.07235057652,-0.85317855,0.02941995,9.022118,0.0,-16.1835517883,4.55916643143,-1.06485784054,-0.562316119671,0.0585529021919,0.07235057652,1.15999996662,-257.398223877,-98.6507644653,-44.107360839799995,-13.676672935470002,-22.859512329100003,-4.192388243889459,0.2734851837000001,-1.4563035965,16.0
2018-09-11 21:37:19.400,0.0749522083519,0.152544840749,-0.966890508715,-0.562316119671,0.0585529021919,0.07235057652,-0.85317855,0.02941995,9.022118,0.0,-16.1835517883,4.55916643143,-1.06485784054,-0.562316119671,0.0585529021919,0.07235057652,1.15999996662,-257.398223877,-98.6507644653,-44.107360839799995,-13.65667247767,-22.819515228300002,-4.058947272509459,0.2991504668999987,-1.60029029846,16.0
2018-09-11 21:37:19.450,0.0749522083519,0.152544840749,-0.966890508715,-0.562316119671,0.0585529021919,0.07235057652,-0.85317855,0.02941995,9.022118,0.0,-16.3487663269,3.86172246933,-1.82751452923,-0.562316119671,0.0585529021919,0.07235057652,1.29999995232,-257.398223877,-98.9958496094,-44.107360839799995,-14.676672935470002,-22.119514465300004,-3.861304469319459,0.34876632690000164,-1.82751452923,16.0
2018-09-11 21:37:19.500,0.107604496673,0.222482010677,-0.956150348556,-0.309435963631,0.0210109949112,0.264506697655,-1.2160246,-0.0392266,7.2765343,0.0,-16.3487663269,3.86172246933,-1.82751452923,-0.562316119671,0.0585529021919,0.07235057652,1.29999995232,-257.398223877,-98.9958496094,-44.107360839799995,-14.66667270657,-22.0795135498,-3.724181122989459,0.37733268739999914,-1.9785169363,16.0
2018-09-11 21:37:19.550,0.107604496673,0.222482010677,-0.956150348556,-0.309435963631,0.0210109949112,0.264506697655,-1.2160246,-0.0392266,7.2765343,0.0,-16.3487663269,3.86172246933,-1.82751452923,-0.562316119671,0.0585529021919,0.07235057652,1.4699999094,-247.552871704,-99.3186721802,-41.5900344849,-12.772733211510001,-12.602155685399996,-3.417247958389459,0.45235252379999835,-2.268648386,16.0
2018-09-11 21:37:19.600,0.107604496673,0.222482010677,-0.956150348556,-0.309435963631,0.0210109949112,0.264506697655,-1.2160246,-0.0392266,7.2765343,0.0,-16.3487663269,3.86172246933,-1.82751452923,-0.562316119671,0.0585529021919,0.07235057652,1.4699999094,-247.552871704,-99.3186721802,-41.5900344849,-12.75273275371,-12.562158584599995,-3.2554032280194587,0.49404716489999956,-2.40246844292,16.0
2018-09-11 21:37:19.650,0.107604496673,0.222482010677,-0.956150348556,-0.309435963631,0.0210109949112,0.264506697655,-1.2160246,-0.0392266,7.2765343,0.0,-16.3487663269,3.86172246933,-1.82751452923,-0.562316119671,0.0585529021919,0.07235057652,1.68999993801,-247.552871704,-99.5858383179,-41.5900344849,-13.58273267741,-11.642156600899998,-3.091553874229459,0.5344085692999982,-2.53913617134,16.0
2018-09-11 21:37:19.700,0.107604496673,0.222482010677,-0.956150348556,-0.309435963631,0.0210109949112,0.264506697655,-1.2160246,-0.0392266,7.2765343,0.0,-16.5944766998,2.84130430222,-2.71883320808,-0.309435963631,0.0210109949112,0.264506697655,1.68999993801,-247.552871704,-99.5858383179,-41.5900344849,-13.572732448610001,-11.602155685399996,-2.840886302209459,0.5944766998000013,-2.71883320808,16.0
2018-09-11 21:37:19.750,0.107604496673,0.222482010677,-0.956150348556,-0.309435963631,0.0210109949112,0.264506697655,-1.2160246,-0.0392266,7.2765343,0.0,-16.5944766998,2.84130430222,-2.71883320808,-0.309435963631,0.0210109949112,0.264506697655,1.68999993801,-247.552871704,-99.5858383179,-41.5900344849,-13.572732448610001,-11.602155685399996,-2.840886302209459,0.5944766998000013,-2.71883320808,16.0
2018-09-11 21:37:19.800,0.107604496673,0.222482010677,-0.956150348556,-0.309435963631,0.0210109949112,0.264506697655,-1.2160246,-0.0392266,7.2765343,0.0,-16.5944766998,2.84130430222,-2.71883320808,-0.309435963631,0.0210109949112,0.264506697655,1.93999993801,-238.312530518,-99.8307418823,-42.5900344849,-13.58273267741,-10.5421581268,-2.485465474339459,0.6772251129000004,-2.97580289841,16.0
2018-09-11 21:37:19.850,0.135314927035,0.25465661085,-0.951556568878,-0.147329837084,0.169655099511,0.321910202503,-1.34351105,-0.10787315,7.60015375,0.0,-16.5944766998,2.84130430222,-2.71883320808,-0.309435963631,0.0210109949112,0.264506697655,2.21000003815,-238.312530518,-100.008850098,-42.5900344849,-13.472732067110002,-9.4221591949,-2.239544577809459,0.7317790984999988,-3.20177936554,16.0
2018-09-11 21:37:19.900,0.135314927035,0.25465661085,-0.951556568878,-0.147329837084,0.169655099511,0.321910202503,-1.34351105,-0.10787315,7.60015375,0.0,-16.5944766998,2.84130430222,-2.71883320808,-0.309435963631,0.0210109949112,0.264506697655,2.21000003815,-238.312530518,-100.008850098,-38.124740600600006,-9.506574630700001,-5.308744430500003,-2.091458268379459,0.7638130188000005,-3.35234665871,16.0
2018-09-11 21:37:19.950,0.135314927035,0.25465661085,-0.951556568878,-0.147329837084,0.169655099511,0.321910202503,-1.34351105,-0.10787315,7.60015375,0.0,-16.5944766998,2.84130430222,-2.71883320808,-0.309435963631,0.0210109949112,0.264506697655,2.21000003815,-238.312530518,-100.008850098,-38.124740600600006,-9.506574630700001,-5.308744430500003,-2.091458268379459,0.7638130188000005,-3.35234665871,16.0
2018-09-11 21:37:20.000,0.135314927035,0.25465661085,-0.951556568878,-0.147329837084,0.169655099511,0.321910202503,-1.34351105,-0.10787315,7.60015375,0.0,-16.8532142639,1.62552964687,-3.88675880432,-0.147329837084,0.169655099511,0.321910202503,2.52999997139,-178.509140015,-100.16469574,-38.124740600600006,-9.446575164799999,-4.148744583100001,-1.699935503219459,0.8386001587000003,-3.79875707626,16.0
2018-09-11 21:37:20.050,0.135314927035,0.25465661085,-0.951556568878,-0.147329837084,0.169655099511,0.321910202503,-1.34351105,-0.10787315,7.60015375,0.0,-16.8532142639,1.62552964687,-3.88675880432,-0.147329837084,0.169655099511,0.321910202503,2.87999987602,-178.509140015,-100.253753662,-38.124740600600006,-9.446575164799999,-3.0587444305000027,-1.372531600209459,0.9076747894000015,-4.12795257568,16.0
2018-09-11 21:37:20.100,0.135314927035,0.25465661085,-0.951556568878,-0.147329837084,0.169655099511,0.321910202503,-1.34351105,-0.10787315,7.60015375,0.0,-16.8532142639,1.62552964687,-3.88675880432,-0.147329837084,0.169655099511,0.321910202503,2.87999987602,-178.509140015,-100.253753662,-38.124740600600006,-9.4565753937,-2.9787464141999997,-1.277396149849459,0.9287414550999991,-4.20686292648,16.0
2018-09-11 21:37:20.150,0.135314927035,0.25465661085,-0.951556568878,-0.147329837084,0.169655099511,0.321910202503,-1.34351105,-0.10787315,7.60015375,0.0,-16.8532142639,1.62552964687,-3.88675880432,-0.147329837084,0.169655099511,0.321910202503,3.27999997139,-183.334533691,-100.331672668,-38.124740600600006,-9.486574173000001,-1.6987438201999971,-0.9225984289364589,1.0116901397999989,-4.48810720444,16.0
2018-09-11 21:37:20.200,0.135314927035,0.25465661085,-0.951556568878,-0.147329837084,0.169655099511,0.321910202503,-1.34351105,-0.10787315,7.60015375,0.0,-16.8532142639,1.62552964687,-3.88675880432,-0.147329837084,0.169655099511,0.321910202503,3.27999997139,-183.334533691,-100.331672668,-38.124740600600006,-9.496574401899998,-1.6587467193000016,-0.826231785031459,1.0355186462,-4.55402183533,16.0
2018-09-11 21:37:20.250,0.135314927035,0.25465661085,-0.951556568878,-0.147329837084,0.169655099511,0.321910202503,-1.34351105,-0.10787315,7.60015375,0.0,-17.0828552246,0.633499085903,-4.68848133087,-0.147329837084,0.169655099511,0.321910202503,3.70999979973,-183.334533691,-100.342803955,-38.124740600600006,-9.4165744781,-0.33874511719999845,-0.444102175446459,1.1311340331999986,-4.82190036774,16.0
2018-09-11 21:37:20.300,0.168408660796,0.260535982447,-0.949672364574,-0.221611171961,0.0145465638489,0.253898411989,-1.50041745,0.2549729,8.30623255,0.0,-17.0828552246,0.633499085903,-4.68848133087,-0.147329837084,0.169655099511,0.321910202503,3.70999979973,-183.334533691,-100.342803955,-32.26518249510001,-3.7468090057999994,0.3375930786000012,-0.255190141411459,1.1751556395999998,-4.95632457733,16.0
2018-09-11 21:37:20.350,0.168408660796,0.260535982447,-0.949672364574,-0.221611171961,0.0145465638489,0.253898411989,-1.50041745,0.2549729,8.30623255,0.0,-17.0828552246,0.633499085903,-4.68848133087,-0.147329837084,0.169655099511,0.321910202503,4.17999982834,-189.917373657,-100.320541382,-33.26518249510001,-3.5968093872000004,1.6575927734000047,0.034651234833341,1.2442722320999984,-5.15204668045,16.0
2018-09-11 21:37:20.400,0.168408660796,0.260535982447,-0.949672364574,-0.221611171961,0.0145465638489,0.253898411989,-1.50041745,0.2549729,8.30623255,0.0,-17.0828552246,0.633499085903,-4.68848133087,-0.147329837084,0.169655099511,0.321910202503,4.17999982834,-189.917373657,-100.320541382,-33.26518249510001,-3.5568103791,1.677593231200003,0.12890171268354098,1.2641067505000017,-5.22584724426,16.0
2018-09-11 21:37:20.450,0.168408660796,0.260535982447,-0.949672364574,-0.221611171961,0.0145465638489,0.253898411989,-1.50041745,0.2549729,8.30623255,0.0,-17.3561267853,-0.576369702816,-5.55983734131,-0.221611171961,0.0145465638489,0.253898411989,4.67999982834,-189.917373657,-100.242622375,-33.26518249510001,-3.5968093872000004,2.987592697100002,0.487716160801541,1.3354263306000007,-5.49805355072,16.0
2018-09-11 21:37:20.500,0.168408660796,0.260535982447,-0.949672364574,-0.221611171961,0.0145465638489,0.253898411989,-1.50041745,0.2549729,8.30623255,0.0,-17.3561267853,-0.576369702816,-5.55983734131,-0.221611171961,0.0145465638489,0.253898411989,4.67999982834,-189.917373657,-100.242622375,-33.26518249510001,-3.656808853200001,3.007593154900004,0.6701786444465411,1.3778572083,-5.61682271957,16.0
2018-09-11 21:37:20.550,0.168408660796,0.260535982447,-0.949672364574,-0.221611171961,0.0145465638489,0.253898411989,-1.50041745,0.2549729,8.30623255,0.0,-17.3561267853,-0.576369702816,-5.55983734131,-0.221611171961,0.0145465638489,0.253898411989,5.21000003815,-187.383087158,-100.120170593,-33.26518249510001,-3.7868099213000015,4.317592620800003,0.6701786444465411,1.3778572083,-5.61682271957,16.0
2018-09-11 21:37:20.600,0.168408660796,0.260535982447,-0.949672364574,-0.221611171961,0.0145465638489,0.253898411989,-1.50041745,0.2549729,8.30623255,0.0,-17.3561267853,-0.576369702816,-5.55983734131,-0.221611171961,0.0145465638489,0.253898411989,5.21000003815,-187.383087158,-100.120170593,-33.26518249510001,-3.7868099213000015,4.317592620800003,1.060361079960541,1.4687366486000002,-5.83646917343,16.0
2018-09-11 21:37:20.650,0.169592534129,0.256246257913,-0.951617132858,0.142093613744,-0.0922234654427,0.271739423275,-1.6082906,0.16671305,8.7475318,0.0,-17.3561267853,-0.576369702816,-5.55983734131,-0.221611171961,0.0145465638489,0.253898411989,5.78999996185,-187.383087158,-99.9531936646,-33.26518249510001,-4.0268096924000005,5.7275943756000025,1.060361079960541,1.4687366486000002,-5.83646917343,16.0
2018-09-11 21:37:20.700,0.169592534129,0.256246257913,-0.951617132858,0.142093613744,-0.0922234654427,0.271739423275,-1.6082906,0.16671305,8.7475318,0.0,-17.3561267853,-0.576369702816,-5.55983734131,-0.221611171961,0.0145465638489,0.253898411989,5.78999996185,-187.383087158,-99.9531936646,-28.150756835899998,-2.567266464300001,4.5078125,1.541996412070541,1.5869884491000015,-6.05022764206,16.0
2018-09-11 21:37:20.750,0.169592534129,0.256246257913,-0.951617132858,0.142093613744,-0.0922234654427,0.271739423275,-1.6082906,0.16671305,8.7475318,0.0,-17.6398487091,-1.73426556587,-6.11989307404,0.142093613744,-0.0922234654427,0.271739423275,6.3799996376,-205.693634033,-99.74168396,-28.150756835899998,-2.7472648620999998,5.967813491799998,1.8308611438505409,1.6647033690999997,-6.15379810333,16.0
2018-09-11 21:37:20.800,0.169592534129,0.256246257913,-0.951617132858,0.142093613744,-0.0922234654427,0.271739423275,-1.6082906,0.16671305,8.7475318,0.0,-17.6398487091,-1.73426556587,-6.11989307404,0.142093613744,-0.0922234654427,0.271739423275,6.3799996376,-205.693634033,-99.74168396,-28.150756835899998,-2.887266159100001,6.017812728899997,2.0757618472805413,1.7150974274,-6.30911684036,16.0
2018-09-11 21:37:20.850,0.169592534129,0.256246257913,-0.951617132858,0.142093613744,-0.0922234654427,0.271739423275,-1.6082906,0.16671305,8.7475318,0.0,-17.6398487091,-1.73426556587,-6.11989307404,0.142093613744,-0.0922234654427,0.271739423275,6.98999977112,-205.693634033,-99.4745178223,-28.150756835899998,-3.1172657013000027,7.337812423699997,2.208277992990541,1.7285861969000003,-6.46452331543,16.0
2018-09-11 21:37:20.900,0.169592534129,0.256246257913,-0.951617132858,0.142093613744,-0.0922234654427,0.271739423275,-1.6082906,0.16671305,8.7475318,0.0,-17.6398487091,-1.73426556587,-6.11989307404,0.142093613744,-0.0922234654427,0.271739423275,6.98999977112,-205.693634033,-99.4745178223,-28.150756835899998,-3.287265777600002,7.3978118896,2.3126667068305413,1.7303199768000006,-6.63891839981,16.0
2018-09-11 21:37:20.950,0.169592534129,0.256246257913,-0.951617132858,0.142093613744,-0.0922234654427,0.271739423275,-1.6082906,0.16671305,8.7475318,0.0,-17.7319984436,-2.52442574501,-7.00874662399,0.142093613744,-0.0922234654427,0.271739423275,7.6299996376,-205.693634033,-99.1962203979,-28.150756835899998,-3.637266159100001,8.3578128815,2.524843745020541,1.7319984435999984,-7.00874662399,16.0
2018-09-11 21:37:21.000,0.169592534129,0.256246257913,-0.951617132858,0.142093613744,-0.0922234654427,0.271739423275,-1.6082906,0.16671305,8.7475318,0.0,-17.7319984436,-2.52442574501,-7.00874662399,0.142093613744,-0.0922234654427,0.271739423275,7.6299996376,-205.693634033,-99.1962203979,-28.150756835899998,-3.717266082800002,8.3778133392,2.590288214470541,1.7413959502999994,-7.08029460907,16.0
2018-09-11 21:37:21.050,0.182448564153,0.205691959846,-0.960028482584,0.246681883931,-0.100510828197,0.391792446375,-1.85345685,-0.0196133,7.42363405,0.0,-17.7319984436,-2.52442574501,-7.00874662399,0.142093613744,-0.0922234654427,0.271739423275,8.31999969482,-234.707641602,-98.8733978271,-28.150756835899998,-3.027265548700001,9.4378128052,2.806619457990541,1.7748870849999996,-7.2583155632,16.0
2018-09-11 21:37:21.100,0.182448564153,0.205691959846,-0.960028482584,0.246681883931,-0.100510828197,0.391792446375,-1.85345685,-0.0196133,7.42363405,0.0,-17.7319984436,-2.52442574501,-7.00874662399,0.142093613744,-0.0922234654427,0.271739423275,8.31999969482,-234.707641602,-98.8733978271,-21.419235229500003,-0.07842254640000235,2.3413944244000007,2.9659479186805413,1.8075485228999995,-7.33382081985,16.0
2018-09-11 21:37:21.150,0.182448564153,0.205691959846,-0.960028482584,0.246681883931,-0.100510828197,0.391792446375,-1.85345685,-0.0196133,7.42363405,0.0,-17.7319984436,-2.52442574501,-7.00874662399,0.142093613744,-0.0922234654427,0.271739423275,9.03999996185,-232.736022949,-98.5283126831,-21.419235229500003,2.3215770720999984,3.6413936615000004,3.337167792110541,1.908485412600001,-7.38399839401,16.0
2018-09-11 21:37:21.200,0.182448564153,0.205691959846,-0.960028482584,0.246681883931,-0.100510828197,0.391792446375,-1.85345685,-0.0196133,7.42363405,0.0,-17.7319984436,-2.52442574501,-7.00874662399,0.142093613744,-0.0922234654427,0.271739423275,9.03999996185,-232.736022949,-98.5283126831,-21.419235229500003,2.311576843200001,3.6413936615000004,3.337167792110541,1.908485412600001,-7.38399839401,16.0
2018-09-11 21:37:21.250,0.182448564153,0.205691959846,-0.960028482584,0.246681883931,-0.100510828197,0.391792446375,-1.85345685,-0.0196133,7.42363405,0.0,-18.0151882172,-3.75182771683,-7.35090112686,0.246681883931,-0.100510828197,0.391792446375,9.76999950409,-232.736022949,-98.1275634766,-22.419235229500003,4.6115779876000005,5.241394043,3.647349648260541,1.989589691199999,-7.36182355881,16.0
2018-09-11 21:37:21.300,0.182448564153,0.205691959846,-0.960028482584,0.246681883931,-0.100510828197,0.391792446375,-1.85345685,-0.0196133,7.42363405,0.0,-18.0151882172,-3.75182771683,-7.35090112686,0.246681883931,-0.100510828197,0.391792446375,9.76999950409,-232.736022949,-98.1275634766,-22.419235229500003,4.6115779876000005,5.241394043,3.9487844035905413,2.059843063399999,-7.35261821747,16.0
2018-09-11 21:37:21.350,0.17876696684,0.185543197422,-0.961443787991,0.108460590243,-0.038425385952,0.151350513101,-2.0593965,0.5491724,9.9439431,0.0,-18.0151882172,-3.75182771683,-7.35090112686,0.246681883931,-0.100510828197,0.391792446375,10.5,-247.417633057,-97.6934204102,-22.419235229500003,6.8815774917,6.8913936615,4.235410504130541,2.1115531921000006,-7.40137481689,16.0
2018-09-11 21:37:21.400,0.17876696684,0.185543197422,-0.961443787991,0.108460590243,-0.038425385952,0.151350513101,-2.0593965,0.5491724,9.9439431,0.0,-18.0151882172,-3.75182771683,-7.35090112686,0.246681883931,-0.100510828197,0.391792446375,10.5,-247.417633057,-97.6934204102,-16.640335082999997,7.3379564286,3.413408279499997,4.41362696150054,2.1451969147000014,-7.42599964142,16.0
2018-09-11 21:37:21.450,0.17876696684,0.185543197422,-0.961443787991,0.108460590243,-0.038425385952,0.151350513101,-2.0593965,0.5491724,9.9439431,0.0,-18.0151882172,-3.75182771683,-7.35090112686,0.246681883931,-0.100510828197,0.391792446375,11.2299995422,-247.417633057,-97.1924819946,-16.640335082999997,9.6579570771,4.8934078216999986,4.746990017680541,2.2214012146,-7.46937894821,16.0
2018-09-11 21:37:21.500,0.17876696684,0.185543197422,-0.961443787991,0.108460590243,-0.038425385952,0.151350513101,-2.0593965,0.5491724,9.9439431,0.0,-18.2214012146,-4.74657201767,-7.46937894821,0.108460590243,-0.038425385952,0.151350513101,11.2299995422,-247.417633057,-97.1924819946,-16.640335082999997,9.6479568482,4.8934078216999986,4.825787834910541,2.2420425414999983,-7.48591375351,16.0
2018-09-11 21:37:21.550,0.17876696684,0.185543197422,-0.961443787991,0.108460590243,-0.038425385952,0.151350513101,-2.0593965,0.5491724,9.9439431,0.0,-18.2214012146,-4.74657201767,-7.46937894821,0.108460590243,-0.038425385952,0.151350513101,11.9699993134,-280.449493408,-96.6581497192,-16.640335082999997,11.9579563141,6.253408432099999,5.153576187880541,2.327743530300001,-7.48290681839,16.0
2018-09-11 21:37:21.600,0.17876696684,0.185543197422,-0.961443787991,0.108460590243,-0.038425385952,0.151350513101,-2.0593965,0.5491724,9.9439431,0.0,-18.2214012146,-4.74657201767,-7.46937894821,0.108460590243,-0.038425385952,0.151350513101,11.9699993134,-280.449493408,-96.6581497192,-16.640335082999997,11.9479570389,6.243408203199998,5.31702881315054,2.382732391400001,-7.45679807663,16.0
2018-09-11 21:37:21.650,0.171046446761,0.153575424066,-0.967480179028,0.199242427945,-0.147981882095,0.100323051214,-1.8436502,0.0588399,11.22861425,0.0,-18.2214012146,-4.74657201767,-7.46937894821,0.108460590243,-0.038425385952,0.151350513101,12.7199993134,-280.449493408,-96.0681610107,-16.640335082999997,14.1979570389,7.5534076690999985,5.464762501510541,2.4334640502999996,-7.4365644455,16.0
2018-09-11 21:37:21.700,0.171046446761,0.153575424066,-0.967480179028,0.199242427945,-0.147981882095,0.100323051214,-1.8436502,0.0588399,11.22861425,0.0,-18.2214012146,-4.74657201767,-7.46937894821,0.108460590243,-0.038425385952,0.151350513101,12.7199993134,-280.449493408,-96.0681610107,-14.6294174194,13.198313713120001,3.412844657900001,5.60833912351054,2.4929866790999995,-7.40722703934,16.0
2018-09-11 21:37:21.750,0.171046446761,0.153575424066,-0.967480179028,0.199242427945,-0.147981882095,0.100323051214,-1.8436502,0.0588399,11.22861425,0.0,-18.5779399872,-5.82825422287,-7.34281778336,0.199242427945,-0.147981882095,0.100323051214,12.7199993134,-280.449493408,-96.0681610107,-14.6294174194,13.198313713120001,3.412844657900001,5.60833912351054,2.4929866790999995,-7.40722703934,16.0
2018-09-11 21:37:21.800,0.171046446761,0.153575424066,-0.967480179028,0.199242427945,-0.147981882095,0.100323051214,-1.8436502,0.0588399,11.22861425,0.0,-18.5779399872,-5.82825422287,-7.34281778336,0.199242427945,-0.147981882095,0.100323051214,13.4499998093,-280.449493408,-95.4670410156,-14.6294174194,15.40831327443,4.5228443146,5.986728005200541,2.6278915404999985,-7.28685092926,16.0
2018-09-11 21:37:21.850,0.171046446761,0.153575424066,-0.967480179028,0.199242427945,-0.147981882095,0.100323051214,-1.8436502,0.0588399,11.22861425,0.0,-18.5779399872,-5.82825422287,-7.34281778336,0.199242427945,-0.147981882095,0.100323051214,14.1799993515,-318.100738525,-94.7991256714,-14.6294174194,17.49831342702,5.7928447724000005,6.326545052320541,2.7754440307999992,-7.02808904648,16.0
2018-09-11 21:37:21.900,0.171046446761,0.153575424066,-0.967480179028,0.199242427945,-0.147981882095,0.100323051214,-1.8436502,0.0588399,11.22861425,0.0,-18.5779399872,-5.82825422287,-7.34281778336,0.199242427945,-0.147981882095,0.100323051214,14.1799993515,-318.100738525,-94.7991256714,-14.6294174194,17.48831343656,5.7728443146,6.414528183730541,2.8175678252999994,-6.93973970413,16.0
2018-09-11 21:37:21.950,0.171046446761,0.153575424066,-0.967480179028,0.199242427945,-0.147981882095,0.100323051214,-1.8436502,0.0588399,11.22861425,0.0,-18.9596195221,-6.70398902893,-6.57519388199,0.199242427945,-0.147981882095,0.100323051214,14.8800001144,-318.100738525,-94.1200866699,-14.6294174194,19.3083133698,7.19284439089,6.70440702894054,2.959619522099999,-6.57519388199,16.0
2018-09-11 21:37:22.000,0.171046446761,0.153575424066,-0.967480179028,0.199242427945,-0.147981882095,0.100323051214,-1.8436502,0.0588399,11.22861425,0.0,-18.9596195221,-6.70398902893,-6.57519388199,0.199242427945,-0.147981882095,0.100323051214,14.8800001144,-318.100738525,-94.1200866699,-14.6294174194,19.29831337934,7.162844657920001,6.905448250560541,3.0518550873000017,-6.29704046249,16.0
2018-09-11 21:37:22.050,0.122512888003,0.111519471522,-0.975225361781,0.177118495107,-0.398783504963,0.281552374363,-1.0395049,0.24516625,17.66177665,0.0,-18.9596195221,-6.70398902893,-6.57519388199,0.199242427945,-0.147981882095,0.100323051214,15.5199995041,-360.82611084,-93.3742446899,-8.412986755000006,15.272551327966001,3.4163274764500002,7.20473652342054,3.188741684,-5.854347229,16.0
2018-09-11 21:37:22.100,0.122512888003,0.111519471522,-0.975225361781,0.177118495107,-0.398783504963,0.281552374363,-1.0395049,0.24516625,17.66177665,0.0,-18.9596195221,-6.70398902893,-6.57519388199,0.199242427945,-0.147981882095,0.100323051214,15.5199995041,-360.82611084,-93.3742446899,-8.412986755000006,15.272551327966001,3.3763275146,7.508884243750541,3.3057727814000017,-5.37331438065,16.0
2018-09-11 21:37:22.150,0.122512888003,0.111519471522,-0.975225361781,0.177118495107,-0.398783504963,0.281552374363,-1.0395049,0.24516625,17.66177665,0.0,-18.9596195221,-6.70398902893,-6.57519388199,0.199242427945,-0.147981882095,0.100323051214,16.0799999237,-431.902496338,-92.5838851929,-8.412986755000006,16.542551279090002,5.23632764811,7.824985794810541,3.3974246979,-4.90601921082,16.0
2018-09-11 21:37:22.200,0.122512888003,0.111519471522,-0.975225361781,0.177118495107,-0.398783504963,0.281552374363,-1.0395049,0.24516625,17.66177665,0.0,-19.4368629456,-8.01185035706,-4.6346244812,0.177118495107,-0.398783504963,0.281552374363,16.0799999237,-431.902496338,-92.5838851929,-8.412986755000006,16.542551279090002,5.2263274192299995,7.917548947120541,3.4207553863999998,-4.76897525787,16.0
2018-09-11 21:37:22.250,0.122512888003,0.111519471522,-0.975225361781,0.177118495107,-0.398783504963,0.281552374363,-1.0395049,0.24516625,17.66177665,0.0,-19.4368629456,-8.01185035706,-4.6346244812,0.177118495107,-0.398783504963,0.281552374363,16.5499992371,-431.902496338,-91.7155990601,-8.412986755000006,17.67255127432,7.186327695799999,8.19795542219054,3.4698009491000015,-4.37384366989,16.0
2018-09-11 21:37:22.300,0.122512888003,0.111519471522,-0.975225361781,0.177118495107,-0.398783504963,0.281552374363,-1.0395049,0.24516625,17.66177665,0.0,-19.4368629456,-8.01185035706,-4.6346244812,0.177118495107,-0.398783504963,0.281552374363,16.5499992371,-431.902496338,-91.7155990601,-8.412986755000006,17.67255127432,7.176327705329999,8.37866526106054,3.4949207306000005,-4.07487630844,16.0
2018-09-11 21:37:22.350,0.068646426426,0.104434045106,-0.974718885723,-0.10502102226,-0.337566465139,0.154709711671,-0.81395195,0.6472389,17.07337765,0.0,-19.4368629456,-8.01185035706,-4.6346244812,0.177118495107,-0.398783504963,0.281552374363,16.9599990845,-431.902496338,-90.8250427246,-3.390144348000007,12.81362891197,8.76047694688,8.66852312544054,3.5113315581999984,-3.65336203575,16.0
2018-09-11 21:37:22.400,0.068646426426,0.104434045106,-0.974718885723,-0.10502102226,-0.337566465139,0.154709711671,-0.81395195,0.6472389,17.07337765,0.0,-19.4368629456,-8.01185035706,-4.6346244812,0.177118495107,-0.398783504963,0.281552374363,16.9599990845,-431.902496338,-90.8250427246,-3.390144348000007,12.81362891197,8.76047694688,8.66852312544054,3.5113315581999984,-3.65336203575,16.0
2018-09-11 21:37:22.450,0.068646426426,0.104434045106,-0.974718885723,-0.10502102226,-0.337566465139,0.154709711671,-0.81395195,0.6472389,17.07337765,0.0,-19.4812393188,-9.20619773865,-2.88352441788,-0.10502102226,-0.337566465139,0.154709711671,17.2999992371,-474.488067627,-89.8565750122,-3.390144348000007,13.63362884522,11.010476887274,9.125933937820541,3.4900665283000016,-3.00483298302,16.0
2018-09-11 21:37:22.500,0.068646426426,0.104434045106,-0.974718885723,-0.10502102226,-0.337566465139,0.154709711671,-0.81395195,0.6472389,17.07337765,0.0,-19.4812393188,-9.20619773865,-2.88352441788,-0.10502102226,-0.337566465139,0.154709711671,17.2999992371,-474.488067627,-89.8565750122,-3.390144348000007,13.63362884522,11.010476887274,9.36780004957054,3.4536209106000015,-2.65377569199,16.0
2018-09-11 21:37:22.550,0.068646426426,0.104434045106,-0.974718885723,-0.10502102226,-0.337566465139,0.154709711671,-0.81395195,0.6472389,17.07337765,0.0,-19.4812393188,-9.20619773865,-2.88352441788,-0.10502102226,-0.337566465139,0.154709711671,17.5799999237,-518.178161621,-88.8547058105,-3.390144348000007,14.3936290741,13.13047695165,9.530896477490542,3.4231777191,-2.42503595352,16.0
2018-09-11 21:37:22.600,0.068646426426,0.104434045106,-0.974718885723,-0.10502102226,-0.337566465139,0.154709711671,-0.81395195,0.6472389,17.07337765,0.0,-19.4812393188,-9.20619773865,-2.88352441788,-0.10502102226,-0.337566465139,0.154709711671,17.5799999237,-518.178161621,-88.8547058105,-3.390144348000007,14.38362884522,13.13047695165,9.74396162489054,3.3723735808999997,-2.11186552048,16.0
2018-09-11 21:37:22.650,0.0292221366687,0.086098941033,-0.975632875404,0.193872973323,-0.217810824513,0.0411600247025,-0.8433719,0.2157463,15.36702055,0.0,-19.4812393188,-9.20619773865,-2.88352441788,-0.10502102226,-0.337566465139,0.154709711671,17.8099994659,-518.178161621,-87.7860412598,-1.280464171999995,10.3244547844,13.70215511322,9.92297678449054,3.3213005066,-1.81070125103,16.0
2018-09-11 21:37:22.700,0.0292221366687,0.086098941033,-0.975632875404,0.193872973323,-0.217810824513,0.0411600247025,-0.8433719,0.2157463,15.36702055,0.0,-19.2863464355,-10.0268344879,-1.61395347118,0.193872973323,-0.217810824513,0.0411600247025,17.8099994659,-518.178161621,-87.7860412598,-1.280464171999995,10.3244547844,13.70215511322,9.97661619642054,3.303934097300001,-1.71450185776,16.0
2018-09-11 21:37:22.750,0.0292221366687,0.086098941033,-0.975632875404,0.193872973323,-0.217810824513,0.0411600247025,-0.8433719,0.2157463,15.36702055,0.0,-19.2863464355,-10.0268344879,-1.61395347118,0.193872973323,-0.217810824513,0.0411600247025,17.9899997711,-533.519775391,-86.7062454224,-1.280464171999995,10.87445449829,15.28215503693,10.13505201791054,3.2458553314000014,-1.41538453102,16.0
2018-09-11 21:37:22.800,0.0292221366687,0.086098941033,-0.975632875404,0.193872973323,-0.217810824513,0.0411600247025,-0.8433719,0.2157463,15.36702055,0.0,-19.2863464355,-10.0268344879,-1.61395347118,0.193872973323,-0.217810824513,0.0411600247025,17.9899997711,-533.519775391,-86.7062454224,-1.280464171999995,10.87445449829,15.28215503693,10.22633486251054,3.204721450800001,-1.23757469654,16.0
2018-09-11 21:37:22.850,0.0292221366687,0.086098941033,-0.975632875404,0.193872973323,-0.217810824513,0.0411600247025,-0.8433719,0.2157463,15.36702055,0.0,-19.2863464355,-10.0268344879,-1.61395347118,0.193872973323,-0.217810824513,0.0411600247025,18.1299991608,-533.519775391,-85.5819320679,-1.280464171999995,11.33445453644,16.67215490342,10.348032288310542,3.1404533386000004,-0.979241013527,16.0
2018-09-11 21:37:22.900,0.0292221366687,0.086098941033,-0.975632875404,0.193872973323,-0.217810824513,0.0411600247025,-0.8433719,0.2157463,15.36702055,0.0,-19.2863464355,-10.0268344879,-1.61395347118,0.193872973323,-0.217810824513,0.0411600247025,18.1299991608,-533.519775391,-85.5819320679,-1.280464171999995,11.3244547844,16.68215465546,10.45023851851054,3.073150634800001,-0.71005153656,16.0
2018-09-11 21:37:22.950,0.0292221366687,0.086098941033,-0.975632875404,0.193872973323,-0.217810824513,0.0411600247025,-0.8433719,0.2157463,15.36702055,0.0,-19.0011005402,-10.5501089096,-0.440774172544,0.193872973323,-0.217810824513,0.0411600247025,18.2399997711,-533.519775391,-84.4798736572,-1.280464171999995,11.69445466996,17.852154731749998,10.550526909610541,3.0011005401999995,-0.440774172544,16.0
2018-09-11 21:37:23.000,0.0292221366687,0.086098941033,-0.975632875404,0.193872973323,-0.217810824513,0.0411600247025,-0.8433719,0.2157463,15.36702055,0.0,-19.0011005402,-10.5501089096,-0.440774172544,0.193872973323,-0.217810824513,0.0411600247025,18.2399997711,-533.519775391,-84.4798736572,-1.280464171999995,11.69445466996,17.852154731749998,10.576602272810542,2.9790725707999997,-0.361902981997,16.0
2018-09-11 21:37:23.050,0.00777642275228,0.0205114438959,-0.974367905598,0.341431647539,-0.167701691389,0.0977640077472,-0.6472389,0.3726527,14.0235095,0.0,-19.0011005402,-10.5501089096,-0.440774172544,0.193872973323,-0.217810824513,0.0411600247025,18.3099994659,-549.90612793,-83.3332901001,1.8559112549999952,8.14464485645,11.961766004560001,10.671867661310541,2.8848285675000014,-0.0367629788816,16.0
2018-09-11 21:37:23.100,0.00777642275228,0.0205114438959,-0.974367905598,0.341431647539,-0.167701691389,0.0977640077472,-0.6472389,0.3726527,14.0235095,0.0,-19.0011005402,-10.5501089096,-0.440774172544,0.193872973323,-0.217810824513,0.0411600247025,18.3099994659,-549.90612793,-83.3332901001,1.8559112549999952,8.14464485645,11.961766004560001,10.68701296311054,2.8628692626999985,0.0564739182591,16.0
2018-09-11 21:37:23.150,0.00777642275228,0.0205114438959,-0.974367905598,0.341431647539,-0.167701691389,0.0977640077472,-0.6472389,0.3726527,14.0235095,0.0,-19.0011005402,-10.5501089096,-0.440774172544,0.193872973323,-0.217810824513,0.0411600247025,18.3500003815,-543.739501953,-82.1755752563,1.8559112549999952,8.27464449405,12.7417657375,10.724774651310542,2.7982654571999994,0.367241054773,16.0
2018-09-11 21:37:23.200,0.00777642275228,0.0205114438959,-0.974367905598,0.341431647539,-0.167701691389,0.0977640077472,-0.6472389,0.3726527,14.0235095,0.0,-18.7334003448,-10.7384996414,0.720214128494,0.341431647539,-0.167701691389,0.0977640077472,18.3500003815,-543.739501953,-82.1755752563,1.8559112549999952,8.27464449405,12.7417657375,10.73764353251054,2.7538242339999996,0.602477788925,16.0
2018-09-11 21:37:23.250,0.00777642275228,0.0205114438959,-0.974367905598,0.341431647539,-0.167701691389,0.0977640077472,-0.6472389,0.3726527,14.0235095,0.0,-18.7334003448,-10.7384996414,0.720214128494,0.341431647539,-0.167701691389,0.0977640077472,18.3400001526,-543.739501953,-81.0178527832,2.855911254999995,8.20464479923,13.2417657375,10.738892845910541,2.639038085900001,1.13589024544,16.0
2018-09-11 21:37:23.300,0.00777642275228,0.0205114438959,-0.974367905598,0.341431647539,-0.167701691389,0.0977640077472,-0.6472389,0.3726527,14.0235095,0.0,-18.7334003448,-10.7384996414,0.720214128494,0.341431647539,-0.167701691389,0.0977640077472,18.3400001526,-543.739501953,-81.0178527832,2.855911254999995,8.20464479923,13.2417657375,10.72495394211054,2.5923137664999985,1.32788467407,16.0
2018-09-11 21:37:23.350,0.00777642275228,0.0205114438959,-0.974367905598,0.341431647539,-0.167701691389,0.0977640077472,-0.6472389,0.3726527,14.0235095,0.0,-18.7334003448,-10.7384996414,0.720214128494,0.341431647539,-0.167701691389,0.0977640077472,18.3400001526,-543.739501953,-81.0178527832,2.855911254999995,8.20464479923,13.2417657375,10.72495394211054,2.5923137664999985,1.32788467407,16.0
2018-09-11 21:37:23.400,0.00777642275228,0.0205114438959,-0.974367905598,0.341431647539,-0.167701691389,0.0977640077472,-0.6472389,0.3726527,14.0235095,0.0,-18.7334003448,-10.7384996414,0.720214128494,0.341431647539,-0.167701691389,0.0977640077472,18.2799987793,-543.739501953,-79.8935317993,2.855911254999995,8.05464470386,13.561765432400001,10.72495394211054,2.5923137664999985,1.32788467407,16.0
2018-09-11 21:37:23.450,0.00777642275228,0.0205114438959,-0.974367905598,0.341431647539,-0.167701691389,0.0977640077472,-0.6472389,0.3726527,14.0235095,0.0,-18.4051761627,-10.6676988602,1.95506930351,0.341431647539,-0.167701691389,0.0977640077472,18.1599998474,-528.483764648,-78.7469482422,2.855911254999995,7.78464472294,13.781765699400001,10.683532051810541,2.4662551880000017,1.80682015419,16.0
2018-09-11 21:37:23.500,-0.0205784236032,-0.0489619407261,-0.968018543724,0.275497049093,-0.00307083083317,0.0931642875075,-0.3138128,0.5099458,14.81784815,0.0,-18.4051761627,-10.6676988602,1.95506930351,0.341431647539,-0.167701691389,0.0977640077472,18.1599998474,-528.483764648,-78.7469482422,2.855911254999995,7.78464472294,13.781765699400001,10.65580206371054,2.3778095245000017,2.00522398949,16.0
2018-09-11 21:37:23.550,-0.0205784236032,-0.0489619407261,-0.968018543724,0.275497049093,-0.00307083083317,0.0931642875075,-0.3138128,0.5099458,14.81784815,0.0,-18.4051761627,-10.6676988602,1.95506930351,0.341431647539,-0.167701691389,0.0977640077472,18.1599998474,-528.483764648,-78.7469482422,5.271690368999998,2.72912859917,6.821221828480001,10.634763054610541,2.328142166100001,2.0465695858,16.0
2018-09-11 21:37:23.600,-0.0205784236032,-0.0489619407261,-0.968018543724,0.275497049093,-0.00307083083317,0.0931642875075,-0.3138128,0.5099458,14.81784815,0.0,-18.4051761627,-10.6676988602,1.95506930351,0.341431647539,-0.167701691389,0.0977640077472,18.0200004578,-528.483764648,-77.6114959717,5.271690368999998,2.5491287708299994,7.04122209548,10.608203224910541,2.24933815,2.08709359169,16.0
2018-09-11 21:37:23.650,-0.0205784236032,-0.0489619407261,-0.968018543724,0.275497049093,-0.00307083083317,0.0931642875075,-0.3138128,0.5099458,14.81784815,0.0,-18.4051761627,-10.6676988602,1.95506930351,0.341431647539,-0.167701691389,0.0977640077472,18.0200004578,-528.483764648,-77.6114959717,5.271690368999998,2.5491287708299994,7.04122209548,10.567737870010541,2.1452312469,2.06870603561,16.0
2018-09-11 21:37:23.700,-0.0205784236032,-0.0489619407261,-0.968018543724,0.275497049093,-0.00307083083317,0.0931642875075,-0.3138128,0.5099458,14.81784815,0.0,-18.1452312469,-10.56731987,2.06870603561,0.275497049093,-0.00307083083317,0.0931642875075,17.859998703,-500.395782471,-76.4983139038,5.271690368999998,2.4391286373099996,7.26122236248,10.567737870010541,2.1452312469,2.06870603561,16.0
2018-09-11 21:37:23.750,-0.0205784236032,-0.0489619407261,-0.968018543724,0.275497049093,-0.00307083083317,0.0931642875075,-0.3138128,0.5099458,14.81784815,0.0,-18.1452312469,-10.56731987,2.06870603561,0.275497049093,-0.00307083083317,0.0931642875075,17.6999988556,-500.395782471,-75.3962554932,5.271690368999998,2.38912844658,7.371222019180001,10.509046845210541,2.0477771758999985,2.08183050156,16.0
2018-09-11 21:37:23.800,-0.0185772963678,-0.0871922468419,-0.965836152703,0.0342598855495,-0.0765287280083,-0.125863552094,-0.44129925,0.97085835,11.89546645,0.0,-18.1452312469,-10.56731987,2.06870603561,0.275497049093,-0.00307083083317,0.0931642875075,17.6999988556,-500.395782471,-75.3962554932,5.271690368999998,2.38912844658,7.371222019180001,10.474230103310541,1.9970474242999998,2.13455224037,16.0
2018-09-11 21:37:23.850,-0.0185772963678,-0.0871922468419,-0.965836152703,0.0342598855495,-0.0765287280083,-0.125863552094,-0.44129925,0.97085835,11.89546645,0.0,-17.877243042,-10.3648233414,2.24233412743,0.0342598855495,-0.0765287280083,-0.125863552094,17.5499992371,-472.346496582,-74.2941970825,4.920509338000002,1.3580250739999995,3.0402517318500006,10.38959532241054,1.8976898192999982,2.22815680504,16.0
2018-09-11 21:37:23.900,-0.0185772963678,-0.0871922468419,-0.965836152703,0.0342598855495,-0.0765287280083,-0.125863552094,-0.44129925,0.97085835,11.89546645,0.0,-17.877243042,-10.3648233414,2.24233412743,0.0342598855495,-0.0765287280083,-0.125863552094,17.5499992371,-472.346496582,-74.2941970825,4.920509338000002,1.3580250739999995,3.0402517318500006,10.38959532241054,1.8976898192999982,2.22815680504,16.0
2018-09-11 21:37:23.950,-0.0185772963678,-0.0871922468419,-0.965836152703,0.0342598855495,-0.0765287280083,-0.125863552094,-0.44129925,0.97085835,11.89546645,0.0,-17.877243042,-10.3648233414,2.24233412743,0.0342598855495,-0.0765287280083,-0.125863552094,17.3799991608,-472.346496582,-73.2032699585,4.920509338000002,1.1980252265899995,2.8502521514500003,10.27654676891054,1.796894073499999,2.23324799538,16.0
2018-09-11 21:37:24.000,-0.0185772963678,-0.0871922468419,-0.965836152703,0.0342598855495,-0.0765287280083,-0.125863552094,-0.44129925,0.97085835,11.89546645,0.0,-17.877243042,-10.3648233414,2.24233412743,0.0342598855495,-0.0765287280083,-0.125863552094,17.3799991608,-472.346496582,-73.2032699585,4.920509338000002,1.1980252265899995,2.8502521514500003,10.231911949910542,1.7558727263999998,2.21213698387,16.0
2018-09-11 21:37:24.050,-0.0185772963678,-0.0871922468419,-0.965836152703,0.0342598855495,-0.0765287280083,-0.125863552094,-0.44129925,0.97085835,11.89546645,0.0,-17.877243042,-10.3648233414,2.24233412743,0.0342598855495,-0.0765287280083,-0.125863552094,17.2299995422,-434.465209961,-72.1457443237,4.920509338000002,1.0880250930799997,2.74025154115,10.17930250621054,1.7186965942000008,2.21233916283,16.0
2018-09-11 21:37:24.100,-0.0185772963678,-0.0871922468419,-0.965836152703,0.0342598855495,-0.0765287280083,-0.125863552094,-0.44129925,0.97085835,11.89546645,0.0,-17.6787872314,-10.0684928894,2.2427406311,0.0342598855495,-0.0765287280083,-0.125863552094,17.2299995422,-434.465209961,-72.1457443237,4.920509338000002,1.0980248451199994,2.74025154115,10.109832100610541,1.6918964386000006,2.22929763794,16.0
2018-09-11 21:37:24.150,-0.0185772963678,-0.0871922468419,-0.965836152703,0.0342598855495,-0.0765287280083,-0.125863552094,-0.44129925,0.97085835,11.89546645,0.0,-17.6787872314,-10.0684928894,2.2427406311,0.0342598855495,-0.0765287280083,-0.125863552094,17.0599994659,-434.465209961,-71.0882110596,4.920509338000002,0.8980250358599999,2.1902513503499996,9.98352175215054,1.6515331268000004,2.29331445694,16.0
2018-09-11 21:37:24.200,-0.0185772963678,-0.0871922468419,-0.965836152703,0.0342598855495,-0.0765287280083,-0.125863552094,-0.44129925,0.97085835,11.89546645,0.0,-17.6787872314,-10.0684928894,2.2427406311,0.0342598855495,-0.0765287280083,-0.125863552094,17.0599994659,-434.465209961,-71.0882110596,4.920509338000002,0.8980250358599999,2.1802520751499994,9.842552475720542,1.6077728270999998,2.39836144447,16.0
2018-09-11 21:37:24.250,-0.0185772963678,-0.0871922468419,-0.965836152703,0.0342598855495,-0.0765287280083,-0.125863552094,-0.44129925,0.97085835,11.89546645,0.0,-17.6787872314,-10.0684928894,2.2427406311,0.0342598855495,-0.0765287280083,-0.125863552094,16.8999996185,-418.850341797,-70.0640792847,4.920509338000002,0.5980248451199994,1.4202518463500002,9.75114183882054,1.5747356414999985,2.46625256538,16.0
2018-09-11 21:37:24.300,-0.0327614400508,-0.11728297082,-0.971338489109,0.120714955032,-0.156041964889,-0.0471515506506,-0.196133,0.1372931,12.46425215,0.0,-17.6787872314,-10.0684928894,2.2427406311,0.0342598855495,-0.0765287280083,-0.125863552094,16.8999996185,-418.850341797,-70.0640792847,4.920509338000002,0.6080250739999995,1.4102516174499993,9.65207415083054,1.5427761078000017,2.54053497314,16.0
2018-09-11 21:37:24.350,-0.0327614400508,-0.11728297082,-0.971338489109,0.120714955032,-0.156041964889,-0.0471515506506,-0.196133,0.1372931,12.46425215,0.0,-17.6787872314,-10.0684928894,2.2427406311,0.0342598855495,-0.0765287280083,-0.125863552094,16.7099990845,-418.850341797,-69.062210083,1.0375213620000068,-1.6734671592699994,-2.753260612450001,9.43742113569054,1.4831695557000018,2.68040108681,16.0
2018-09-11 21:37:24.400,-0.0327614400508,-0.11728297082,-0.971338489109,0.120714955032,-0.156041964889,-0.0471515506506,-0.196133,0.1372931,12.46425215,0.0,-17.4668617249,-9.38533592224,2.70740413666,0.120714955032,-0.156041964889,-0.0471515506506,16.7099990845,-418.850341797,-69.062210083,1.0375213620000068,-1.6634674072199997,-2.76326084133,9.38575392225054,1.4668617248999993,2.70740413666,16.0
2018-09-11 21:37:24.450,-0.0327614400508,-0.11728297082,-0.971338489109,0.120714955032,-0.156041964889,-0.0471515506506,-0.196133,0.1372931,12.46425215,0.0,-17.4668617249,-9.38533592224,2.70740413666,0.120714955032,-0.156041964889,-0.0471515506506,16.5,-390.121643066,-68.0937347412,1.0375213620000068,-2.0834674835199998,-3.67326068875,9.189343743110541,1.3972682953000017,2.80695915222,16.0
2018-09-11 21:37:24.500,-0.0327614400508,-0.11728297082,-0.971338489109,0.120714955032,-0.156041964889,-0.0471515506506,-0.196133,0.1372931,12.46425215,0.0,-17.4668617249,-9.38533592224,2.70740413666,0.120714955032,-0.156041964889,-0.0471515506506,16.5,-390.121643066,-68.0937347412,1.0375213620000068,-2.0834674835199998,-3.67326068875,9.095530800610542,1.3588790893999985,2.86157631874,16.0
2018-09-11 21:37:24.550,-0.0327614400508,-0.11728297082,-0.971338489109,0.120714955032,-0.156041964889,-0.0471515506506,-0.196133,0.1372931,12.46425215,0.0,-17.4668617249,-9.38533592224,2.70740413666,0.120714955032,-0.156041964889,-0.0471515506506,16.2700004578,-390.121643066,-67.1475296021,1.0375213620000068,-2.52346730232,-4.4632606506000005,9.00732260206054,1.3178825377999992,2.91095995903,16.0
2018-09-11 21:37:24.600,-0.0327614400508,-0.11728297082,-0.971338489109,0.120714955032,-0.156041964889,-0.0471515506506,-0.196133,0.1372931,12.46425215,0.0,-17.2295055389,-8.83413696289,3.02304196358,0.120714955032,-0.156041964889,-0.0471515506506,16.2700004578,-390.121643066,-67.1475296021,1.0375213620000068,-2.5334672927799997,-4.4632606506000005,8.920157723220541,1.2736015320000007,2.97044897079,16.0
2018-09-11 21:37:24.650,-0.0327614400508,-0.11728297082,-0.971338489109,0.120714955032,-0.156041964889,-0.0471515506506,-0.196133,0.1372931,12.46425215,0.0,-17.2295055389,-8.83413696289,3.02304196358,0.120714955032,-0.156041964889,-0.0471515506506,16.0200004578,-350.585571289,-66.2235794067,1.0375213620000068,-3.0334672927799997,-5.1632609367,8.793346695690541,1.2065677643000008,3.05316758156,16.0
2018-09-11 21:37:24.700,-0.0327614400508,-0.11728297082,-0.971338489109,0.120714955032,-0.156041964889,-0.0471515506506,-0.196133,0.1372931,12.46425215,0.0,-17.2295055389,-8.83413696289,3.02304196358,0.120714955032,-0.156041964889,-0.0471515506506,16.0200004578,-350.585571289,-66.2235794067,1.0375213620000068,-3.0334672927799997,-5.1632609367,8.71072798231054,1.1594753265000008,3.10647082329,16.0
2018-09-11 21:37:24.750,-0.0327614400508,-0.11728297082,-0.971338489109,0.120714955032,-0.156041964889,-0.0471515506506,-0.196133,0.1372931,12.46425215,0.0,-17.2295055389,-8.83413696289,3.02304196358,0.120714955032,-0.156041964889,-0.0471515506506,15.7599992752,-350.585571289,-65.3330307007,1.0375213620000068,-3.5834672450999996,-5.753260612450001,8.71072798231054,1.1594753265000008,3.10647082329,16.0
2018-09-11 21:37:24.800,-0.0493206448142,-0.0972747573688,-0.972484879709,-0.109048485756,0.00343846413307,0.00196545151994,-0.24516625,0.81395195,10.8853815,0.0,-17.2295055389,-8.83413696289,3.02304196358,0.120714955032,-0.156041964889,-0.0471515506506,15.7599992752,-350.585571289,-65.3330307007,1.0375213620000068,-3.5834672450999996,-5.753260612450001,8.53920679548054,1.0257701873999991,3.2026450634,16.0
2018-09-11 21:37:24.850,-0.0493206448142,-0.0972747573688,-0.972484879709,-0.109048485756,0.00343846413307,0.00196545151994,-0.24516625,0.81395195,10.8853815,0.0,-16.9125404358,-8.43281078339,3.22473740578,-0.109048485756,0.00343846413307,0.00196545151994,15.4799995422,-315.38659668,-64.4536132812,1.232269286999994,-5.5751235485,-3.46535348892,8.45767336347054,0.9414100647000012,3.22517752647,16.0
2018-09-11 21:37:24.900,-0.0493206448142,-0.0972747573688,-0.972484879709,-0.109048485756,0.00343846413307,0.00196545151994,-0.24516625,0.81395195,10.8853815,0.0,-16.9125404358,-8.43281078339,3.22473740578,-0.109048485756,0.00343846413307,0.00196545151994,15.4799995422,-315.38659668,-64.4536132812,1.232269286999994,-5.5751235485,-3.46535348892,8.38970499494054,0.8550815581999984,3.2197291851,16.0
2018-09-11 21:37:24.950,-0.0493206448142,-0.0972747573688,-0.972484879709,-0.109048485756,0.00343846413307,0.00196545151994,-0.24516625,0.81395195,10.8853815,0.0,-16.9125404358,-8.43281078339,3.22473740578,-0.109048485756,0.00343846413307,0.00196545151994,15.4799995422,-315.38659668,-64.4536132812,1.232269286999994,-5.5751235485,-3.46535348892,8.38970499494054,0.8550815581999984,3.2197291851,16.0
2018-09-11 21:37:25.000,-0.0493206448142,-0.0972747573688,-0.972484879709,-0.109048485756,0.00343846413307,0.00196545151994,-0.24516625,0.81395195,10.8853815,0.0,-16.9125404358,-8.43281078339,3.22473740578,-0.109048485756,0.00343846413307,0.00196545151994,15.1999998093,-315.38659668,-63.5853233337,1.232269286999994,-6.09512364864,-3.63535356521,8.308128647590541,0.7403335571000014,3.20749211311,16.0
2018-09-11 21:37:25.050,-0.0493206448142,-0.0972747573688,-0.972484879709,-0.109048485756,0.00343846413307,0.00196545151994,-0.24516625,0.81395195,10.8853815,0.0,-16.9125404358,-8.43281078339,3.22473740578,-0.109048485756,0.00343846413307,0.00196545151994,14.9099998474,-281.151977539,-62.7281684875,1.232269286999994,-6.63512361049,-3.7753534316999993,8.20951014021054,0.6329002380000013,3.20070385933,16.0
2018-09-11 21:37:25.100,-0.0493206448142,-0.0972747573688,-0.972484879709,-0.109048485756,0.00343846413307,0.00196545151994,-0.24516625,0.81395195,10.8853815,0.0,-16.5843486786,-8.16285896301,3.1786942482,-0.109048485756,0.00343846413307,0.00196545151994,14.9099998474,-281.151977539,-62.7281684875,1.232269286999994,-6.64512360096,-3.7753534316999993,8.163276963020541,0.5843486786000014,3.1786942482,16.0
2018-09-11 21:37:25.150,-0.0493206448142,-0.0972747573688,-0.972484879709,-0.109048485756,0.00343846413307,0.00196545151994,-0.24516625,0.81395195,10.8853815,0.0,-16.5843486786,-8.16285896301,3.1786942482,-0.109048485756,0.00343846413307,0.00196545151994,14.6300001144,-281.151977539,-61.882144928,1.232269286999994,-7.165123581882,-4.01535367965,8.10404711225054,0.5147380828999992,3.10790133476,16.0
2018-09-11 21:37:25.200,-0.0493206448142,-0.0972747573688,-0.972484879709,-0.109048485756,0.00343846413307,0.00196545151994,-0.24516625,0.81395195,10.8853815,0.0,-16.5843486786,-8.16285896301,3.1786942482,-0.109048485756,0.00343846413307,0.00196545151994,14.6300001144,-281.151977539,-61.882144928,1.232269286999994,-7.165123581882,-4.0053534507699995,8.04615526655054,0.44884681699999973,3.02341389656,16.0
2018-09-11 21:37:25.250,-0.0388562025942,-0.0903184304427,-0.977899124757,-0.119910225272,0.0684717223048,-0.15015989542,-0.28439285,0.5491724,8.7671451,0.0,-16.5843486786,-8.16285896301,3.1786942482,-0.109048485756,0.00343846413307,0.00196545151994,14.3599996567,-240.419769287,-61.0361213684,-1.1458282469999972,-6.066420599817,-3.7175736427300006,8.004481606270542,0.40798187260000063,2.96925234795,16.0
2018-09-11 21:37:25.300,-0.0388562025942,-0.0903184304427,-0.977899124757,-0.119910225272,0.0684717223048,-0.15015989542,-0.28439285,0.5491724,8.7671451,0.0,-16.5843486786,-8.16285896301,3.1786942482,-0.109048485756,0.00343846413307,0.00196545151994,14.3599996567,-240.419769287,-61.0361213684,-1.1458282469999972,-6.066420599817,-3.7175736427300006,8.004481606270542,0.40798187260000063,2.96925234795,16.0
2018-09-11 21:37:25.350,-0.0388562025942,-0.0903184304427,-0.977899124757,-0.119910225272,0.0684717223048,-0.15015989542,-0.28439285,0.5491724,8.7671451,0.0,-16.5843486786,-8.16285896301,3.1786942482,-0.109048485756,0.00343846413307,0.00196545151994,14.0999994278,-240.419769287,-60.2123641968,-1.1458282469999972,-6.466420590876,-3.9475736618,7.9199464843505405,0.33116149900000025,2.82119989395,16.0
2018-09-11 21:37:25.400,-0.0388562025942,-0.0903184304427,-0.977899124757,-0.119910225272,0.0684717223048,-0.15015989542,-0.28439285,0.5491724,8.7671451,0.0,-16.331161499,-7.91952848434,2.82119989395,-0.119910225272,0.0684717223048,-0.15015989542,14.0999994278,-240.419769287,-60.2123641968,-1.1458282469999972,-6.466420590876,-3.9475736618,7.90426569441054,0.31530761719999845,2.76904845238,16.0
