%time,field.orientation.x,field.orientation.y,field.orientation.z,field.angular_velocity.x,field.angular_velocity.y,field.angular_velocity.z,field.linear_acceleration.x,field.linear_acceleration.y,field.linear_acceleration.z,field.data,field.twist.linear.x,field.twist.linear.y,field.twist.linear.z,field.twist.angular.x,field.twist.angular.y,field.twist.angular.z,field.alt_error,field.aspd_error,field.xtrack_error,delta_yaw,delta_pitch,delta_roll,delta_x,delta_y,delta_z,delta_roll_airspeed
2018-10-05 19:42:23.800,,,,,,,,,,0.0,,,,,,,8.03999996185,252.816482544,10.4296751022,-14.168876647999994,-2.34760308266,-5.819010734600001,5.519689440732,1.364920616200001,0.8401418328289999,16.0
2018-10-05 19:42:23.850,,,,,,,,,,0.0,,,,,,,7.91999959946,245.186035156,9.88959121704,-15.168876647999994,-2.4976029396099997,-5.389010429400001,5.412883639332,1.2888526917000007,0.8191936612129999,16.0
2018-10-05 19:42:23.900,,,,,,,,,,0.0,,,,,,,7.91999959946,245.186035156,9.88959121704,-15.168876647999994,-2.4976029396099997,-5.389010429400001,5.188901782032,1.129598617600001,0.8238234519959999,16.0
2018-10-05 19:42:23.950,,,,,,,,,,0.0,14.7562656403,-6.29388999939,0.830339670181,-0.291972279549,0.0232499018312,0.124318823218,7.81999969482,245.186035156,9.3712053299,-16.168876647999994,-2.75760293007,-4.699010849,6.209528759123001,1.0834789275999999,0.803367495537,16.0
2018-10-05 19:42:24.000,,,,,,,,,,0.0,14.7562656403,-6.29388999939,0.830339670181,-0.291972279549,0.0232499018312,0.124318823218,7.81999969482,245.186035156,9.3712053299,-16.168876647999994,-2.7476029396099997,-4.699010849,6.1113942414530005,1.0135812759,0.766215801239,16.0
2018-10-05 19:42:24.050,,,,,,,,,,0.0,14.7562656403,-6.29388999939,0.830339670181,-0.291972279549,0.0232499018312,0.124318823218,7.73999977112,230.009933472,10.3677988052,-19.168876647999994,-2.9576029777499997,-7.279010772700001,6.016437366603,0.9502162933000005,0.704787254333,16.0
2018-10-05 19:42:24.100,,,,,,,,,,0.0,14.7562656403,-6.29388999939,0.830339670181,-0.291972279549,0.0232499018312,0.124318823218,7.73999977112,230.009933472,10.3677988052,-19.168876647999994,-2.9576029777499997,-7.279010772700001,6.016437366603,0.9502162933000005,0.704787254333,16.0
2018-10-05 19:42:24.150,,,,,,,,,,0.0,15.1401157379,-5.74024248123,0.602720499039,-0.291972279549,0.0232499018312,0.124318823218,7.65999984741,230.009933472,9.78650665283,-18.737892150999997,-1.8708419799799998,-1.4764165877999975,5.799030140043,0.8029136658000002,0.525906324387,16.0
2018-10-05 19:42:24.200,0.127036468605,-0.051367125886,0.243401417585,-0.185553997755,0.0420377328992,0.0343142747879,0.06864655,0.18632635,8.85540495,0.0,15.1401157379,-5.74024248123,0.602720499039,-0.291972279549,0.0232499018312,0.124318823218,7.59999990463,225.076385498,9.23853492737,-19.737892150999997,-1.9108419418399998,-1.1364164351999992,5.799030140043,0.8029136658000002,0.525906324387,16.0
2018-10-05 19:42:24.250,0.127036468605,-0.051367125886,0.243401417585,-0.185553997755,0.0420377328992,0.0343142747879,0.06864655,0.18632635,8.85540495,0.0,15.1401157379,-5.74024248123,0.602720499039,-0.291972279549,0.0232499018312,0.124318823218,7.59999990463,225.076385498,9.23853492737,-19.737892150999997,-1.9108419418399998,-1.1364164351999992,7.257907986639999,0.5470438003000009,0.3461951315400002,16.0
2018-10-05 19:42:24.300,0.127036468605,-0.051367125886,0.243401417585,-0.185553997755,0.0420377328992,0.0343142747879,0.06864655,0.18632635,8.85540495,0.0,15.1401157379,-5.74024248123,0.602720499039,-0.291972279549,0.0232499018312,0.124318823218,7.55999994278,225.076385498,10.7614574432,-23.737892150999997,-1.9008417129499997,-1.1364164351999992,7.11640369892,0.4555282592000012,0.23234786093200022,16.0
2018-10-05 19:42:24.350,0.127036468605,-0.051367125886,0.243401417585,-0.185553997755,0.0420377328992,0.0343142747879,0.06864655,0.18632635,8.85540495,0.0,15.1401157379,-5.74024248123,0.602720499039,-0.291972279549,0.0232499018312,0.124318823218,7.55999994278,225.076385498,10.7614574432,-23.737892150999997,-1.9108419418399998,-5.816416740399999,7.03770315647,0.40186977380000144,0.1342715173960002,16.0
2018-10-05 19:42:24.400,0.127036468605,-0.051367125886,0.243401417585,-0.185553997755,0.0420377328992,0.0343142747879,0.06864655,0.18632635,8.85540495,0.0,15.5429239273,-5.11751651764,0.0331059247255,-0.185553997755,0.0420377328992,0.0343142747879,7.55999994278,225.076385498,10.7614574432,-23.737892150999997,-1.9108419418399998,-5.816416740399999,6.9127885103199995,0.3207712173000008,-0.018350806087299776,16.0
2018-10-05 19:42:24.450,0.142666762176,-0.057949412053,0.216245643106,0.0527962893248,-0.0309656206518,0.251150637865,0.06864655,-0.20593965,7.9433865,0.0,15.5429239273,-5.11751651764,0.0331059247255,-0.185553997755,0.0420377328992,0.0343142747879,7.53999996185,219.632141113,10.0954523087,-24.737892150999997,-1.80084180832,-5.816416740399999,6.83002007008,0.2734012603,-0.10242811590399978,16.0
2018-10-05 19:42:24.500,0.142666762176,-0.057949412053,0.216245643106,0.0527962893248,-0.0309656206518,0.251150637865,0.06864655,-0.20593965,7.9433865,0.0,15.5429239273,-5.11751651764,0.0331059247255,-0.185553997755,0.0420377328992,0.0343142747879,7.53999996185,219.632141113,10.0954523087,-24.737892150999997,-1.80084180832,-5.816416740399999,6.83002007008,0.2734012603,-0.10242811590399978,16.0
2018-10-05 19:42:24.550,0.142666762176,-0.057949412053,0.216245643106,0.0527962893248,-0.0309656206518,0.251150637865,0.06864655,-0.20593965,7.9433865,0.0,15.5429239273,-5.11751651764,0.0331059247255,-0.185553997755,0.0420377328992,0.0343142747879,7.55999994278,219.632141113,10.8194169998,-24.724975586,-0.9018273353600001,-7.070281982399997,7.77251958847,-0.008142471299999343,-0.2914182841779996,16.0
2018-10-05 19:42:24.600,0.142666762176,-0.057949412053,0.216245643106,0.0527962893248,-0.0309656206518,0.251150637865,0.06864655,-0.20593965,7.9433865,0.0,15.8612031937,-4.60665559769,-0.455370903015,0.0527962893248,-0.0309656206518,0.251150637865,7.55999994278,219.632141113,10.8194169998,-24.724975586,-0.8918273448899998,-7.060281753599998,7.56234455109,-0.13657569889999976,-0.4553709030149996,16.0
2018-10-05 19:42:24.650,0.142666762176,-0.057949412053,0.216245643106,0.0527962893248,-0.0309656206518,0.251150637865,0.06864655,-0.20593965,7.9433865,0.0,15.8612031937,-4.60665559769,-0.455370903015,0.0527962893248,-0.0309656206518,0.251150637865,7.59999990463,211.570739746,10.0851192474,-25.724975586,-0.6818273067499998,-6.980281829899997,7.3302359581,-0.26752471930000077,-0.5428315997119997,16.0
2018-10-05 19:42:24.700,0.142666762176,-0.057949412053,0.216245643106,0.0527962893248,-0.0309656206518,0.251150637865,0.06864655,-0.20593965,7.9433865,0.0,15.8612031937,-4.60665559769,-0.455370903015,0.0527962893248,-0.0309656206518,0.251150637865,7.59999990463,211.570739746,10.0851192474,-25.724975586,-0.6818273067499998,-6.980281829899997,9.39335107804,-0.9121866227000002,-0.5954219698909994,16.0
2018-10-05 19:42:24.750,0.160298370604,-0.059441193672,0.169157816987,-0.300197690725,-0.0955107584596,0.316658079624,0.06864655,0.44129925,10.13026945,0.0,15.8612031937,-4.60665559769,-0.455370903015,0.0527962893248,-0.0309656206518,0.251150637865,7.64999961853,211.570739746,12.2056179047,-31.724975586,-0.5018272399899999,-12.560281753599998,9.32464313508,-0.9486379623999976,-0.6057142615319994,16.0
2018-10-05 19:42:24.800,0.160298370604,-0.059441193672,0.169157816987,-0.300197690725,-0.0955107584596,0.316658079624,0.06864655,0.44129925,10.13026945,0.0,15.8612031937,-4.60665559769,-0.455370903015,0.0527962893248,-0.0309656206518,0.251150637865,7.64999961853,211.570739746,12.2056179047,-26.370758057000003,0.1464822292300001,-10.6647834778,9.32464313508,-0.9486379623999976,-0.6057142615319994,16.0
2018-10-05 19:42:24.850,0.160298370604,-0.059441193672,0.169157816987,-0.300197690725,-0.0955107584596,0.316658079624,0.06864655,0.44129925,10.13026945,0.0,16.2558555603,-3.88092255592,-0.665029525757,-0.300197690725,-0.0955107584596,0.316658079624,7.71000003815,196.015640259,11.3093652725,-27.370758057000003,0.32648229599,-10.4847831726,8.93777370453,-1.1462965012000002,-0.6689500808719994,16.0
2018-10-05 19:42:24.900,0.160298370604,-0.059441193672,0.169157816987,-0.300197690725,-0.0955107584596,0.316658079624,0.06864655,0.44129925,10.13026945,0.0,16.2558555603,-3.88092255592,-0.665029525757,-0.300197690725,-0.0955107584596,0.316658079624,7.71000003815,196.015640259,11.3093652725,-27.370758057000003,0.3464822769200002,-10.4847831726,8.68183207512,-1.2704935073999994,-0.7002986669539993,16.0
2018-10-05 19:42:24.950,0.160298370604,-0.059441193672,0.169157816987,-0.300197690725,-0.0955107584596,0.316658079624,0.06864655,0.44129925,10.13026945,0.0,16.2558555603,-3.88092255592,-0.665029525757,-0.300197690725,-0.0955107584596,0.316658079624,7.77999973297,196.015640259,10.4420185089,-28.370758057000003,0.5064821243300002,-10.014783859200001,8.68183207512,-1.2704935073999994,-0.7002986669539993,16.0
2018-10-05 19:42:25.000,0.160298370604,-0.059441193672,0.169157816987,-0.300197690725,-0.0955107584596,0.316658079624,0.06864655,0.44129925,10.13026945,0.0,16.2558555603,-3.88092255592,-0.665029525757,-0.300197690725,-0.0955107584596,0.316658079624,7.77999973297,196.015640259,10.4420185089,-28.370758057000003,0.5164821147900001,-10.014783859200001,9.24599409103,-1.8938331603999998,-0.7361277937889992,16.0
2018-10-05 19:42:25.050,0.160298370604,-0.059441193672,0.169157816987,-0.300197690725,-0.0955107584596,0.316658079624,0.06864655,0.44129925,10.13026945,0.0,16.2558555603,-3.88092255592,-0.665029525757,-0.300197690725,-0.0955107584596,0.316658079624,7.84999990463,183.704376221,10.9947490692,-32.370758057,0.69648218155,-12.1147842407,8.94411349297,-2.013330459599999,-0.7780339121819992,16.0
2018-10-05 19:42:25.100,0.160298370604,-0.059441193672,0.169157816987,-0.300197690725,-0.0955107584596,0.316658079624,0.06864655,0.44129925,10.13026945,0.0,16.8058204651,-2.63645792007,-0.795908927917,-0.300197690725,-0.0955107584596,0.316658079624,7.84999990463,183.704376221,10.9947490692,-32.370758057,0.69648218155,-12.1147842407,8.94411349297,-2.013330459599999,-0.7780339121819992,16.0
2018-10-05 19:42:25.150,0.160298370604,-0.059441193672,0.169157816987,-0.300197690725,-0.0955107584596,0.316658079624,0.06864655,0.44129925,10.13026945,0.0,16.8058204651,-2.63645792007,-0.795908927917,-0.300197690725,-0.0955107584596,0.316658079624,7.91999959946,183.704376221,10.1097726822,-33.370758057,0.8964822292300001,-11.454784393299999,8.63016033173,-2.1355457306000005,-0.8200956583019993,16.0
2018-10-05 19:42:25.200,0.245452071042,-0.0580063860742,0.108539106904,-0.262694001198,-0.148775324225,0.166618615389,0.0980665,0.2941995,10.6892485,0.0,16.8058204651,-2.63645792007,-0.795908927917,-0.300197690725,-0.0955107584596,0.316658079624,7.91999959946,183.704376221,10.1097726822,-33.370758057,0.9064822197,-11.454784393299999,10.21373593807,-3.3149156571000002,-0.897462129592999,16.0
2018-10-05 19:42:25.250,0.245452071042,-0.0580063860742,0.108539106904,-0.262694001198,-0.148775324225,0.166618615389,0.0980665,0.2941995,10.6892485,0.0,16.8058204651,-2.63645792007,-0.795908927917,-0.300197690725,-0.0955107584596,0.316658079624,8.01000022888,160.642242432,12.1192092896,-32.745773314999994,0.97060680389,-6.327829360999999,9.99566984177,-3.3898096085000002,-0.948058247565999,16.0
2018-10-05 19:42:25.300,0.245452071042,-0.0580063860742,0.108539106904,-0.262694001198,-0.148775324225,0.166618615389,0.0980665,0.2941995,10.6892485,0.0,17.2474212646,-1.35153436661,-1.0450758934,-0.262694001198,-0.148775324225,0.166618615389,8.01000022888,160.642242432,12.1192092896,-32.745773314999994,0.9806067943499999,-6.3378314972,9.68380868435,-3.488461494499999,-1.027398705479999,16.0
2018-10-05 19:42:25.350,0.245452071042,-0.0580063860742,0.108539106904,-0.262694001198,-0.148775324225,0.166618615389,0.0980665,0.2941995,10.6892485,0.0,17.2474212646,-1.35153436661,-1.0450758934,-0.262694001198,-0.148775324225,0.166618615389,8.0999994278,160.642242432,11.0957736969,-33.745773314999994,1.2806067466699997,-5.877828598000001,9.35595905781,-3.587361335799999,-1.1062107086199988,16.0
2018-10-05 19:42:25.400,0.245452071042,-0.0580063860742,0.108539106904,-0.262694001198,-0.148775324225,0.166618615389,0.0980665,0.2941995,10.6892485,0.0,17.2474212646,-1.35153436661,-1.0450758934,-0.262694001198,-0.148775324225,0.166618615389,8.0999994278,160.642242432,11.0957736969,-33.745773314999994,1.2806067466699997,-5.877828598000001,10.546328008179,-4.596487045299998,-1.168415188789999,16.0
2018-10-05 19:42:25.450,0.245452071042,-0.0580063860742,0.108539106904,-0.262694001198,-0.148775324225,0.166618615389,0.0980665,0.2941995,10.6892485,0.0,17.2474212646,-1.35153436661,-1.0450758934,-0.262694001198,-0.148775324225,0.166618615389,8.0999994278,160.642242432,11.0957736969,-33.745773314999994,1.2806067466699997,-5.877828598000001,10.546328008179,-4.596487045299998,-1.168415188789999,16.0
2018-10-05 19:42:25.500,0.245452071042,-0.0580063860742,0.108539106904,-0.262694001198,-0.148775324225,0.166618615389,0.0980665,0.2941995,10.6892485,0.0,17.2474212646,-1.35153436661,-1.0450758934,-0.262694001198,-0.148775324225,0.166618615389,8.21000003815,136.109161377,12.4017677307,-38.745773314999994,1.62060678005,-8.937829971299998,10.09304222465,-4.710979461600001,-1.262968063349999,16.0
2018-10-05 19:42:25.550,0.245452071042,-0.0580063860742,0.108539106904,-0.262694001198,-0.148775324225,0.166618615389,0.0980665,0.2941995,10.6892485,0.0,17.6301460266,0.180870592594,-1.3087092638,-0.262694001198,-0.148775324225,0.166618615389,8.32999992371,136.109161377,11.3166656494,-39.745773314999994,1.9706066846799999,-8.4878292084,9.723992995922,-4.798566818199998,-1.2972284555399989,16.0
2018-10-05 19:42:25.600,0.245452071042,-0.0580063860742,0.108539106904,-0.262694001198,-0.148775324225,0.166618615389,0.0980665,0.2941995,10.6892485,0.0,17.6301460266,0.180870592594,-1.3087092638,-0.262694001198,-0.148775324225,0.166618615389,8.47000026703,112.307449341,10.2874088287,-40.745773314999994,2.3006067276,-7.777830123900003,9.723992995922,-4.798566818199998,-1.2972284555399989,16.0
2018-10-05 19:42:25.650,0.293275444687,-0.0317224982868,0.0460587296329,-0.215933278203,-0.255791842937,0.303406715393,0.16671305,0.0588399,11.64049355,0.0,17.6301460266,0.180870592594,-1.3087092638,-0.262694001198,-0.148775324225,0.166618615389,8.47000026703,112.307449341,10.2874088287,-40.745773314999994,2.3006067276,-7.777830123900003,9.945903539626,-5.643748283400001,-1.3176978826499988,16.0
2018-10-05 19:42:25.700,0.293275444687,-0.0317224982868,0.0460587296329,-0.215933278203,-0.255791842937,0.303406715393,0.16671305,0.0588399,11.64049355,0.0,17.6301460266,0.180870592594,-1.3087092638,-0.262694001198,-0.148775324225,0.166618615389,8.47000026703,112.307449341,10.2874088287,-33.11837005620001,0.8918048143399999,-2.5538673401000054,9.945903539626,-5.643748283400001,-1.3176978826499988,16.0
2018-10-05 19:42:25.750,0.293275444687,-0.0317224982868,0.0460587296329,-0.215933278203,-0.255791842937,0.303406715393,0.16671305,0.0588399,11.64049355,0.0,17.6301460266,0.180870592594,-1.3087092638,-0.262694001198,-0.148775324225,0.166618615389,8.5999994278,112.307449341,10.7236194611,-37.11837005620001,1.191804826261,-4.223865509100001,9.36878001687,-5.7350339890000015,-1.3075294494599987,16.0
2018-10-05 19:42:25.800,0.293275444687,-0.0317224982868,0.0460587296329,-0.215933278203,-0.255791842937,0.303406715393,0.16671305,0.0588399,11.64049355,0.0,17.6301460266,0.180870592594,-1.3087092638,-0.262694001198,-0.148775324225,0.166618615389,8.73999977112,98.4985351562,9.69180679321,-38.11837005620001,1.201804816724,-4.223865509100001,8.92788934704,-5.7907915115,-1.2936488389999987,16.0
2018-10-05 19:42:25.850,0.293275444687,-0.0317224982868,0.0460587296329,-0.215933278203,-0.255791842937,0.303406715393,0.16671305,0.0588399,11.64049355,0.0,17.8840847015,1.90153956413,-1.26404976845,-0.215933278203,-0.255791842937,0.303406715393,8.73999977112,98.4985351562,9.69180679321,-38.11837005620001,1.49180480838,-3.2238655091000012,8.29868125912,-5.849707603500001,-1.2365376949299987,16.0
2018-10-05 19:42:25.900,0.293275444687,-0.0317224982868,0.0460587296329,-0.215933278203,-0.255791842937,0.303406715393,0.16671305,0.0588399,11.64049355,0.0,17.8840847015,1.90153956413,-1.26404976845,-0.215933278203,-0.255791842937,0.303406715393,8.73999977112,98.4985351562,9.69180679321,-38.11837005620001,1.49180480838,-3.2238655091000012,7.97673892972,-5.867379188499999,-1.2003279924399988,16.0
2018-10-05 19:42:25.950,0.293275444687,-0.0317224982868,0.0460587296329,-0.215933278203,-0.255791842937,0.303406715393,0.16671305,0.0588399,11.64049355,0.0,17.8840847015,1.90153956413,-1.26404976845,-0.215933278203,-0.255791842937,0.303406715393,8.86999988556,98.4985351562,8.70195770264,-39.11837005620001,1.741804793479,-2.0638656616999995,9.083021879210001,-7.4914369583,-1.1886640787099985,16.0
2018-10-05 19:42:26.000,0.293275444687,-0.0317224982868,0.0460587296329,-0.215933278203,-0.255791842937,0.303406715393,0.16671305,0.0588399,11.64049355,0.0,17.8840847015,1.90153956413,-1.26404976845,-0.215933278203,-0.255791842937,0.303406715393,8.86999988556,98.4985351562,8.70195770264,-39.11837005620001,1.741804793479,-2.0638656616999995,8.75543594362,-7.4941339493,-1.1884132623699983,16.0
2018-10-05 19:42:26.050,0.317147673304,-0.00339434051176,-0.0383309780652,-0.106000326574,-0.303863286972,0.434920102358,0.3334261,1.53363645945e-15,12.52309205,0.0,17.9449176788,3.82112216949,-1.1986117363,-0.106000326574,-0.303863286972,0.434920102358,8.98999977112,73.9803314209,10.4892215729,-34.955871582,1.8618983924395,-3.3527755738000025,8.45537447931,-7.492617607099998,-1.1981178522099984,16.0
2018-10-05 19:42:26.100,0.317147673304,-0.00339434051176,-0.0383309780652,-0.106000326574,-0.303863286972,0.434920102358,0.3334261,1.53363645945e-15,12.52309205,0.0,17.9449176788,3.82112216949,-1.1986117363,-0.106000326574,-0.303863286972,0.434920102358,9.10999965668,73.9803314209,9.40865421295,-36.955871582,2.151898384095,-2.3927764892999974,8.45537447931,-7.492617607099998,-1.1981178522099984,16.0
2018-10-05 19:42:26.150,0.317147673304,-0.00339434051176,-0.0383309780652,-0.106000326574,-0.303863286972,0.434920102358,0.3334261,1.53363645945e-15,12.52309205,0.0,17.9449176788,3.82112216949,-1.1986117363,-0.106000326574,-0.303863286972,0.434920102358,9.10999965668,73.9803314209,9.40865421295,-36.955871582,2.151898384095,-2.3927764892999974,7.647604465500001,-7.454459190399998,-1.2204517126099985,16.0
2018-10-05 19:42:26.200,0.317147673304,-0.00339434051176,-0.0383309780652,-0.106000326574,-0.303863286972,0.434920102358,0.3334261,1.53363645945e-15,12.52309205,0.0,17.9449176788,3.82112216949,-1.1986117363,-0.106000326574,-0.303863286972,0.434920102358,9.10999965668,73.9803314209,9.40865421295,-36.955871582,2.161898374558,-2.3927764892999974,7.646779060399999,-8.269822120650002,-1.1963392496099985,16.0
2018-10-05 19:42:26.250,0.317147673304,-0.00339434051176,-0.0383309780652,-0.106000326574,-0.303863286972,0.434920102358,0.3334261,1.53363645945e-15,12.52309205,0.0,17.9449176788,3.82112216949,-1.1986117363,-0.106000326574,-0.303863286972,0.434920102358,9.23999977112,39.9708747864,9.80169296265,-39.955871582,2.461898386479,-3.6427764892999974,7.473495960269999,-8.24993228915,-1.1894733905799983,16.0
2018-10-05 19:42:26.300,0.317147673304,-0.00339434051176,-0.0383309780652,-0.106000326574,-0.303863286972,0.434920102358,0.3334261,1.53363645945e-15,12.52309205,0.0,17.7172164917,6.0664601326,-1.17119622231,-0.106000326574,-0.303863286972,0.434920102358,9.36999988556,39.9708747864,8.72587776184,-40.955871582,2.461898386479,-3.6427764892999974,6.934875965149999,-8.17171764375,-1.1727595329299985,16.0
2018-10-05 19:42:26.350,0.317147673304,-0.00339434051176,-0.0383309780652,-0.106000326574,-0.303863286972,0.434920102358,0.3334261,1.53363645945e-15,12.52309205,0.0,17.7172164917,6.0664601326,-1.17119622231,-0.106000326574,-0.303863286972,0.434920102358,9.36999988556,39.9708747864,8.72587776184,-40.955871582,2.7518983483320003,-2.362773895300002,6.573141098059999,-8.110314369249998,-1.1734541654599984,16.0
2018-10-05 19:42:26.400,0.331868849374,0.0375110068149,-0.134510230509,-0.0722480788827,-0.36327123642,0.30395039916,0.4314926,0.3334261,13.1212977,0.0,17.7172164917,6.0664601326,-1.17119622231,-0.106000326574,-0.303863286972,0.434920102358,9.36999988556,39.9708747864,8.72587776184,-40.955871582,2.7518983483320003,-2.362773895300002,7.28491544719,-9.91706418994,-1.1700348854099982,16.0
2018-10-05 19:42:26.450,0.331868849374,0.0375110068149,-0.134510230509,-0.0722480788827,-0.36327123642,0.30395039916,0.4314926,0.3334261,13.1212977,0.0,17.7172164917,6.0664601326,-1.17119622231,-0.106000326574,-0.303863286972,0.434920102358,9.5,14.2134666443,10.6642026901,-35.982749939,2.4152489900600003,-3.831859588599997,6.930059909780001,-9.83973264694,-1.1643633842499983,16.0
2018-10-05 19:42:26.500,0.331868849374,0.0375110068149,-0.134510230509,-0.0722480788827,-0.36327123642,0.30395039916,0.4314926,0.3334261,13.1212977,0.0,17.7172164917,6.0664601326,-1.17119622231,-0.106000326574,-0.303863286972,0.434920102358,9.63000011444,14.2134666443,9.4968957901,-36.982749939,2.7452490329700003,-2.7818603515000007,6.930059909780001,-9.83973264694,-1.1643633842499983,16.0
2018-10-05 19:42:26.550,0.331868849374,0.0375110068149,-0.134510230509,-0.0722480788827,-0.36327123642,0.30395039916,0.4314926,0.3334261,13.1212977,0.0,17.7172164917,6.0664601326,-1.17119622231,-0.106000326574,-0.303863286972,0.434920102358,9.63000011444,14.2134666443,9.4968957901,-36.982749939,2.7452490329700003,-2.7818603515000007,5.91716670986,-9.567594051339999,-1.1602418422699983,16.0
2018-10-05 19:42:26.600,0.331868849374,0.0375110068149,-0.134510230509,-0.0722480788827,-0.36327123642,0.30395039916,0.4314926,0.3334261,13.1212977,0.0,17.1866703033,8.29909706116,-1.14855325222,-0.0722480788827,-0.36327123642,0.30395039916,9.63000011444,14.2134666443,9.4968957901,-36.982749939,2.7452490329700003,-2.7818603515000007,5.571259498550001,-9.461158275639999,-1.1342717409099983,16.0
2018-10-05 19:42:26.650,0.331868849374,0.0375110068149,-0.134510230509,-0.0722480788827,-0.36327123642,0.30395039916,0.4314926,0.3334261,13.1212977,0.0,17.1866703033,8.29909706116,-1.14855325222,-0.0722480788827,-0.36327123642,0.30395039916,9.76999950409,-17.2391891479,8.39245700836,-37.982749939,3.0452489852899998,-1.5318603515000007,5.2086038589,-9.342332363139999,-1.1019334793099982,16.0
2018-10-05 19:42:26.700,0.331868849374,0.0375110068149,-0.134510230509,-0.0722480788827,-0.36327123642,0.30395039916,0.4314926,0.3334261,13.1212977,0.0,17.1866703033,8.29909706116,-1.14855325222,-0.0722480788827,-0.36327123642,0.30395039916,9.88999938965,-17.2391891479,10.3472137451,-43.982749939,3.0452489852899998,-1.5218582153,5.58991527561,-11.19692325594,-1.0115829706199981,16.0
2018-10-05 19:42:26.750,0.33120871699,0.0715201549119,-0.202196699494,0.138721033931,-0.390456944704,0.41623622179,0.71588545,1.8386823957799997e-15,15.01398115,0.0,17.1866703033,8.29909706116,-1.14855325222,-0.0722480788827,-0.36327123642,0.30395039916,9.88999938965,-17.2391891479,10.3472137451,-35.231178283700004,2.2935099154720002,-4.217460632399998,5.58991527561,-11.19692325594,-1.0115829706199981,16.0
2018-10-05 19:42:26.800,0.33120871699,0.0715201549119,-0.202196699494,0.138721033931,-0.390456944704,0.41623622179,0.71588545,1.8386823957799997e-15,15.01398115,0.0,17.1866703033,8.29909706116,-1.14855325222,-0.0722480788827,-0.36327123642,0.30395039916,10.0,-62.7180099487,9.16276550293,-37.231178283700004,2.2835099250120003,-4.217460632399998,4.666046142600001,-10.820675849939999,-0.8809036612509981,16.0
2018-10-05 19:42:26.850,0.33120871699,0.0715201549119,-0.202196699494,0.138721033931,-0.390456944704,0.41623622179,0.71588545,1.8386823957799997e-15,15.01398115,0.0,16.4337730408,10.3170490265,-0.880903661251,0.138721033931,-0.390456944704,0.41623622179,10.0,-62.7180099487,9.16276550293,-37.231178283700004,2.4635099917620003,-2.917461395300002,4.2771291733000005,-10.647513389540002,-0.8092225193979982,16.0
2018-10-05 19:42:26.900,0.33120871699,0.0715201549119,-0.202196699494,0.138721033931,-0.390456944704,0.41623622179,0.71588545,1.8386823957799997e-15,15.01398115,0.0,16.4337730408,10.3170490265,-0.880903661251,0.138721033931,-0.390456944704,0.41623622179,10.0,-62.7180099487,9.16276550293,-37.231178283700004,2.4635099917620003,-2.917461395300002,4.2771291733000005,-10.647513389540002,-0.8092225193979982,16.0
2018-10-05 19:42:26.950,0.33120871699,0.0715201549119,-0.202196699494,0.138721033931,-0.390456944704,0.41623622179,0.71588545,1.8386823957799997e-15,15.01398115,0.0,16.4337730408,10.3170490265,-0.880903661251,0.138721033931,-0.390456944704,0.41623622179,10.1099996567,-62.7180099487,8.02148532867,-38.231178283700004,2.5935101062020003,-1.3074607849000017,3.5222730637,-10.7089862823,-0.6312299966809981,16.0
2018-10-05 19:42:27.000,0.33120871699,0.0715201549119,-0.202196699494,0.138721033931,-0.390456944704,0.41623622179,0.71588545,1.8386823957799997e-15,15.01398115,0.0,16.4337730408,10.3170490265,-0.880903661251,0.138721033931,-0.390456944704,0.41623622179,10.1099996567,-62.7180099487,8.02148532867,-38.231178283700004,2.5935101062020003,-1.3074607849000017,3.5222730637,-10.7089862823,-0.6312299966809981,16.0
2018-10-05 19:42:27.050,0.33120871699,0.0715201549119,-0.202196699494,0.138721033931,-0.390456944704,0.41623622179,0.71588545,1.8386823957799997e-15,15.01398115,0.0,16.4337730408,10.3170490265,-0.880903661251,0.138721033931,-0.390456944704,0.41623622179,10.1899995804,-108.003616333,7.6879734993,-40.231178283700004,2.733509972692,-0.9474601746000033,2.6462221146000005,-10.199409484899999,-0.5113376975059981,16.0
2018-10-05 19:42:27.100,0.33202105493,0.115840202303,-0.29315295117,-0.275421023369,-0.37941506505,0.351881444454,0.69627215,0.4118793,14.71978165,0.0,15.0609769821,12.8627519608,-0.478805840015,0.138721033931,-0.390456944704,0.41623622179,10.1899995804,-108.003616333,7.6879734993,-40.231178283700004,2.7535099536220002,-0.9474601746000033,2.1289310456,-9.861386299100001,-0.4637870490549982,16.0
2018-10-05 19:42:27.150,0.33202105493,0.115840202303,-0.29315295117,-0.275421023369,-0.37941506505,0.351881444454,0.69627215,0.4118793,14.71978165,0.0,15.0609769821,12.8627519608,-0.478805840015,0.138721033931,-0.390456944704,0.41623622179,10.2600002289,-108.003616333,6.65758466721,-29.257873535199998,2.102037131786,2.4422149659,1.8014507294000008,-9.6353111267,-0.45381250977499815,16.0
2018-10-05 19:42:27.200,0.33202105493,0.115840202303,-0.29315295117,-0.275421023369,-0.37941506505,0.351881444454,0.69627215,0.4118793,14.71978165,0.0,15.0609769821,12.8627519608,-0.478805840015,0.138721033931,-0.390456944704,0.41623622179,10.2600002289,-108.003616333,6.65758466721,-29.257873535199998,2.102037131786,2.4422149659,1.8014507294000008,-9.6353111267,-0.45381250977499815,16.0
2018-10-05 19:42:27.250,0.33202105493,0.115840202303,-0.29315295117,-0.275421023369,-0.37941506505,0.351881444454,0.69627215,0.4118793,14.71978165,0.0,15.0609769821,12.8627519608,-0.478805840015,0.138721033931,-0.390456944704,0.41623622179,10.3299999237,-147.004516602,9.00852584839,-36.2578735352,2.302037179466,-2.077785491900002,1.6154737473000012,-11.57840442653,-0.43678888678599803,16.0
2018-10-05 19:42:27.300,0.33202105493,0.115840202303,-0.29315295117,-0.275421023369,-0.37941506505,0.351881444454,0.69627215,0.4118793,14.71978165,0.0,15.0609769821,12.8627519608,-0.478805840015,0.138721033931,-0.390456944704,0.41623622179,10.3299999237,-147.004516602,9.00852584839,-36.2578735352,2.312037169936,-2.077785491900002,1.1659460068000005,-11.21166229243,-0.45242619514499804,16.0
2018-10-05 19:42:27.350,0.33202105493,0.115840202303,-0.29315295117,-0.275421023369,-0.37941506505,0.351881444454,0.69627215,0.4118793,14.71978165,0.0,13.6072483063,14.7917366028,-0.468293398619,-0.275421023369,-0.37941506505,0.351881444454,10.3999996185,-147.004516602,7.85735940933,-37.2578735352,2.512036979196,-0.6377830505000048,0.7123689652000014,-10.81865787503,-0.48346298932999804,16.0
2018-10-05 19:42:27.400,0.33202105493,0.115840202303,-0.29315295117,-0.275421023369,-0.37941506505,0.351881444454,0.69627215,0.4118793,14.71978165,0.0,13.6072483063,14.7917366028,-0.468293398619,-0.275421023369,-0.37941506505,0.351881444454,10.3999996185,-147.004516602,7.85735940933,-37.2578735352,2.522036969666,-0.6377830505000048,0.4113397599000006,-11.5809500217,-0.514290273189998,16.0
2018-10-05 19:42:27.450,0.33202105493,0.115840202303,-0.29315295117,-0.275421023369,-0.37941506505,0.351881444454,0.69627215,0.4118793,14.71978165,0.0,13.6072483063,14.7917366028,-0.468293398619,-0.275421023369,-0.37941506505,0.351881444454,10.3999996185,-147.004516602,7.85735940933,-37.2578735352,2.522036969666,-0.6377830505000048,0.4113397599000006,-11.5809500217,-0.514290273189998,16.0
2018-10-05 19:42:27.500,0.34660293353,0.16686491981,-0.369352632145,-0.0255041811615,-0.407771945,0.346282124519,0.784532,0.06864655,13.3958839,0.0,13.6072483063,14.7917366028,-0.468293398619,-0.275421023369,-0.37941506505,0.351881444454,10.3999996185,-147.004516602,7.85735940933,-37.2578735352,2.522036969666,-0.6377830505000048,0.4113397599000006,-11.5809500217,-0.514290273189998,16.0
2018-10-05 19:42:27.550,0.34660293353,0.16686491981,-0.369352632145,-0.0255041811615,-0.407771945,0.346282124519,0.784532,0.06864655,13.3958839,0.0,13.6072483063,14.7917366028,-0.468293398619,-0.275421023369,-0.37941506505,0.351881444454,10.5399999619,-170.990753174,7.27452135086,-31.198513030999997,2.1243584155999997,3.9179382323999974,-0.4622020720999984,-10.7078993321,-0.539030492305998,16.0
2018-10-05 19:42:27.600,0.34660293353,0.16686491981,-0.369352632145,-0.0255041811615,-0.407771945,0.346282124519,0.784532,0.06864655,13.3958839,0.0,11.9406480789,16.5389156342,-0.539481043816,-0.0255041811615,-0.407771945,0.346282124519,10.5399999619,-170.990753174,7.27452135086,-31.198513030999997,2.1243584155999997,3.9179382323999974,-0.8835124968999999,-10.258795023,-0.542636334895998,16.0
2018-10-05 19:42:27.650,0.34660293353,0.16686491981,-0.369352632145,-0.0255041811615,-0.407771945,0.346282124519,0.784532,0.06864655,13.3958839,0.0,11.9406480789,16.5389156342,-0.539481043816,-0.0255041811615,-0.407771945,0.346282124519,10.6199998856,-208.476638794,6.24821424484,-32.198513031,2.33435845375,5.767936706500002,-1.1819915770999998,-9.9124147892,-0.531315982341998,16.0
2018-10-05 19:42:27.700,0.34660293353,0.16686491981,-0.369352632145,-0.0255041811615,-0.407771945,0.346282124519,0.784532,0.06864655,13.3958839,0.0,11.9406480789,16.5389156342,-0.539481043816,-0.0255041811615,-0.407771945,0.346282124519,10.6199998856,-208.476638794,6.24821424484,-32.198513031,2.33435845375,5.767936706500002,-1.1819915770999998,-9.9124147892,-0.531315982341998,16.0
2018-10-05 19:42:27.750,0.34660293353,0.16686491981,-0.369352632145,-0.0255041811615,-0.407771945,0.346282124519,0.784532,0.06864655,13.3958839,0.0,11.9406480789,16.5389156342,-0.539481043816,-0.0255041811615,-0.407771945,0.346282124519,10.6999998093,-208.476638794,6.31409358978,-35.198513031,2.5543584823600005,5.887935638400002,-1.9404478073,-9.68773376942,-0.546346068381998,16.0
2018-10-05 19:42:27.800,0.337116533985,0.200547255612,-0.440660306483,-0.0821321159601,-0.418188482523,0.410236030817,1.06892485,0.28439285,14.32751565,0.0,9.94183254242,18.1716747284,-0.574168562889,-0.0821321159601,-0.418188482523,0.410236030817,10.6999998093,-208.476638794,6.31409358978,-25.0993347168,2.53714847564,6.830532074000004,-2.1828908919999996,-9.34283554554,-0.574168562888998,16.0
2018-10-05 19:42:27.850,0.337116533985,0.200547255612,-0.440660306483,-0.0821321159601,-0.418188482523,0.410236030817,1.06892485,0.28439285,14.32751565,0.0,9.94183254242,18.1716747284,-0.574168562889,-0.0821321159601,-0.418188482523,0.410236030817,10.779999733,-242.252349854,5.36071014404,-26.0993347168,2.78714847564,9.020534515400001,-2.4317560196000017,-8.98208248615,-0.589292645453998,16.0
2018-10-05 19:42:27.900,0.337116533985,0.200547255612,-0.440660306483,-0.0821321159601,-0.418188482523,0.410236030817,1.06892485,0.28439285,14.32751565,0.0,9.94183254242,18.1716747284,-0.574168562889,-0.0821321159601,-0.418188482523,0.410236030817,10.8599996567,-242.252349854,5.19199371338,-28.0993347168,2.79714870453,9.020534515400001,-2.7602367402,-8.944454237816,-0.619951725005998,16.0
2018-10-05 19:42:27.950,0.337116533985,0.200547255612,-0.440660306483,-0.0821321159601,-0.418188482523,0.410236030817,1.06892485,0.28439285,14.32751565,0.0,9.94183254242,18.1716747284,-0.574168562889,-0.0821321159601,-0.418188482523,0.410236030817,10.8599996567,-242.252349854,5.19199371338,-28.0993347168,3.07714891433,10.050533294700003,-2.994760513300001,-8.570106551045999,-0.642501413821998,16.0
2018-10-05 19:42:28.000,0.337116533985,0.200547255612,-0.440660306483,-0.0821321159601,-0.418188482523,0.410236030817,1.06892485,0.28439285,14.32751565,0.0,9.94183254242,18.1716747284,-0.574168562889,-0.0821321159601,-0.418188482523,0.410236030817,10.9499998093,-286.040893555,4.35944414139,-28.0993347168,3.3571486473100003,12.670532226600002,-3.4069004059,-7.833234354856001,-0.676373600959998,16.0
2018-10-05 19:42:28.050,0.337116533985,0.200547255612,-0.440660306483,-0.0821321159601,-0.418188482523,0.410236030817,1.06892485,0.28439285,14.32751565,0.0,7.55786037445,19.5994529724,-0.675741672516,-0.0821321159601,-0.418188482523,0.410236030817,10.9499998093,-286.040893555,4.35944414139,-28.0993347168,3.3571486473100003,12.670532226600002,-3.4069004059,-7.833234354856001,-0.676373600959998,16.0
2018-10-05 19:42:28.100,0.337116533985,0.200547255612,-0.440660306483,-0.0821321159601,-0.418188482523,0.410236030817,1.06892485,0.28439285,14.32751565,0.0,7.55786037445,19.5994529724,-0.675741672516,-0.0821321159601,-0.418188482523,0.410236030817,10.9499998093,-286.040893555,4.35944414139,-28.0993347168,3.3471488952599997,12.670532226600002,-3.7816448212000005,-7.076001211996,-0.679313182830998,16.0
2018-10-05 19:42:28.150,0.319979640049,0.237561278347,-0.515949825708,0.183732107282,-0.448585659266,0.403948575258,1.08853815,-0.0588399,14.513842,0.0,7.55786037445,19.5994529724,-0.675741672516,-0.0821321159601,-0.418188482523,0.410236030817,11.0500001907,-286.040893555,3.62818622589,-29.0993347168,3.62714862823,15.610532760700004,-3.884204864499999,-6.855646178126,-0.665789306163998,16.0
2018-10-05 19:42:28.200,0.319979640049,0.237561278347,-0.515949825708,0.183732107282,-0.448585659266,0.403948575258,1.08853815,-0.0588399,14.513842,0.0,7.55786037445,19.5994529724,-0.675741672516,-0.0821321159601,-0.418188482523,0.410236030817,11.1399993896,-314.21585083,3.13480329514,-18.7861804962,3.5760351419500003,19.917804718,-4.349366188100001,-5.853287761564309,-0.554094731807998,16.0
2018-10-05 19:42:28.250,0.319979640049,0.237561278347,-0.515949825708,0.183732107282,-0.448585659266,0.403948575258,1.08853815,-0.0588399,14.513842,0.0,7.55786037445,19.5994529724,-0.675741672516,-0.0821321159601,-0.418188482523,0.410236030817,11.1399993896,-314.21585083,3.13480329514,-18.7861804962,3.5760351419500003,19.917804718,-4.349366188100001,-5.853287761564309,-0.554094731807998,16.0
2018-10-05 19:42:28.300,0.319979640049,0.237561278347,-0.515949825708,0.183732107282,-0.448585659266,0.403948575258,1.08853815,-0.0588399,14.513842,0.0,4.95017576218,20.6621284485,-0.440474778414,0.183732107282,-0.448585659266,0.403948575258,11.1399993896,-314.21585083,3.13480329514,-18.7861804962,3.5660353899000006,19.917804718,-4.6621294022,-4.9437027624843095,-0.44047477841399807,16.0
2018-10-05 19:42:28.350,0.319979640049,0.237561278347,-0.515949825708,0.183732107282,-0.448585659266,0.403948575258,1.08853815,-0.0588399,14.513842,0.0,4.95017576218,20.6621284485,-0.440474778414,0.183732107282,-0.448585659266,0.403948575258,11.2199993134,-314.21585083,2.6030728817,-18.7861804962,3.70603525639,24.2378044128,-4.732010841399999,-4.71106058871431,-0.42154324054699804,16.0
2018-10-05 19:42:28.400,0.319979640049,0.237561278347,-0.515949825708,0.183732107282,-0.448585659266,0.403948575258,1.08853815,-0.0588399,14.513842,0.0,4.95017576218,20.6621284485,-0.440474778414,0.183732107282,-0.448585659266,0.403948575258,11.2899999619,-353.923797607,2.19782853127,-19.7861804962,3.78603518009,28.907804489100002,-5.0093212128,-3.605966177020096,-0.26148328185099806,16.0
2018-10-05 19:42:28.450,0.319979640049,0.237561278347,-0.515949825708,0.183732107282,-0.448585659266,0.403948575258,1.08853815,-0.0588399,14.513842,0.0,4.95017576218,20.6621284485,-0.440474778414,0.183732107282,-0.448585659266,0.403948575258,11.2899999619,-353.923797607,2.19782853127,-19.7861804962,3.78603518009,28.907804489100002,-5.0093212128,-3.605966177020096,-0.26148328185099806,16.0
2018-10-05 19:42:28.500,0.261524018959,0.253025718725,-0.599640949996,0.345995157957,-0.475070744753,0.353522956371,1.3140911,0.10787315,17.38719045,0.0,2.67716431618,21.1857681274,-0.0714813694358,0.345995157957,-0.475070744753,0.353522956371,11.2899999619,-353.923797607,2.19782853127,-7.800058364870001,2.7933745384199997,24.569799423200003,-5.185768127399999,-2.677171316180096,-0.07148136943579804,16.0
2018-10-05 19:42:28.550,0.261524018959,0.253025718725,-0.599640949996,0.345995157957,-0.475070744753,0.353522956371,1.3140911,0.10787315,17.38719045,0.0,2.67716431618,21.1857681274,-0.0714813694358,0.345995157957,-0.475070744753,0.353522956371,11.3400001526,-353.923797607,1.89351379871,-7.800058364870001,2.7933745384199997,29.799798965500003,-5.240673065199999,-2.227772321730096,0.02166505344210196,16.0
2018-10-05 19:42:28.600,0.261524018959,0.253025718725,-0.599640949996,0.345995157957,-0.475070744753,0.353522956371,1.3140911,0.10787315,17.38719045,0.0,2.67716431618,21.1857681274,-0.0714813694358,0.345995157957,-0.475070744753,0.353522956371,11.3400001526,-353.923797607,1.89351379871,-7.800058364870001,2.7933745384199997,29.799798965500003,-5.240673065199999,-2.227772321730096,0.02166505344210196,16.0
2018-10-05 19:42:28.650,0.261524018959,0.253025718725,-0.599640949996,0.345995157957,-0.475070744753,0.353522956371,1.3140911,0.10787315,17.38719045,0.0,2.67716431618,21.1857681274,-0.0714813694358,0.345995157957,-0.475070744753,0.353522956371,11.3599996567,-378.508178711,1.70754265785,-7.800058364870001,2.70337486267,35.21979856491,-5.318580627399999,-1.357579555540096,0.22080624103500196,16.0
2018-10-05 19:42:28.700,0.261524018959,0.253025718725,-0.599640949996,0.345995157957,-0.475070744753,0.353522956371,1.3140911,0.10787315,17.38719045,0.0,2.67716431618,21.1857681274,-0.0714813694358,0.345995157957,-0.475070744753,0.353522956371,11.3599996567,-378.508178711,1.70754265785,-7.800058364870001,2.6833748817399994,35.21979856491,-5.339941024800002,-0.722222294838096,0.35247197747200193,16.0
2018-10-05 19:42:28.750,0.261524018959,0.253025718725,-0.599640949996,0.345995157957,-0.475070744753,0.353522956371,1.3140911,0.10787315,17.38719045,0.0,2.67716431618,21.1857681274,-0.0714813694358,0.345995157957,-0.475070744753,0.353522956371,11.3599996567,-378.508178711,1.61455762386,-7.800058364870001,2.5733747482299996,40.33979845047,-5.3278236389,-0.176383566291096,0.43517032265700195,16.0
2018-10-05 19:42:28.800,0.261524018959,0.253025718725,-0.599640949996,0.345995157957,-0.475070744753,0.353522956371,1.3140911,0.10787315,17.38719045,0.0,-0.198249936104,21.3093547821,0.523387789726,0.345995157957,-0.475070744753,0.353522956371,11.3599996567,-378.508178711,1.61455762386,-7.800058364870001,2.5733747482299996,40.33979845047,-5.3278236389,-0.176383566291096,0.43517032265700195,16.0
2018-10-05 19:42:28.850,0.261524018959,0.253025718725,-0.599640949996,0.345995157957,-0.475070744753,0.353522956371,1.3140911,0.10787315,17.38719045,0.0,-0.198249936104,21.3093547821,0.523387789726,0.345995157957,-0.475070744753,0.353522956371,11.3299999237,-401.137359619,1.63991725445,-7.800058364870001,2.42337465286,45.119798421860004,-5.2744522095000015,0.539659235446904,0.585851371288002,16.0
2018-10-05 19:42:28.900,0.149993957217,0.222637003668,-0.692572570223,0.743977546692,-0.29500991106,0.231721803546,0.65704555,0.38245935,14.66094175,0.0,-0.198249936104,21.3093547821,0.523387789726,0.345995157957,-0.475070744753,0.353522956371,11.3299999237,-401.137359619,1.63991725445,-7.800058364870001,2.3933744430499995,45.119798421860004,-5.216878891,1.019343528719904,0.720503091812002,16.0
2018-10-05 19:42:28.950,0.149993957217,0.222637003668,-0.692572570223,0.743977546692,-0.29500991106,0.231721803546,0.65704555,0.38245935,14.66094175,0.0,-0.198249936104,21.3093547821,0.523387789726,0.345995157957,-0.475070744753,0.353522956371,11.279999733,-401.137359619,1.74135375023,4.36451387405,-0.3145117759699998,37.47239732739,-5.125413894699999,1.476523790329904,0.865553200245002,16.0
2018-10-05 19:42:29.000,0.149993957217,0.222637003668,-0.692572570223,0.743977546692,-0.29500991106,0.231721803546,0.65704555,0.38245935,14.66094175,0.0,-2.04927206039,20.9881305695,1.08785772324,0.743977546692,-0.29500991106,0.231721803546,11.279999733,-401.137359619,1.74135375023,4.36451387405,-0.34451198578000053,37.48239755627,-5.031652450599999,1.897742066349904,1.028261542320002,16.0
2018-10-05 19:42:29.050,0.149993957217,0.222637003668,-0.692572570223,0.743977546692,-0.29500991106,0.231721803546,0.65704555,0.38245935,14.66094175,0.0,-2.04927206039,20.9881305695,1.08785772324,0.743977546692,-0.29500991106,0.231721803546,11.1899995804,-418.10723877,1.90196382999,4.36451387405,-0.6945118904100003,41.3123970031,-4.9495220184,2.180531177489904,1.150385975840002,16.0
2018-10-05 19:42:29.100,0.149993957217,0.222637003668,-0.692572570223,0.743977546692,-0.29500991106,0.231721803546,0.65704555,0.38245935,14.66094175,0.0,-2.04927206039,20.9881305695,1.08785772324,0.743977546692,-0.29500991106,0.231721803546,11.1899995804,-418.10723877,1.90196382999,4.36451387405,-0.7245116233800006,41.3023977279,-4.775024414099999,2.675834569899904,1.372827291490002,16.0
2018-10-05 19:42:29.150,0.149993957217,0.222637003668,-0.692572570223,0.743977546692,-0.29500991106,0.231721803546,0.65704555,0.38245935,14.66094175,0.0,-2.04927206039,20.9881305695,1.08785772324,0.743977546692,-0.29500991106,0.231721803546,11.0799999237,-418.10723877,2.13019871712,4.36451387405,-1.1545119285599998,44.8623971939,-4.6845703125,2.883028182949904,1.464755058290002,16.0
2018-10-05 19:42:29.200,0.149993957217,0.222637003668,-0.692572570223,0.743977546692,-0.29500991106,0.231721803546,0.65704555,0.38245935,14.66094175,0.0,-2.04927206039,20.9881305695,1.08785772324,0.743977546692,-0.29500991106,0.231721803546,11.0799999237,-418.10723877,2.13019871712,4.36451387405,-1.1545119285599998,44.8623971939,-4.6845703125,2.883028182949904,1.464755058290002,16.0
2018-10-05 19:42:29.250,0.149993957217,0.222637003668,-0.692572570223,0.743977546692,-0.29500991106,0.231721803546,0.65704555,0.38245935,14.66094175,0.0,-2.04927206039,20.9881305695,1.08785772324,0.743977546692,-0.29500991106,0.231721803546,10.9200000763,-439.593505859,2.40070009232,5.36451387405,-1.6845116615300002,47.6123962402,-4.4902114868,3.253235015839904,1.616223931310002,16.0
2018-10-05 19:42:29.300,0.149993957217,0.222637003668,-0.692572570223,0.743977546692,-0.29500991106,0.231721803546,0.65704555,0.38245935,14.66094175,0.0,-3.40271568298,20.3943977356,1.67224764824,0.743977546692,-0.29500991106,0.231721803546,10.75,-439.593505859,2.71346735954,5.36451387405,-1.69451165199,47.6023979187,-4.3057117462,3.522118482559904,1.720222353940002,16.0
2018-10-05 19:42:29.350,0.149993957217,0.222637003668,-0.692572570223,0.743977546692,-0.29500991106,0.231721803546,0.65704555,0.38245935,14.66094175,0.0,-3.40271568298,20.3943977356,1.67224764824,0.743977546692,-0.29500991106,0.231721803546,10.75,-439.593505859,2.71346735954,5.36451387405,-2.1745116710700003,49.7423973083,-4.206813812299998,3.643949184389904,1.812465310100002,16.0
2018-10-05 19:42:29.400,0.0234566273534,0.136341167532,-0.747956031128,0.601899445057,-0.109624117613,0.0210511945188,0.2157463,0.4118793,12.97419795,0.0,-3.40271568298,20.3943977356,1.67224764824,0.743977546692,-0.29500991106,0.231721803546,10.5399999619,-425.670440674,3.04313755035,11.07053089142,-5.779446840290001,34.3881216049,-4.206813812299998,3.643949184389904,1.812465310100002,16.0
2018-10-05 19:42:29.450,0.0234566273534,0.136341167532,-0.747956031128,0.601899445057,-0.109624117613,0.0210511945188,0.2157463,0.4118793,12.97419795,0.0,-3.40271568298,20.3943977356,1.67224764824,0.743977546692,-0.29500991106,0.231721803546,10.5399999619,-425.670440674,3.04313755035,11.07053089142,-5.779446840290001,34.3881216049,-4.007133483899999,3.848577413529904,2.0104434490200016,16.0
2018-10-05 19:42:29.500,0.0234566273534,0.136341167532,-0.747956031128,0.601899445057,-0.109624117613,0.0210511945188,0.2157463,0.4118793,12.97419795,0.0,-3.95321035385,19.8693733215,2.10262966156,0.601899445057,-0.109624117613,0.0210511945188,10.5399999619,-425.670440674,3.04313755035,11.07053089142,-5.78944683075,34.3781232834,-3.8693733214999995,3.953203353849904,2.1026296615600018,16.0
2018-10-05 19:42:29.550,0.0234566273534,0.136341167532,-0.747956031128,0.601899445057,-0.109624117613,0.0210511945188,0.2157463,0.4118793,12.97419795,0.0,-3.95321035385,19.8693733215,2.10262966156,0.601899445057,-0.109624117613,0.0210511945188,10.3199996948,-425.670440674,3.39817047119,11.07053089142,-6.449446797370001,35.6781225204,-3.745002746600001,3.988353166549904,2.147975921630002,16.0
2018-10-05 19:42:29.600,0.0234566273534,0.136341167532,-0.747956031128,0.601899445057,-0.109624117613,0.0210511945188,0.2157463,0.4118793,12.97419795,0.0,-3.95321035385,19.8693733215,2.10262966156,0.601899445057,-0.109624117613,0.0210511945188,10.3199996948,-425.670440674,3.39817047119,11.07053089142,-6.449446797370001,35.6781225204,-3.745002746600001,3.988353166549904,2.147975921630002,16.0
2018-10-05 19:42:29.650,0.0234566273534,0.136341167532,-0.747956031128,0.601899445057,-0.109624117613,0.0210511945188,0.2157463,0.4118793,12.97419795,0.0,-3.95321035385,19.8693733215,2.10262966156,0.601899445057,-0.109624117613,0.0210511945188,10.0699996948,-403.475189209,3.73629617691,12.07053089142,-7.0894467830700005,36.268122673,-3.5961933136000006,3.991737995119904,2.188701152800002,16.0
2018-10-05 19:42:29.700,0.0234566273534,0.136341167532,-0.747956031128,0.601899445057,-0.109624117613,0.0210511945188,0.2157463,0.4118793,12.97419795,0.0,-3.95321035385,19.8693733215,2.10262966156,0.601899445057,-0.109624117613,0.0210511945188,10.0699996948,-403.475189209,3.73629617691,12.07053089142,-7.0894467830700005,36.268122673,-3.5961933136000006,3.991737995119904,2.188701152800002,16.0
2018-10-05 19:42:29.750,-0.0603202149726,0.0424888278757,-0.763445089761,0.725775837898,0.0305251646787,0.0593531131744,0.0588399,0.18632635,10.2773692,0.0,-3.95321035385,19.8693733215,2.10262966156,0.601899445057,-0.109624117613,0.0210511945188,9.81999969482,-403.475189209,4.09132909775,12.85511493683,-7.951552897689001,22.274075210094,-3.3965415955000005,3.930169019669904,2.150598764420002,16.0
2018-10-05 19:42:29.800,-0.0603202149726,0.0424888278757,-0.763445089761,0.725775837898,0.0305251646787,0.0593531131744,0.0588399,0.18632635,10.2773692,0.0,-3.93017601967,19.3965415955,2.15059876442,0.725775837898,0.0305251646787,0.0593531131744,9.81999969482,-403.475189209,4.09132909775,12.85511493683,-7.951552897689001,22.284075438994,-3.3420848845999984,3.889500055279904,2.1205635070800017,16.0
2018-10-05 19:42:29.850,-0.0603202149726,0.0424888278757,-0.763445089761,0.725775837898,0.0305251646787,0.0593531131744,0.0588399,0.18632635,10.2773692,0.0,-3.93017601967,19.3965415955,2.15059876442,0.725775837898,0.0305251646787,0.0593531131744,9.56999969482,-383.990478516,4.41254901886,12.85511493683,-8.5115528851719,22.304073989394002,-3.2606906890999987,3.815504941909904,2.0649101734200017,16.0
2018-10-05 19:42:29.900,-0.0603202149726,0.0424888278757,-0.763445089761,0.725775837898,0.0305251646787,0.0593531131744,0.0588399,0.18632635,10.2773692,0.0,-3.93017601967,19.3965415955,2.15059876442,0.725775837898,0.0305251646787,0.0593531131744,9.31999969482,-383.990478516,4.73376512527,13.85511493683,-8.501552887258,22.314074218294,-3.2104072571000017,3.767135057419904,2.0125207901000017,16.0
2018-10-05 19:42:29.950,-0.0603202149726,0.0424888278757,-0.763445089761,0.725775837898,0.0305251646787,0.0593531131744,0.0588399,0.18632635,10.2773692,0.0,-3.93017601967,19.3965415955,2.15059876442,0.725775837898,0.0305251646787,0.0593531131744,9.31999969482,-383.990478516,4.73376512527,13.85511493683,-9.011552870271,22.204075515294,-3.1659832001000012,3.695960197419904,1.956039071080002,16.0
2018-10-05 19:42:30.000,-0.0603202149726,0.0424888278757,-0.763445089761,0.725775837898,0.0305251646787,0.0593531131744,0.0588399,0.18632635,10.2773692,0.0,-3.93017601967,19.3965415955,2.15059876442,0.725775837898,0.0305251646787,0.0593531131744,9.31999969482,-383.990478516,4.73376512527,13.85511493683,-9.001552879807,22.214073836794,-3.1659832001000012,3.695960197419904,1.956039071080002,16.0
2018-10-05 19:42:30.050,-0.0603202149726,0.0424888278757,-0.763445089761,0.725775837898,0.0305251646787,0.0593531131744,0.0588399,0.18632635,10.2773692,0.0,-3.55339407921,19.0830421448,1.82873809338,0.725775837898,0.0305251646787,0.0593531131744,9.09000015259,-350.854675293,5.0211725235,13.85511493683,-9.46155285835,21.834074675994,-3.0633754730000007,3.516273174259904,1.795024275780002,16.0
2018-10-05 19:42:30.100,-0.11189895365,-0.0383316042028,-0.772427892771,0.317099332809,0.0803200304508,0.0541815049946,-0.06864655,0.51975245,8.16893945,0.0,-3.55339407921,19.0830421448,1.82873809338,0.725775837898,0.0305251646787,0.0593531131744,9.09000015259,-350.854675293,5.0211725235,13.85511493683,-9.451552867890001,21.854075133794,-3.0056686401000015,3.413265619249904,1.686208486560002,16.0
2018-10-05 19:42:30.150,-0.11189895365,-0.0383316042028,-0.772427892771,0.317099332809,0.0803200304508,0.0541815049946,-0.06864655,0.51975245,8.16893945,0.0,-3.55339407921,19.0830421448,1.82873809338,0.725775837898,0.0305251646787,0.0593531131744,8.86999988556,-350.854675293,5.30012655258,15.4071884155,-8.59252369404,10.647456169200002,-2.9692554473999984,3.336680803269904,1.620928645130002,16.0
2018-10-05 19:42:30.200,-0.11189895365,-0.0383316042028,-0.772427892771,0.317099332809,0.0803200304508,0.0541815049946,-0.06864655,0.51975245,8.16893945,0.0,-3.55339407921,19.0830421448,1.82873809338,0.725775837898,0.0305251646787,0.0593531131744,8.86999988556,-350.854675293,5.30012655258,15.4071884155,-8.58252370358,10.657456398099999,-2.9214878081999984,3.198371562929904,1.517392396930002,16.0
2018-10-05 19:42:30.250,-0.11189895365,-0.0383316042028,-0.772427892771,0.317099332809,0.0803200304508,0.0541815049946,-0.06864655,0.51975245,8.16893945,0.0,-3.55339407921,19.0830421448,1.82873809338,0.725775837898,0.0305251646787,0.0593531131744,8.86999988556,-350.854675293,5.30012655258,15.4071884155,-8.58252370358,10.657456398099999,-2.9214878081999984,3.198371562929904,1.517392396930002,16.0
2018-10-05 19:42:30.300,-0.11189895365,-0.0383316042028,-0.772427892771,0.317099332809,0.0803200304508,0.0541815049946,-0.06864655,0.51975245,8.16893945,0.0,-3.00522947311,18.8625907898,1.39804422855,0.317099332809,0.0803200304508,0.0541815049946,8.67000007629,-325.980957031,5.54526281357,16.407188415500002,-8.95252370835,10.0774564743,-2.8783512115,3.051963958709904,1.419358253480002,16.0
2018-10-05 19:42:30.350,-0.11189895365,-0.0383316042028,-0.772427892771,0.317099332809,0.0803200304508,0.0541815049946,-0.06864655,0.51975245,8.16893945,0.0,-3.00522947311,18.8625907898,1.39804422855,0.317099332809,0.0803200304508,0.0541815049946,8.5,-325.980957031,5.78195095062,16.407188415500002,-9.272523641589999,9.357457161,-2.8246688842999994,2.843990955319904,1.341130375860002,16.0
2018-10-05 19:42:30.400,-0.11189895365,-0.0383316042028,-0.772427892771,0.317099332809,0.0803200304508,0.0541815049946,-0.06864655,0.51975245,8.16893945,0.0,-3.00522947311,18.8625907898,1.39804422855,0.317099332809,0.0803200304508,0.0541815049946,8.5,-325.980957031,5.78195095062,16.407188415500002,-9.272523641589999,9.3674573899,-2.7885570526000016,2.683349285099904,1.291741013530002,16.0
2018-10-05 19:42:30.450,-0.11189895365,-0.0383316042028,-0.772427892771,0.317099332809,0.0803200304508,0.0541815049946,-0.06864655,0.51975245,8.16893945,0.0,-3.00522947311,18.8625907898,1.39804422855,0.317099332809,0.0803200304508,0.0541815049946,8.32999992371,-301.141357422,5.97637081146,16.407188415500002,-9.622523784639998,8.447457313600001,-2.7510929108000006,2.527286443679904,1.235801100730002,16.0
2018-10-05 19:42:30.500,-0.11189895365,-0.0383316042028,-0.772427892771,0.317099332809,0.0803200304508,0.0541815049946,-0.06864655,0.51975245,8.16893945,0.0,-3.00522947311,18.8625907898,1.39804422855,0.317099332809,0.0803200304508,0.0541815049946,8.32999992371,-301.141357422,5.97637081146,16.407188415500002,-9.622523784639998,8.447457313600001,-2.7510929108000006,2.527286443679904,1.235801100730002,16.0
2018-10-05 19:42:30.550,-0.126666243796,-0.0819957803658,-0.771442340876,0.0882452502847,0.0875911712646,-0.00351127702743,-0.0784532,0.5687857,9.0809579,0.0,-2.44668030739,18.7241306305,1.18385386467,0.317099332809,0.0803200304508,0.0541815049946,8.1799993515,-301.141357422,6.16233968735,16.8061008453,-8.1472234726,2.7089138031000033,-2.703987121600001,2.356220397919904,1.134834408760002,16.0
2018-10-05 19:42:30.600,-0.126666243796,-0.0819957803658,-0.771442340876,0.0882452502847,0.0875911712646,-0.00351127702743,-0.0784532,0.5687857,9.0809579,0.0,-2.44668030739,18.7241306305,1.18385386467,0.317099332809,0.0803200304508,0.0541815049946,8.1799993515,-301.141357422,6.16233968735,16.8061008453,-8.1472234726,2.7189140320000007,-2.6708488463999984,2.231641445129904,1.062957048420002,16.0
2018-10-05 19:42:30.650,-0.126666243796,-0.0819957803658,-0.771442340876,0.0882452502847,0.0875911712646,-0.00351127702743,-0.0784532,0.5687857,9.0809579,0.0,-2.44668030739,18.7241306305,1.18385386467,0.317099332809,0.0803200304508,0.0541815049946,8.03999996185,-283.158294678,6.31449604034,16.8061008453,-8.417223453530001,1.9789142609000017,-2.640247344999999,2.116635713549904,0.955428242683002,16.0
2018-10-05 19:42:30.700,-0.126666243796,-0.0819957803658,-0.771442340876,0.0882452502847,0.0875911712646,-0.00351127702743,-0.0784532,0.5687857,9.0809579,0.0,-2.44668030739,18.7241306305,1.18385386467,0.317099332809,0.0803200304508,0.0541815049946,7.90999984741,-283.158294678,6.46664857864,17.8061008453,-8.417223453530001,1.9989147187,-2.6207714081000013,2.046671543089904,0.892781138420002,16.0
2018-10-05 19:42:30.750,-0.126666243796,-0.0819957803658,-0.771442340876,0.0882452502847,0.0875911712646,-0.00351127702743,-0.0784532,0.5687857,9.0809579,0.0,-2.44668030739,18.7241306305,1.18385386467,0.317099332809,0.0803200304508,0.0541815049946,7.90999984741,-283.158294678,6.46664857864,17.8061008453,-8.62722349167,1.3889141083000034,-2.602615356400001,1.956852230999904,0.833477795124002,16.0
2018-10-05 19:42:30.800,-0.126666243796,-0.0819957803658,-0.771442340876,0.0882452502847,0.0875911712646,-0.00351127702743,-0.0784532,0.5687857,9.0809579,0.0,-1.87794113159,18.5887966156,0.757292509079,0.0882452502847,0.0875911712646,-0.00351127702743,7.7999997139,-259.186553955,6.58499193192,17.8061008453,-8.62722349167,1.3989143372000008,-2.5815944671999986,1.835844430889904,0.705924272537002,16.0
2018-10-05 19:42:30.850,-0.126666243796,-0.0819957803658,-0.771442340876,0.0882452502847,0.0875911712646,-0.00351127702743,-0.0784532,0.5687857,9.0809579,0.0,-1.87794113159,18.5887966156,0.757292509079,0.0882452502847,0.0875911712646,-0.00351127702743,7.7999997139,-259.186553955,6.58499193192,17.8061008453,-8.77722334862,0.6189136505000015,-2.5682239532000004,1.760717544529904,0.601833820343002,16.0
2018-10-05 19:42:30.900,-0.126666243796,-0.0819957803658,-0.771442340876,0.0882452502847,0.0875911712646,-0.00351127702743,-0.0784532,0.5687857,9.0809579,0.0,-1.87794113159,18.5887966156,0.757292509079,0.0882452502847,0.0875911712646,-0.00351127702743,7.71999979019,-259.186553955,6.70870542526,17.8061008453,-8.77722334862,0.6289138794000024,-2.5580596924000005,1.63809354090656,0.41186600923500194,16.0
2018-10-05 19:42:30.950,-0.126666243796,-0.0819957803658,-0.771442340876,0.0882452502847,0.0875911712646,-0.00351127702743,-0.0784532,0.5687857,9.0809579,0.0,-1.87794113159,18.5887966156,0.757292509079,0.0882452502847,0.0875911712646,-0.00351127702743,7.71999979019,-259.186553955,6.70870542526,17.8061008453,-8.787223339090001,-0.1010856627999992,-2.5564727783000016,1.54712028289656,0.25568878650700194,16.0
2018-10-05 19:42:31.000,-0.107267998164,-0.111127737745,-0.745507383015,0.111040264368,0.0996052473783,-0.260372728109,-0.10787315,0.02941995,6.52142225,0.0,-1.34779584408,18.5653381348,-0.0181581545621,0.111040264368,0.0996052473783,-0.260372728109,7.71999979019,-259.186553955,6.70870542526,13.83254766464,-4.29748475552,-1.327732086200001,-2.5605335236,1.39250476145656,0.04800781607630196,16.0
2018-10-05 19:42:31.050,-0.107267998164,-0.111127737745,-0.745507383015,0.111040264368,0.0996052473783,-0.260372728109,-0.10787315,0.02941995,6.52142225,0.0,-1.34779584408,18.5653381348,-0.0181581545621,0.111040264368,0.0996052473783,-0.260372728109,7.71999979019,-259.186553955,6.70870542526,13.83254766464,-4.29748475552,-1.327732086200001,-2.5605335236,1.39250476145656,0.04800781607630196,16.0
2018-10-05 19:42:31.100,-0.107267998164,-0.111127737745,-0.745507383015,0.111040264368,0.0996052473783,-0.260372728109,-0.10787315,0.02941995,6.52142225,0.0,-1.34779584408,18.5653381348,-0.0181581545621,0.111040264368,0.0996052473783,-0.260372728109,7.67999982834,-244.946670532,6.80131435394,13.83254766464,-4.15748488903,-2.327732086200001,-2.5723228455000005,1.1848103501865601,-0.15736676752599804,16.0
2018-10-05 19:42:31.150,-0.107267998164,-0.111127737745,-0.745507383015,0.111040264368,0.0996052473783,-0.260372728109,-0.10787315,0.02941995,6.52142225,0.0,-1.34779584408,18.5653381348,-0.0181581545621,0.111040264368,0.0996052473783,-0.260372728109,7.65999984741,-244.946670532,6.93729782104,13.83254766464,-4.04748475552,-3.5377321243999997,-2.5867948532000025,0.9849475808431,-0.2725971341129981,15.9899997711
2018-10-05 19:42:31.200,-0.107267998164,-0.111127737745,-0.745507383015,0.111040264368,0.0996052473783,-0.260372728109,-0.10787315,0.02941995,6.52142225,0.0,-1.34779584408,18.5653381348,-0.0181581545621,0.111040264368,0.0996052473783,-0.260372728109,7.67999982834,-238.638885498,6.97496652603,13.83254766464,-3.93748486042,-4.8777322769,-2.6076307297000003,0.7491623945531,-0.37107503414199805,15.9899997711
2018-10-05 19:42:31.250,-0.107267998164,-0.111127737745,-0.745507383015,0.111040264368,0.0996052473783,-0.260372728109,-0.10787315,0.02941995,6.52142225,0.0,-1.34779584408,18.5653381348,-0.0181581545621,0.111040264368,0.0996052473783,-0.260372728109,7.67999982834,-238.638885498,6.97496652603,13.83254766464,-3.93748486042,-4.8777322769,-2.6170644760000012,0.6441206522281,-0.41849106550199805,15.9899997711
2018-10-05 19:42:31.300,-0.107267998164,-0.111127737745,-0.745507383015,0.111040264368,0.0996052473783,-0.260372728109,-0.10787315,0.02941995,6.52142225,0.0,-0.683442652225,18.6170158386,-0.418491065502,0.111040264368,0.0996052473783,-0.260372728109,7.71000003815,-238.638885498,7.0042090416,13.83254766464,-3.93748486042,-4.8777322769,-2.621226310700001,0.5448633618651,-0.4828048348429981,15.9899997711
2018-10-05 19:42:31.350,-0.107267998164,-0.111127737745,-0.745507383015,0.111040264368,0.0996052473783,-0.260372728109,-0.10787315,0.02941995,6.52142225,0.0,-0.683442652225,18.6170158386,-0.418491065502,0.111040264368,0.0996052473783,-0.260372728109,7.71000003815,-238.638885498,7.0042090416,13.83254766464,-3.80748474598,-6.097732543999999,-2.6373987197999984,0.203969269991,-0.624982774257998,15.9899997711
