%time,field.orientation.x,field.orientation.y,field.orientation.z,field.angular_velocity.x,field.angular_velocity.y,field.angular_velocity.z,field.linear_acceleration.x,field.linear_acceleration.y,field.linear_acceleration.z,field.data,field.twist.linear.x,field.twist.linear.y,field.twist.linear.z,field.twist.angular.x,field.twist.angular.y,field.twist.angular.z,field.alt_error,field.aspd_error,field.xtrack_error,delta_yaw,delta_pitch,delta_roll,delta_x,delta_y,delta_z,delta_roll_airspeed
2018-09-11 22:05:28.950,,,,,,,,,,0.0,,,,,,,0.109999999404,-466.723815918,-39.4151115417,176.98274230959998,0.87202751636,33.1749869585,12.69117116926,20.11942148212,-0.671057879924998,15.0
2018-09-11 22:05:29.000,,,,,,,,,,0.0,,,,,,,0.209999993443,-478.539672852,-37.5079574585,174.25088500980002,2.3970968723299997,28.56620502467,12.67953610418,20.12369585042,-0.7838724851609981,15.0
2018-09-11 22:05:29.050,0.0283020348189,-0.0526197818096,-0.990834008387,0.755383729935,-0.0416353754699,-0.187157616019,-0.196133,0.1372931,7.8257067,0.0,,,,,,,0.209999993443,-478.539672852,-37.5079574585,174.25088500980002,2.3970968723299997,28.56620502467,12.6360428333,20.11310815812,-0.861661732196998,15.0
2018-09-11 22:05:29.100,0.0283020348189,-0.0526197818096,-0.990834008387,0.755383729935,-0.0416353754699,-0.187157616019,-0.196133,0.1372931,7.8257067,0.0,-18.8165454865,3.3349852562,-0.876263916492,0.755383729935,-0.0416353754699,-0.187157616019,0.319999992847,-478.539672852,-189.820083618,49.2508850098,4.72709679604,39.08620548247001,11.78008627894,23.72754764552,-0.8916237354279981,16.0
2018-09-11 22:05:29.150,0.0283020348189,-0.0526197818096,-0.990834008387,0.755383729935,-0.0416353754699,-0.187157616019,-0.196133,0.1372931,7.8257067,0.0,-18.8165454865,3.3349852562,-0.876263916492,0.755383729935,-0.0416353754699,-0.187157616019,0.319999992847,-478.539672852,-189.820083618,49.2508850098,4.72709679604,39.08620548247001,11.78008627894,23.72754764552,-0.8916237354279981,16.0
2018-09-11 22:05:29.200,0.0283020348189,-0.0526197818096,-0.990834008387,0.755383729935,-0.0416353754699,-0.187157616019,-0.196133,0.1372931,7.8257067,0.0,-18.8165454865,3.3349852562,-0.876263916492,0.755383729935,-0.0416353754699,-0.187157616019,0.319999992847,-478.539672852,-189.820083618,49.2508850098,4.757096827034,39.10620594027,11.65697526934,23.69044208522,-0.8761023879049981,16.0
2018-09-11 22:05:29.250,0.0283020348189,-0.0526197818096,-0.990834008387,0.755383729935,-0.0416353754699,-0.187157616019,-0.196133,0.1372931,7.8257067,0.0,-18.8165454865,3.3349852562,-0.876263916492,0.755383729935,-0.0416353754699,-0.187157616019,0.42999997735,-371.228607178,-187.938949585,49.2508850098,7.00709676743,39.116204261769994,11.55372595789,23.65922832492,-0.8664294481279982,16.0
2018-09-11 22:05:29.300,-0.00209684583771,-0.17760611125,-0.974736158292,0.820752561092,-0.0986493229866,0.0356032252312,-0.3530394,-0.12748645,10.95402805,0.0,-18.6570930481,3.84789061546,-0.837994158268,0.755383729935,-0.0416353754699,-0.187157616019,0.519999980927,-371.228607178,-186.052108765,47.632019043,7.8028833866100005,24.427352905299998,11.37032914164,23.597313880919998,-0.8379941582679981,16.0
2018-09-11 22:05:29.350,-0.00209684583771,-0.17760611125,-0.974736158292,0.820752561092,-0.0986493229866,0.0356032252312,-0.3530394,-0.12748645,10.95402805,0.0,-18.6570930481,3.84789061546,-0.837994158268,0.755383729935,-0.0416353754699,-0.187157616019,0.519999980927,-371.228607178,-186.052108765,47.632019043,7.8028833866100005,24.427352905299998,11.245503664040001,23.55907344822,-0.8100023269649981,16.0
2018-09-11 22:05:29.400,-0.00209684583771,-0.17760611125,-0.974736158292,0.820752561092,-0.0986493229866,0.0356032252312,-0.3530394,-0.12748645,10.95402805,0.0,-18.6570930481,3.84789061546,-0.837994158268,0.755383729935,-0.0416353754699,-0.187157616019,0.610000014305,-377.83795166,-184.171035767,47.632019043,9.92288327217,24.447353362999998,10.87805080416,23.43502712252,-0.7280482649799981,16.0
2018-09-11 22:05:29.450,-0.00209684583771,-0.17760611125,-0.974736158292,0.820752561092,-0.0986493229866,0.0356032252312,-0.3530394,-0.12748645,10.95402805,0.0,-18.6570930481,3.84789061546,-0.837994158268,0.755383729935,-0.0416353754699,-0.187157616019,0.610000014305,-377.83795166,-184.171035767,47.632019043,9.92288327217,24.447353362999998,10.87805080416,23.43502712252,-0.7280482649799981,16.0
2018-09-11 22:05:29.500,-0.00209684583771,-0.17760611125,-0.974736158292,0.820752561092,-0.0986493229866,0.0356032252312,-0.3530394,-0.12748645,10.95402805,0.0,-18.6570930481,3.84789061546,-0.837994158268,0.755383729935,-0.0416353754699,-0.187157616019,0.610000014305,-377.83795166,-184.171035767,47.632019043,9.96288371086,24.4573554993,10.62496185305,23.35360240932,-0.6321486830709981,16.0
2018-09-11 22:05:29.550,-0.00209684583771,-0.17760611125,-0.974736158292,0.820752561092,-0.0986493229866,0.0356032252312,-0.3530394,-0.12748645,10.95402805,0.0,-18.2910728455,4.95636701584,-0.481721311808,0.820752561092,-0.0986493229866,0.0356032252312,0.669999957085,-377.83795166,-182.308349609,47.632019043,11.93288350105,24.4573554993,10.3503546715,23.26196384432,-0.5134896636009981,16.0
2018-09-11 22:05:29.600,-0.00209684583771,-0.17760611125,-0.974736158292,0.820752561092,-0.0986493229866,0.0356032252312,-0.3530394,-0.12748645,10.95402805,0.0,-18.2910728455,4.95636701584,-0.481721311808,0.820752561092,-0.0986493229866,0.0356032252312,0.669999957085,-377.83795166,-182.308349609,47.632019043,11.93288350105,24.4573554993,10.081093311330001,23.16323947902,-0.4247676432129981,16.0
2018-09-11 22:05:29.650,-0.00209684583771,-0.17760611125,-0.974736158292,0.820752561092,-0.0986493229866,0.0356032252312,-0.3530394,-0.12748645,10.95402805,0.0,-18.2910728455,4.95636701584,-0.481721311808,0.820752561092,-0.0986493229866,0.0356032252312,0.709999978542,-385.380187988,-180.41242981,47.632019043,13.78288292884,24.4573554993,9.88407707216,23.098000526419998,-0.3490363359449981,16.0
2018-09-11 22:05:29.700,-0.0525283981873,-0.261143916088,-0.952298551562,0.326701551676,-0.234653145075,-0.178136140108,0.40207265,1.24544455,12.87613145,0.0,-18.2910728455,4.95636701584,-0.481721311808,0.820752561092,-0.0986493229866,0.0356032252312,0.709999978542,-385.380187988,-180.41242981,47.632019043,13.802883386640001,24.447353362999998,9.66905736925,23.03601551052,-0.2843996286389981,16.0
2018-09-11 22:05:29.750,-0.0525283981873,-0.261143916088,-0.952298551562,0.326701551676,-0.234653145075,-0.178136140108,0.40207265,1.24544455,12.87613145,0.0,-18.2910728455,4.95636701584,-0.481721311808,0.820752561092,-0.0986493229866,0.0356032252312,0.709999978542,-385.380187988,-180.41242981,47.632019043,13.802883386640001,24.447353362999998,9.66905736925,23.03601551052,-0.2843996286389981,16.0
2018-09-11 22:05:29.800,-0.0525283981873,-0.261143916088,-0.952298551562,0.326701551676,-0.234653145075,-0.178136140108,0.40207265,1.24544455,12.87613145,0.0,-17.8748111725,6.24772882462,-0.0526968464255,0.326701551676,-0.234653145075,-0.178136140108,0.729999959469,-396.257202148,-176.673538208,44.873725891099994,13.41361725332,13.866483688399999,9.1053786278,22.84984302522,-0.09569419175389814,16.0
2018-09-11 22:05:29.850,-0.0525283981873,-0.261143916088,-0.952298551562,0.326701551676,-0.234653145075,-0.178136140108,0.40207265,1.24544455,12.87613145,0.0,-17.8748111725,6.24772882462,-0.0526968464255,0.326701551676,-0.234653145075,-0.178136140108,0.729999959469,-396.257202148,-176.673538208,44.873725891099994,13.41361725332,13.866483688399999,8.8556404114,22.77632808682,-0.010001152753798138,16.0
2018-09-11 22:05:29.900,-0.0525283981873,-0.261143916088,-0.952298551562,0.326701551676,-0.234653145075,-0.178136140108,0.40207265,1.24544455,12.87613145,0.0,-17.8748111725,6.24772882462,-0.0526968464255,0.326701551676,-0.234653145075,-0.178136140108,0.709999978542,-396.257202148,-174.798400879,44.873725891099994,14.993618130719998,13.856485366799998,8.179490566270001,22.56061840052,0.19094572961300185,16.0
2018-09-11 22:05:29.950,-0.0525283981873,-0.261143916088,-0.952298551562,0.326701551676,-0.234653145075,-0.178136140108,0.40207265,1.24544455,12.87613145,0.0,-17.8748111725,6.24772882462,-0.0526968464255,0.326701551676,-0.234653145075,-0.178136140108,0.709999978542,-396.257202148,-174.798400879,44.873725891099994,14.993618130719998,13.856485366799998,8.179490566270001,22.56061840052,0.19094572961300185,16.0
2018-09-11 22:05:30.000,-0.0870570425688,-0.298989162626,-0.931210624243,0.25952449441,-0.31617090106,-0.213599428535,1.5298374,0.73549875,13.42530385,0.0,-17.8748111725,6.24772882462,-0.0526968464255,0.326701551676,-0.234653145075,-0.178136140108,0.680000007153,-333.971801758,-172.903823853,39.090698242200006,14.988364219689998,8.505569457999997,7.78328609469,22.42946720122,0.27334353327800187,16.0
2018-09-11 22:05:30.050,-0.0870570425688,-0.298989162626,-0.931210624243,0.25952449441,-0.31617090106,-0.213599428535,1.5298374,0.73549875,13.42530385,0.0,-17.2968902588,7.99777173996,0.437762498856,0.25952449441,-0.31617090106,-0.213599428535,0.680000007153,-333.971801758,-172.903823853,39.090698242200006,14.99836444859,8.485569000299996,7.08371925356,22.18290042872,0.4782875180240019,16.0
2018-09-11 22:05:30.100,-0.0870570425688,-0.298989162626,-0.931210624243,0.25952449441,-0.31617090106,-0.213599428535,1.5298374,0.73549875,13.42530385,0.0,-17.2968902588,7.99777173996,0.437762498856,0.25952449441,-0.31617090106,-0.213599428535,0.680000007153,-333.971801758,-172.903823853,39.090698242200006,14.99836444859,8.485569000299996,7.08371925356,22.18290042872,0.4782875180240019,16.0
2018-09-11 22:05:30.150,-0.0870570425688,-0.298989162626,-0.931210624243,0.25952449441,-0.31617090106,-0.213599428535,1.5298374,0.73549875,13.42530385,0.0,-17.2968902588,7.99777173996,0.437762498856,0.25952449441,-0.31617090106,-0.213599428535,0.680000007153,-333.971801758,-172.903823853,39.090698242200006,14.99836444859,8.485569000299996,7.08371925356,22.18290042872,0.4782875180240019,16.0
2018-09-11 22:05:30.200,-0.0870570425688,-0.298989162626,-0.931210624243,0.25952449441,-0.31617090106,-0.213599428535,1.5298374,0.73549875,13.42530385,0.0,-17.2968902588,7.99777173996,0.437762498856,0.25952449441,-0.31617090106,-0.213599428535,0.639999985695,-333.971801758,-171.048339844,39.090698242200006,15.13836574559,8.005569457999997,6.11767673494,21.758156776419998,0.8591199517250019,16.0
2018-09-11 22:05:30.250,-0.0870570425688,-0.298989162626,-0.931210624243,0.25952449441,-0.31617090106,-0.213599428535,1.5298374,0.73549875,13.42530385,0.0,-17.2968902588,7.99777173996,0.437762498856,0.25952449441,-0.31617090106,-0.213599428535,0.569999992847,-361.710754395,-169.189483643,39.090698242200006,15.158364295990001,8.005569457999997,5.954223632830001,21.68652439112,0.9072223901750018,16.0
2018-09-11 22:05:30.300,-0.0870570425688,-0.298989162626,-0.931210624243,0.25952449441,-0.31617090106,-0.213599428535,1.5298374,0.73549875,13.42530385,0.0,-16.4404640198,9.87818241119,1.08948838711,0.25952449441,-0.31617090106,-0.213599428535,0.569999992847,-361.710754395,-169.189483643,39.090698242200006,15.168364524889999,7.995567321800003,5.49194145205,21.45552539822,1.0493685007100018,16.0
2018-09-11 22:05:30.350,-0.0870570425688,-0.298989162626,-0.931210624243,0.25952449441,-0.31617090106,-0.213599428535,1.5298374,0.73549875,13.42530385,0.0,-16.4404640198,9.87818241119,1.08948838711,0.25952449441,-0.31617090106,-0.213599428535,0.489999979734,-361.710754395,-167.330688477,39.090698242200006,15.178364753690001,6.115566253700003,5.207328796400001,21.30002307892,1.1142212152500017,16.0
2018-09-11 22:05:30.400,-0.0870570425688,-0.298989162626,-0.931210624243,0.25952449441,-0.31617090106,-0.213599428535,1.5298374,0.73549875,13.42530385,0.0,-16.4404640198,9.87818241119,1.08948838711,0.25952449441,-0.31617090106,-0.213599428535,0.389999985695,-404.579345703,-165.504089355,39.090698242200006,15.178364753690001,4.225566864000001,4.5285892486999995,20.92008209232,1.2280882597000018,16.0
2018-09-11 22:05:30.450,-0.145417223234,-0.314757815045,-0.900796539287,-0.0163851194084,-0.377169013023,-0.263281553984,1.6279039,1.14737805,13.34685065,0.0,-16.4404640198,9.87818241119,1.08948838711,0.25952449441,-0.31617090106,-0.213599428535,0.389999985695,-404.579345703,-165.504089355,28.582069396999998,12.400136470779998,0.13640594479999635,4.5285892486999995,20.92008209232,1.2280882597000018,16.0
2018-09-11 22:05:30.500,-0.145417223234,-0.314757815045,-0.900796539287,-0.0163851194084,-0.377169013023,-0.263281553984,1.6279039,1.14737805,13.34685065,0.0,-16.4404640198,9.87818241119,1.08948838711,0.25952449441,-0.31617090106,-0.213599428535,0.389999985695,-404.579345703,-165.504089355,28.582069396999998,12.400136470779998,0.13640594479999635,4.1261444092,20.665378570519998,1.3038660287900017,16.0
2018-09-11 22:05:30.550,-0.145417223234,-0.314757815045,-0.900796539287,-0.0163851194084,-0.377169013023,-0.263281553984,1.6279039,1.14737805,13.34685065,0.0,-15.4316015244,11.49812603,1.40460181236,-0.0163851194084,-0.377169013023,-0.263281553984,0.280000001192,-404.579345703,-163.681015015,28.582069396999998,12.410136699679999,-2.0035934448000035,3.453064918499999,20.161851882919997,1.4840803146400017,16.0
2018-09-11 22:05:30.600,-0.145417223234,-0.314757815045,-0.900796539287,-0.0163851194084,-0.377169013023,-0.263281553984,1.6279039,1.14737805,13.34685065,0.0,-15.4316015244,11.49812603,1.40460181236,-0.0163851194084,-0.377169013023,-0.263281553984,0.280000001192,-404.579345703,-163.681015015,28.582069396999998,12.410136699679999,-2.0035934448000035,3.453064918499999,20.161851882919997,1.4840803146400017,16.0
2018-09-11 22:05:30.650,-0.145417223234,-0.314757815045,-0.900796539287,-0.0163851194084,-0.377169013023,-0.263281553984,1.6279039,1.14737805,13.34685065,0.0,-15.4316015244,11.49812603,1.40460181236,-0.0163851194084,-0.377169013023,-0.263281553984,0.159999996424,-403.032684326,-161.909683228,28.582069396999998,12.42013692858,-4.5035934448000035,2.9042034148999996,19.74003982542,1.6172236204100017,16.0
2018-09-11 22:05:30.700,-0.145417223234,-0.314757815045,-0.900796539287,-0.0163851194084,-0.377169013023,-0.263281553984,1.6279039,1.14737805,13.34685065,0.0,-15.4316015244,11.49812603,1.40460181236,-0.0163851194084,-0.377169013023,-0.263281553984,0.0299999993294,-403.032684326,-160.153305054,28.582069396999998,12.44013547898,-7.223594665500002,2.505364417999999,19.405563354519998,1.6973414421100017,16.0
2018-09-11 22:05:30.750,-0.145417223234,-0.314757815045,-0.900796539287,-0.0163851194084,-0.377169013023,-0.263281553984,1.6279039,1.14737805,13.34685065,0.0,-15.4316015244,11.49812603,1.40460181236,-0.0163851194084,-0.377169013023,-0.263281553984,0.0299999993294,-403.032684326,-160.153305054,28.582069396999998,12.44013547898,-7.223594665500002,2.505364417999999,19.405563354519998,1.6973414421100017,16.0
2018-09-11 22:05:30.800,-0.181621154174,-0.311366369032,-0.875384892847,-0.0444136857986,-0.399547129869,-0.246787294745,1.8240369,0.8433719,14.13138265,0.0,-14.1019496918,13.1080093384,1.78845632076,-0.0163851194084,-0.377169013023,-0.263281553984,-0.119999997318,-431.625366211,-158.460144043,20.0166969299,11.289219379430001,-12.036731719999999,2.1102104186999995,19.042170524619998,1.7884563207600017,16.0
2018-09-11 22:05:30.850,-0.181621154174,-0.311366369032,-0.875384892847,-0.0444136857986,-0.399547129869,-0.246787294745,1.8240369,0.8433719,14.13138265,0.0,-14.1019496918,13.1080093384,1.78845632076,-0.0163851194084,-0.377169013023,-0.263281553984,-0.119999997318,-431.625366211,-158.460144043,20.0166969299,11.279221057929998,-12.076730728200001,1.7029743194999991,18.63705444332,1.9307814836500017,16.0
2018-09-11 22:05:30.900,-0.181621154174,-0.311366369032,-0.875384892847,-0.0444136857986,-0.399547129869,-0.246787294745,1.8240369,0.8433719,14.13138265,0.0,-14.1019496918,13.1080093384,1.78845632076,-0.0163851194084,-0.377169013023,-0.263281553984,-0.280000001192,-431.625366211,-156.786575317,20.0166969299,11.26922082903,-12.096731185900001,1.2901096344000003,18.19667530062,2.130646467210002,16.0
2018-09-11 22:05:30.950,-0.181621154174,-0.311366369032,-0.875384892847,-0.0444136857986,-0.399547129869,-0.246787294745,1.8240369,0.8433719,14.13138265,0.0,-14.1019496918,13.1080093384,1.78845632076,-0.0163851194084,-0.377169013023,-0.263281553984,-0.280000001192,-431.625366211,-156.786575317,20.0166969299,11.26922082903,-12.096731185900001,1.2901096344000003,18.19667530062,2.130646467210002,16.0
2018-09-11 22:05:31.000,-0.181621154174,-0.311366369032,-0.875384892847,-0.0444136857986,-0.399547129869,-0.246787294745,1.8240369,0.8433719,14.13138265,0.0,-14.1019496918,13.1080093384,1.78845632076,-0.0163851194084,-0.377169013023,-0.263281553984,-0.489999979734,-448.125274658,-155.192306519,20.0166969299,11.249220371229999,-19.9667301178,0.8039293289000007,17.57784938812,2.389003992080002,16.0
2018-09-11 22:05:31.050,-0.181621154174,-0.311366369032,-0.875384892847,-0.0444136857986,-0.399547129869,-0.246787294745,1.8240369,0.8433719,14.13138265,0.0,-12.0145282745,14.8489427567,2.67578482628,-0.0444136857986,-0.399547129869,-0.246787294745,-0.489999979734,-448.125274658,-155.192306519,20.0166969299,11.249220371229999,-19.9667301178,0.47186565400000013,17.11445713042,2.5956764221200017,16.0
2018-09-11 22:05:31.100,-0.181621154174,-0.311366369032,-0.875384892847,-0.0444136857986,-0.399547129869,-0.246787294745,1.8240369,0.8433719,14.13138265,0.0,-12.0145282745,14.8489427567,2.67578482628,-0.0444136857986,-0.399547129869,-0.246787294745,-0.489999979734,-448.125274658,-155.192306519,20.0166969299,11.219219684630001,-20.0267314911,0.15146446229999988,16.62896347042,2.856002569200002,16.0
2018-09-11 22:05:31.150,-0.223519294427,-0.255159047876,-0.858415530852,-0.358680576086,-0.38017526269,-0.215394154191,1.9809433,1.36312435,17.063571,0.0,-12.0145282745,14.8489427567,2.67578482628,-0.0444136857986,-0.399547129869,-0.246787294745,-0.719999969006,-448.125274658,-153.645126343,20.0166969299,11.20921945573,-24.3767299652,0.06101131439999996,16.45561885832,2.9471373558000016,16.0
2018-09-11 22:05:31.200,-0.223519294427,-0.255159047876,-0.858415530852,-0.358680576086,-0.38017526269,-0.215394154191,1.9809433,1.36312435,17.063571,0.0,-12.0145282745,14.8489427567,2.67578482628,-0.0444136857986,-0.399547129869,-0.246787294745,-1.01999998093,-450.638397217,-152.184173584,10.941596984900002,7.0998086929,-25.514893531800006,-0.3841133117000002,15.61465549472,3.384839534760002,16.0
2018-09-11 22:05:31.250,-0.223519294427,-0.255159047876,-0.858415530852,-0.358680576086,-0.38017526269,-0.215394154191,1.9809433,1.36312435,17.063571,0.0,-12.0145282745,14.8489427567,2.67578482628,-0.0444136857986,-0.399547129869,-0.246787294745,-1.01999998093,-450.638397217,-152.184173584,10.941596984900002,7.0998086929,-25.514893531800006,-0.3841133117000002,15.61465549472,3.384839534760002,16.0
2018-09-11 22:05:31.300,-0.223519294427,-0.255159047876,-0.858415530852,-0.358680576086,-0.38017526269,-0.215394154191,1.9809433,1.36312435,17.063571,0.0,-9.87359237671,15.9594249725,3.75400114059,-0.358680576086,-0.38017526269,-0.215394154191,-1.01999998093,-450.638397217,-152.184173584,10.941596984900002,7.049809455899998,-25.5248937606,-0.7412052154000008,14.81381320953,3.7540011405900016,16.0
2018-09-11 22:05:31.350,-0.223519294427,-0.255159047876,-0.858415530852,-0.358680576086,-0.38017526269,-0.215394154191,1.9809433,1.36312435,17.063571,0.0,-9.87359237671,15.9594249725,3.75400114059,-0.358680576086,-0.38017526269,-0.215394154191,-1.33999991417,-450.638397217,-150.770339966,10.941596984900002,7.0298089981,-29.984893798790004,-0.7412052154000008,14.81381320953,3.7540011405900016,16.0
2018-09-11 22:05:31.400,-0.223519294427,-0.255159047876,-0.858415530852,-0.358680576086,-0.38017526269,-0.215394154191,1.9809433,1.36312435,17.063571,0.0,-9.87359237671,15.9594249725,3.75400114059,-0.358680576086,-0.38017526269,-0.215394154191,-1.33999991417,-450.638397217,-150.770339966,10.941596984900002,7.009808540299998,-29.984893798790004,-0.9031352996999988,14.36271762847,3.9474711418200017,16.0
2018-09-11 22:05:31.450,-0.217826828089,-0.19139799557,-0.850431202194,-0.449107497931,-0.107453078032,-0.194005832076,1.6475172,0.59820565,12.6505785,0.0,-9.87359237671,15.9594249725,3.75400114059,-0.358680576086,-0.38017526269,-0.215394154191,-1.73000001907,-445.425994873,-149.452987671,10.941596984900002,6.979807853700001,-33.94489383693001,-0.9973812103000004,14.09327507019,4.031456470490002,16.0
2018-09-11 22:05:31.500,-0.217826828089,-0.19139799557,-0.850431202194,-0.449107497931,-0.107453078032,-0.194005832076,1.6475172,0.59820565,12.6505785,0.0,-9.87359237671,15.9594249725,3.75400114059,-0.358680576086,-0.38017526269,-0.215394154191,-1.73000001907,-445.425994873,-149.452987671,5.054389953600001,6.0690507889,-27.40048313143,-1.1155776976999991,13.77185440063,4.047943592070002,16.0
2018-09-11 22:05:31.550,-0.217826828089,-0.19139799557,-0.850431202194,-0.449107497931,-0.107453078032,-0.194005832076,1.6475172,0.59820565,12.6505785,0.0,-8.42172718048,16.428981781,4.09584283829,-0.449107497931,-0.107453078032,-0.194005832076,-2.11999988556,-445.425994873,-148.165512085,5.054389953600001,5.9990510941,-30.29048299792,-1.1949558257999993,13.45852470397,4.081478118900002,16.0
2018-09-11 22:05:31.600,-0.217826828089,-0.19139799557,-0.850431202194,-0.449107497931,-0.107453078032,-0.194005832076,1.6475172,0.59820565,12.6505785,0.0,-8.42172718048,16.428981781,4.09584283829,-0.449107497931,-0.107453078032,-0.194005832076,-2.53999996185,-427.892486572,-146.957275391,5.054389953600001,5.969050407400001,-32.90048289302,-1.2450771332000006,13.14746284484,4.1810216903700015,16.0
2018-09-11 22:05:31.650,-0.217826828089,-0.19139799557,-0.850431202194,-0.449107497931,-0.107453078032,-0.194005832076,1.6475172,0.59820565,12.6505785,0.0,-8.42172718048,16.428981781,4.09584283829,-0.449107497931,-0.107453078032,-0.194005832076,-2.53999996185,-427.892486572,-146.957275391,5.054389953600001,5.9190511703999995,-32.90048289302,-1.2865657805999984,12.797931194299998,4.292434215550002,16.0
2018-09-11 22:05:31.700,-0.217826828089,-0.19139799557,-0.850431202194,-0.449107497931,-0.107453078032,-0.194005832076,1.6475172,0.59820565,12.6505785,0.0,-8.42172718048,16.428981781,4.09584283829,-0.449107497931,-0.107453078032,-0.194005832076,-2.53999996185,-427.892486572,-146.957275391,5.054389953600001,5.9190511703999995,-32.90048289302,-1.2865657805999984,12.797931194299998,4.292434215550002,16.0
2018-09-11 22:05:31.750,-0.217826828089,-0.19139799557,-0.850431202194,-0.449107497931,-0.107453078032,-0.194005832076,1.6475172,0.59820565,12.6505785,0.0,-8.42172718048,16.428981781,4.09584283829,-0.449107497931,-0.107453078032,-0.194005832076,-2.97000002861,-427.892486572,-145.758239746,5.054389953600001,5.879050254799999,-34.9604828358,-1.2877540587999992,12.56986904144,4.359361648560002,16.0
2018-09-11 22:05:31.800,-0.217826828089,-0.19139799557,-0.850431202194,-0.449107497931,-0.107453078032,-0.194005832076,1.6475172,0.59820565,12.6505785,0.0,-7.40563249588,16.4882507324,4.47501039505,-0.449107497931,-0.107453078032,-0.194005832076,-2.97000002861,-427.892486572,-145.758239746,5.054389953600001,5.849049568200002,-34.9604828358,-1.270030975300001,12.345853328699999,4.475010395050002,16.0
2018-09-11 22:05:31.850,-0.217826828089,-0.19139799557,-0.850431202194,-0.449107497931,-0.107453078032,-0.194005832076,1.6475172,0.59820565,12.6505785,0.0,-7.40563249588,16.4882507324,4.47501039505,-0.449107497931,-0.107453078032,-0.194005832076,-3.42999982834,-427.209289551,-144.609725952,5.054389953600001,5.8190507889,-36.560482978850004,-1.2555007934000013,12.197244167320001,4.591080188750002,16.0
2018-09-11 22:05:31.900,-0.217826828089,-0.19139799557,-0.850431202194,-0.449107497931,-0.107453078032,-0.194005832076,1.6475172,0.59820565,12.6505785,0.0,-7.40563249588,16.4882507324,4.47501039505,-0.449107497931,-0.107453078032,-0.194005832076,-3.88999986649,-427.209289551,-143.473846436,5.054389953600001,5.789050102299999,-36.560482978850004,-1.2228240967000001,11.998951435079999,4.751253604890001,16.0
2018-09-11 22:05:31.950,-0.168298023003,-0.0567172955237,-0.847942190843,-0.618632912636,0.0157930199057,-0.144666552544,1.71616375,0.93163175,12.42502555,0.0,-7.40563249588,16.4882507324,4.47501039505,-0.449107497931,-0.107453078032,-0.194005832076,-3.88999986649,-427.209289551,-143.473846436,0.16483306880000015,4.2359924317000015,-21.903489589670002,-1.1602230072000008,11.84386014938,4.859391212460002,16.0
2018-09-11 22:05:32.000,-0.168298023003,-0.0567172955237,-0.847942190843,-0.618632912636,0.0157930199057,-0.144666552544,1.71616375,0.93163175,12.42502555,0.0,-7.40563249588,16.4882507324,4.47501039505,-0.449107497931,-0.107453078032,-0.194005832076,-4.38999986649,-404.40234375,-142.36781311,0.16483306880000015,4.2059936524,-22.73348951337,-1.1055030822999985,11.7263674736,4.901326179500002,16.0
2018-09-11 22:05:32.050,-0.168298023003,-0.0567172955237,-0.847942190843,-0.618632912636,0.0157930199057,-0.144666552544,1.71616375,0.93163175,12.42502555,0.0,-6.72465276718,16.2936000824,4.90500974655,-0.618632912636,0.0157930199057,-0.144666552544,-4.38999986649,-404.40234375,-142.36781311,0.16483306880000015,4.2059936524,-22.73348951337,-1.1055030822999985,11.7263674736,4.901326179500002,16.0
2018-09-11 22:05:32.100,-0.168298023003,-0.0567172955237,-0.847942190843,-0.618632912636,0.0157930199057,-0.144666552544,1.71616375,0.93163175,12.42502555,0.0,-6.72465276718,16.2936000824,4.90500974655,-0.618632912636,0.0157930199057,-0.144666552544,-4.38999986649,-404.40234375,-142.36781311,0.16483306880000015,4.185993194600002,-22.72348928449,-1.0348243712999992,11.60691976547,4.929004669190002,16.0
2018-09-11 22:05:32.150,-0.168298023003,-0.0567172955237,-0.847942190843,-0.618632912636,0.0157930199057,-0.144666552544,1.71616375,0.93163175,12.42502555,0.0,-6.72465276718,16.2936000824,4.90500974655,-0.618632912636,0.0157930199057,-0.144666552544,-4.88999986649,-404.40234375,-141.262924194,0.16483306880000015,4.1659927368,-23.213489532449998,-1.0348243712999992,11.60691976547,4.929004669190002,16.0
2018-09-11 22:05:32.200,-0.168298023003,-0.0567172955237,-0.847942190843,-0.618632912636,0.0157930199057,-0.144666552544,1.71616375,0.93163175,12.42502555,0.0,-6.72465276718,16.2936000824,4.90500974655,-0.618632912636,0.0157930199057,-0.144666552544,-5.40999984741,-383.509643555,-140.171798706,0.16483306880000015,4.155992508000001,-23.3834891319,-0.8876647948999992,11.492546558379999,5.0491132736200015,16.0
2018-09-11 22:05:32.250,-0.168298023003,-0.0567172955237,-0.847942190843,-0.618632912636,0.0157930199057,-0.144666552544,1.71616375,0.93163175,12.42502555,0.0,-6.50866222382,16.0166358948,5.11868858337,-0.618632912636,0.0157930199057,-0.144666552544,-5.40999984741,-383.509643555,-140.171798706,0.16483306880000015,4.155992508000001,-23.3834891319,-0.8591213225999983,11.478526592249999,5.048107624050002,16.0
2018-09-11 22:05:32.300,-0.168298023003,-0.0567172955237,-0.847942190843,-0.618632912636,0.0157930199057,-0.144666552544,1.71616375,0.93163175,12.42502555,0.0,-6.50866222382,16.0166358948,5.11868858337,-0.618632912636,0.0157930199057,-0.144666552544,-5.92000007629,-383.509643555,-139.100189209,0.16483306880000015,4.1459922791,-23.3034892082,-0.7635841369000005,11.440437793729998,5.1376914978000015,16.0
2018-09-11 22:05:32.350,-0.121359118262,0.0407688867039,-0.840136263483,-0.317877709866,-0.139036908746,-0.0078544523567,1.9024901,0.77472535,12.3367657,0.0,-6.50866222382,16.0166358948,5.11868858337,-0.618632912636,0.0157930199057,-0.144666552544,-5.92000007629,-383.509643555,-139.100189209,0.16483306880000015,4.1459922791,-23.3034892082,-0.6358299254999995,11.41759252548,5.281483650210002,16.0
2018-09-11 22:05:32.400,-0.121359118262,0.0407688867039,-0.840136263483,-0.317877709866,-0.139036908746,-0.0078544523567,1.9024901,0.77472535,12.3367657,0.0,-6.50866222382,16.0166358948,5.11868858337,-0.618632912636,0.0157930199057,-0.144666552544,-6.46999979019,-366.011993408,-138.007904053,-1.6441478728999996,3.0763959885,-10.625576019290001,-0.49130630490000016,11.39625120162,5.464498043060002,16.0
2018-09-11 22:05:32.450,-0.121359118262,0.0407688867039,-0.840136263483,-0.317877709866,-0.139036908746,-0.0078544523567,1.9024901,0.77472535,12.3367657,0.0,-6.50866222382,16.0166358948,5.11868858337,-0.618632912636,0.0157930199057,-0.144666552544,-6.46999979019,-366.011993408,-138.007904053,-1.6441478728999996,3.0763959885,-10.625576019290001,-0.35005378720000024,11.38034343719,5.629836082460002,16.0
2018-09-11 22:05:32.500,-0.121359118262,0.0407688867039,-0.840136263483,-0.317877709866,-0.139036908746,-0.0078544523567,1.9024901,0.77472535,12.3367657,0.0,-6.43566322327,15.5295114517,5.6684346199,-0.317877709866,-0.139036908746,-0.0078544523567,-6.46999979019,-366.011993408,-138.007904053,-1.6441478728999996,3.0763959885,-10.605576038359999,-0.3112916945999995,11.37588405609,5.668434619900002,16.0
2018-09-11 22:05:32.550,-0.121359118262,0.0407688867039,-0.840136263483,-0.317877709866,-0.139036908746,-0.0078544523567,1.9024901,0.77472535,12.3367657,0.0,-6.43566322327,15.5295114517,5.6684346199,-0.317877709866,-0.139036908746,-0.0078544523567,-7.01999998093,-366.011993408,-136.927078247,-1.6441478728999996,3.0763959885,-10.1855764389,-0.16348457329999988,11.382133960720001,5.787825107570002,16.0
2018-09-11 22:05:32.600,-0.121359118262,0.0407688867039,-0.840136263483,-0.317877709866,-0.139036908746,-0.0078544523567,1.9024901,0.77472535,12.3367657,0.0,-6.43566322327,15.5295114517,5.6684346199,-0.317877709866,-0.139036908746,-0.0078544523567,-7.01999998093,-366.011993408,-136.927078247,-1.6441478728999996,3.0763959885,-10.175576210020001,-0.01418399810000004,11.40306282043,5.882560253140002,16.0
2018-09-11 22:05:32.650,-0.113705846228,0.0859793942219,-0.834892130563,-0.179013624787,-0.0693984180689,0.00128766475245,1.85345685,0.55897905,10.62060195,0.0,-6.43566322327,15.5295114517,5.6684346199,-0.317877709866,-0.139036908746,-0.0078544523567,-7.60999965668,-342.510986328,-135.858840942,-1.6441478728999996,3.0763959885,-9.4855761528,0.03795242310000013,11.410028934469999,5.907421588900002,16.0
2018-09-11 22:05:32.700,-0.113705846228,0.0859793942219,-0.834892130563,-0.179013624787,-0.0693984180689,0.00128766475245,1.85345685,0.55897905,10.62060195,0.0,-6.43566322327,15.5295114517,5.6684346199,-0.317877709866,-0.139036908746,-0.0078544523567,-7.60999965668,-342.510986328,-135.858840942,-1.7811069488999998,1.0331935883000014,-4.61647951603,0.16938972480000025,11.42965364456,5.960084915160002,16.0
2018-09-11 22:05:32.750,-0.113705846228,0.0859793942219,-0.834892130563,-0.179013624787,-0.0693984180689,0.00128766475245,1.85345685,0.55897905,10.62060195,0.0,-6.52627420425,14.9145021439,5.97409105301,-0.179013624787,-0.0693984180689,0.00128766475245,-8.19999980927,-342.510986328,-134.772247314,-1.7811069488999998,1.0331935883000014,-3.94647943974,0.2510976792000008,11.45569515228,5.961347103120001,16.0
2018-09-11 22:05:32.800,-0.113705846228,0.0859793942219,-0.834892130563,-0.179013624787,-0.0693984180689,0.00128766475245,1.85345685,0.55897905,10.62060195,0.0,-6.52627420425,14.9145021439,5.97409105301,-0.179013624787,-0.0693984180689,0.00128766475245,-8.80999946594,-295.81451416,-133.694793701,-1.7811069488999998,1.0331935883000014,-3.13647949696,0.48715496069999986,11.51737403869,6.018476486210002,16.0
2018-09-11 22:05:32.850,-0.113705846228,0.0859793942219,-0.834892130563,-0.179013624787,-0.0693984180689,0.00128766475245,1.85345685,0.55897905,10.62060195,0.0,-6.52627420425,14.9145021439,5.97409105301,-0.179013624787,-0.0693984180689,0.00128766475245,-8.80999946594,-295.81451416,-133.694793701,-1.7811069488999998,1.0331935883000014,-3.13647949696,0.48715496069999986,11.51737403869,6.018476486210002,16.0
2018-09-11 22:05:32.900,-0.113705846228,0.0859793942219,-0.834892130563,-0.179013624787,-0.0693984180689,0.00128766475245,1.85345685,0.55897905,10.62060195,0.0,-6.52627420425,14.9145021439,5.97409105301,-0.179013624787,-0.0693984180689,0.00128766475245,-8.80999946594,-295.81451416,-133.694793701,-1.7811069488999998,1.0331935883000014,-3.12647974491,0.6551446915000003,11.575626850119999,6.045578002930002,16.0
2018-09-11 22:05:32.950,-0.113705846228,0.0859793942219,-0.834892130563,-0.179013624787,-0.0693984180689,0.00128766475245,1.85345685,0.55897905,10.62060195,0.0,-6.52627420425,14.9145021439,5.97409105301,-0.179013624787,-0.0693984180689,0.00128766475245,-9.40999984741,-295.81451416,-132.609313965,-1.7811069488999998,1.0331935883000014,-2.33647954464,0.7152061462999999,11.59382724761,6.0594816207900015,16.0
2018-09-11 22:05:33.000,-0.113705846228,0.0859793942219,-0.834892130563,-0.179013624787,-0.0693984180689,0.00128766475245,1.85345685,0.55897905,10.62060195,0.0,-6.71894693375,14.3101119995,6.10326576233,-0.179013624787,-0.0693984180689,0.00128766475245,-9.40999984741,-295.81451416,-132.609313965,-1.7811069488999998,1.0331935883000014,-2.32647955418,0.8662919997999996,11.64276361465,6.095431327820002,16.0
2018-09-11 22:05:33.050,-0.113705846228,0.0859793942219,-0.834892130563,-0.179013624787,-0.0693984180689,0.00128766475245,1.85345685,0.55897905,10.62060195,0.0,-6.71894693375,14.3101119995,6.10326576233,-0.179013624787,-0.0693984180689,0.00128766475245,-10.0100002289,-273.153320312,-131.518066406,-1.7811069488999998,1.0331935883000014,-1.38647973538,0.9978742599999997,11.682628154749999,6.114210605620002,16.0
2018-09-11 22:05:33.100,-0.111838035576,0.114479668498,-0.835800778282,-0.131558284163,-0.0785158649087,0.0741536021233,1.9809433,0.22555295,9.7870367,0.0,-6.71894693375,14.3101119995,6.10326576233,-0.179013624787,-0.0693984180689,0.00128766475245,-10.0100002289,-273.153320312,-131.518066406,-1.7811069488999998,1.0331935883000014,-1.38647973538,1.0799322127999993,11.707599163049998,6.134328842160002,16.0
2018-09-11 22:05:33.150,-0.111838035576,0.114479668498,-0.835800778282,-0.131558284163,-0.0785158649087,0.0741536021233,1.9809433,0.22555295,9.7870367,0.0,-6.71894693375,14.3101119995,6.10326576233,-0.179013624787,-0.0693984180689,0.00128766475245,-10.6199998856,-273.153320312,-130.426803589,-0.5864486693999993,-0.5103073119999983,2.47330629826,1.2340726852999993,11.75788784027,6.192998886110002,16.0
2018-09-11 22:05:33.200,-0.111838035576,0.114479668498,-0.835800778282,-0.131558284163,-0.0785158649087,0.0741536021233,1.9809433,0.22555295,9.7870367,0.0,-6.71894693375,14.3101119995,6.10326576233,-0.179013624787,-0.0693984180689,0.00128766475245,-10.6199998856,-273.153320312,-130.426803589,-0.5864486693999993,-0.5103073119999983,2.47330629826,1.2340726852999993,11.75788784027,6.192998886110002,16.0
2018-09-11 22:05:33.250,-0.111838035576,0.114479668498,-0.835800778282,-0.131558284163,-0.0785158649087,0.0741536021233,1.9809433,0.22555295,9.7870367,0.0,-6.94311094284,13.6529407501,6.429666996,-0.131558284163,-0.0785158649087,0.0741536021233,-11.2399997711,-233.327667236,-129.341262817,-0.5864486693999993,-0.5003070831999992,3.613306224346,1.5010166167999994,11.850522518150001,6.375322341920001,16.0
2018-09-11 22:05:33.300,-0.111838035576,0.114479668498,-0.835800778282,-0.131558284163,-0.0785158649087,0.0741536021233,1.9809433,0.22555295,9.7870367,0.0,-6.94311094284,13.6529407501,6.429666996,-0.131558284163,-0.0785158649087,0.0741536021233,-11.2399997711,-233.327667236,-129.341262817,-0.5864486693999993,-0.5003070831999992,3.613306224346,1.7226753235000007,11.94814920425,6.553298950200002,16.0
2018-09-11 22:05:33.350,-0.111838035576,0.114479668498,-0.835800778282,-0.131558284163,-0.0785158649087,0.0741536021233,1.9809433,0.22555295,9.7870367,0.0,-6.94311094284,13.6529407501,6.429666996,-0.131558284163,-0.0785158649087,0.0741536021233,-11.8800001144,-233.327667236,-128.251113892,-0.5864486693999993,-0.4903068542999982,5.113306164741,1.8730754851999993,12.02217245101,6.663990974430002,16.0
2018-09-11 22:05:33.400,-0.111838035576,0.114479668498,-0.835800778282,-0.131558284163,-0.0785158649087,0.0741536021233,1.9809433,0.22555295,9.7870367,0.0,-6.94311094284,13.6529407501,6.429666996,-0.131558284163,-0.0785158649087,0.0741536021233,-11.8800001144,-233.327667236,-128.251113892,-0.5864486693999993,-0.4903068542999982,5.113306164741,2.0797777176000007,12.13444519042,6.7450499534600015,16.0
2018-09-11 22:05:33.450,-0.105496692543,0.149096859575,-0.837998885766,0.0185519531369,0.00289750937372,0.0131744313985,2.22610955,0.99047165,10.8853815,0.0,-6.94311094284,13.6529407501,6.429666996,-0.131558284163,-0.0785158649087,0.0741536021233,-12.5399999619,-205.798919678,-127.150596619,1.3991394043000014,-1.8774261474999996,10.87490534782,2.1991786957000006,12.21037149429,6.760774612430001,16.0
2018-09-11 22:05:33.500,-0.105496692543,0.149096859575,-0.837998885766,0.0185519531369,0.00289750937372,0.0131744313985,2.22610955,0.99047165,10.8853815,0.0,-7.37346601486,12.8398370743,6.80467224121,0.0185519531369,0.00289750937372,0.0131744313985,-12.5399999619,-205.798919678,-127.150596619,1.3991394043000014,-1.8774261474999996,10.87490534782,2.4459114075000006,12.34376955032,6.833090782170002,16.0
2018-09-11 22:05:33.550,-0.105496692543,0.149096859575,-0.837998885766,0.0185519531369,0.00289750937372,0.0131744313985,2.22610955,0.99047165,10.8853815,0.0,-7.37346601486,12.8398370743,6.80467224121,0.0185519531369,0.00289750937372,0.0131744313985,-13.2100000381,-205.798919678,-126.040878296,1.3991394043000014,-1.8874263764000005,12.28490519524,2.631859779399999,12.43134212493,6.894391059880002,16.0
2018-09-11 22:05:33.600,-0.105496692543,0.149096859575,-0.837998885766,0.0185519531369,0.00289750937372,0.0131744313985,2.22610955,0.99047165,10.8853815,0.0,-7.37346601486,12.8398370743,6.80467224121,0.0185519531369,0.00289750937372,0.0131744313985,-13.2100000381,-205.798919678,-126.040878296,1.3991394043000014,-1.8874263764000005,12.28490519524,2.7306890488000004,12.48108911514,6.911715507510002,16.0
2018-09-11 22:05:33.650,-0.105496692543,0.149096859575,-0.837998885766,0.0185519531369,0.00289750937372,0.0131744313985,2.22610955,0.99047165,10.8853815,0.0,-7.37346601486,12.8398370743,6.80467224121,0.0185519531369,0.00289750937372,0.0131744313985,-13.2100000381,-205.798919678,-126.040878296,1.3991394043000014,-1.8874263764000005,12.28490519524,2.7306890488000004,12.48108911514,6.911715507510002,16.0
2018-09-11 22:05:33.700,-0.105496692543,0.149096859575,-0.837998885766,0.0185519531369,0.00289750937372,0.0131744313985,2.22610955,0.99047165,10.8853815,0.0,-7.37346601486,12.8398370743,6.80467224121,0.0185519531369,0.00289750937372,0.0131744313985,-13.9099998474,-150.595672607,-124.928817749,1.3991394043000014,-1.8874263764000005,13.51490545273,2.9136714936000008,12.56173467636,6.906871795650002,16.0
2018-09-11 22:05:33.750,-0.105496692543,0.149096859575,-0.837998885766,0.0185519531369,0.00289750937372,0.0131744313985,2.22610955,0.99047165,10.8853815,0.0,-7.6551156044,12.228354454,6.88901948929,0.0185519531369,0.00289750937372,0.0131744313985,-14.5999994278,-150.595672607,-123.80872345,1.3991394043000014,-4.147425651600001,14.40490531921,3.1287174224999994,12.63086223602,6.897032737730002,16.0
2018-09-11 22:05:33.800,-0.105496692543,0.149096859575,-0.837998885766,0.0185519531369,0.00289750937372,0.0131744313985,2.22610955,0.99047165,10.8853815,0.0,-7.6551156044,12.228354454,6.88901948929,0.0185519531369,0.00289750937372,0.0131744313985,-14.5999994278,-150.595672607,-123.80872345,1.3991394043000014,-4.1574258804,14.394905090329999,3.1795091629000005,12.63693428039,6.9013724327100014,16.0
2018-09-11 22:05:33.850,-0.105496692543,0.149096859575,-0.837998885766,0.0185519531369,0.00289750937372,0.0131744313985,2.22610955,0.99047165,10.8853815,0.0,-7.6551156044,12.228354454,6.88901948929,0.0185519531369,0.00289750937372,0.0131744313985,-15.279999733,-108.410263062,-122.686302185,1.3991394043000014,-6.477426528900001,15.144905090329999,3.2663764953999994,12.65421533584,6.921530723570002,16.0
2018-09-11 22:05:33.900,-0.138992592863,0.109978357267,-0.845222608353,0.281095325947,-0.00533118098974,0.113306358457,2.36340265,0.24516625,10.4735022,0.0,-7.6551156044,12.228354454,6.88901948929,0.0185519531369,0.00289750937372,0.0131744313985,-15.9699993134,-108.410263062,-121.568466187,1.8675594330000003,-9.743955612199999,9.93548870087,3.4365415573,12.67245864868,6.908690929410001,16.0
2018-09-11 22:05:33.950,-0.138992592863,0.109978357267,-0.845222608353,0.281095325947,-0.00533118098974,0.113306358457,2.36340265,0.24516625,10.4735022,0.0,-7.73682832718,11.68019104,6.82418584824,0.281095325947,-0.00533118098974,0.113306358457,-15.9699993134,-108.410263062,-121.568466187,1.8675594330000003,-9.743955612199999,9.93548870087,3.4365415573,12.67245864868,6.908690929410001,16.0
2018-09-11 22:05:34.000,-0.138992592863,0.109978357267,-0.845222608353,0.281095325947,-0.00533118098974,0.113306358457,2.36340265,0.24516625,10.4735022,0.0,-7.73682832718,11.68019104,6.82418584824,0.281095325947,-0.00533118098974,0.113306358457,-16.6499996185,-86.890411377,-120.460945129,1.8675594330000003,-11.86395549774,10.39548873901,3.5780096054,12.68203258514,6.791434288020001,16.0
2018-09-11 22:05:34.050,-0.138992592863,0.109978357267,-0.845222608353,0.281095325947,-0.00533118098974,0.113306358457,2.36340265,0.24516625,10.4735022,0.0,-7.73682832718,11.68019104,6.82418584824,0.281095325947,-0.00533118098974,0.113306358457,-16.6499996185,-86.890411377,-120.460945129,1.8675594330000003,-11.86395549774,10.39548873901,3.6020231247000005,12.680528163910001,6.737738609310002,16.0
2018-09-11 22:05:34.100,-0.138992592863,0.109978357267,-0.845222608353,0.281095325947,-0.00533118098974,0.113306358457,2.36340265,0.24516625,10.4735022,0.0,-7.73682832718,11.68019104,6.82418584824,0.281095325947,-0.00533118098974,0.113306358457,-17.2999992371,-86.890411377,-119.361488342,1.8675594330000003,-13.87395572662,10.64548873901,3.788062095700001,12.64356899261,6.5903973579400015,16.0
2018-09-11 22:05:34.150,-0.138992592863,0.109978357267,-0.845222608353,0.281095325947,-0.00533118098974,0.113306358457,2.36340265,0.24516625,10.4735022,0.0,-7.73682832718,11.68019104,6.82418584824,0.281095325947,-0.00533118098974,0.113306358457,-17.2999992371,-86.890411377,-119.361488342,1.8675594330000003,-13.87395572662,10.65548849106,3.9124021530000004,12.599619388579999,6.528223037720002,16.0
2018-09-11 22:05:34.200,-0.138992592863,0.109978357267,-0.845222608353,0.281095325947,-0.00533118098974,0.113306358457,2.36340265,0.24516625,10.4735022,0.0,-7.64079666138,11.2757616043,6.49814271927,0.281095325947,-0.00533118098974,0.113306358457,-17.2999992371,-86.890411377,-119.361488342,1.8675594330000003,-13.87395572662,10.65548849106,3.9124021530000004,12.599619388579999,6.528223037720002,16.0
2018-09-11 22:05:34.250,-0.138992592863,0.109978357267,-0.845222608353,0.281095325947,-0.00533118098974,0.113306358457,2.36340265,0.24516625,10.4735022,0.0,-7.64079666138,11.2757616043,6.49814271927,0.281095325947,-0.00533118098974,0.113306358457,-17.2999992371,-86.890411377,-119.361488342,1.8675594330000003,-13.87395572662,10.65548849106,3.9124021530000004,12.599619388579999,6.528223037720002,16.0
2018-09-11 22:05:34.300,-0.138992592863,0.109978357267,-0.845222608353,0.281095325947,-0.00533118098974,0.113306358457,2.36340265,0.24516625,10.4735022,0.0,-7.64079666138,11.2757616043,6.49814271927,0.281095325947,-0.00533118098974,0.113306358457,-17.9499988556,-53.2802581787,-118.276916504,1.8675594330000003,-15.90395545959,10.83548879623,4.0687484740999995,12.55521154403,6.262324810030002,16.0
2018-09-11 22:05:34.350,-0.138992592863,0.109978357267,-0.845222608353,0.281095325947,-0.00533118098974,0.113306358457,2.36340265,0.24516625,10.4735022,0.0,-7.64079666138,11.2757616043,6.49814271927,0.281095325947,-0.00533118098974,0.113306358457,-18.5699996948,-53.2802581787,-117.203842163,1.8675594330000003,-17.72395539284,11.08548879623,4.182106018100001,12.54758310318,5.943102836610001,16.0
2018-09-11 22:05:34.400,-0.147227029408,0.0461318222689,-0.865302493294,0.16738396883,0.210027247667,0.0266412645578,0.85317855,0.784532,5.6290171,0.0,-7.64079666138,11.2757616043,6.49814271927,0.281095325947,-0.00533118098974,0.113306358457,-19.1599998474,-30.8876037598,-116.142227173,4.720197677600002,-16.545166194426002,4.959608554840001,4.2033309937,12.54754257202,5.854841232300002,16.0
2018-09-11 22:05:34.450,-0.147227029408,0.0461318222689,-0.865302493294,0.16738396883,0.210027247667,0.0266412645578,0.85317855,0.784532,5.6290171,0.0,-7.60494041443,10.9173526764,5.48690414429,0.16738396883,0.210027247667,0.0266412645578,-19.1599998474,-30.8876037598,-116.142227173,4.720197677600002,-16.545166194426002,4.959608554840001,4.253235817,12.54791212081,5.668347835540001,16.0
2018-09-11 22:05:34.500,-0.147227029408,0.0461318222689,-0.865302493294,0.16738396883,0.210027247667,0.0266412645578,0.85317855,0.784532,5.6290171,0.0,-7.60494041443,10.9173526764,5.48690414429,0.16738396883,0.210027247667,0.0266412645578,-19.7199993134,-30.8876037598,-115.080627441,4.720197677600002,-18.075166165816,5.21960878372,3.957755088800001,13.60129833222,5.306914329530001,16.0
2018-09-11 22:05:34.550,-0.147227029408,0.0461318222689,-0.865302493294,0.16738396883,0.210027247667,0.0266412645578,0.85317855,0.784532,5.6290171,0.0,-7.60494041443,10.9173526764,5.48690414429,0.16738396883,0.210027247667,0.0266412645578,-19.7199993134,-30.8876037598,-115.080627441,4.720197677600002,-18.065166175353003,5.23960924148,4.0496034623,13.578522205359999,4.963683128360001,16.0
2018-09-11 22:05:34.600,-0.147227029408,0.0461318222689,-0.865302493294,0.16738396883,0.210027247667,0.0266412645578,0.85317855,0.784532,5.6290171,0.0,-7.60494041443,10.9173526764,5.48690414429,0.16738396883,0.210027247667,0.0266412645578,-19.7199993134,-30.8876037598,-115.080627441,4.720197677600002,-19.4951660633,9.799608707440001,4.0496034623,13.578522205359999,4.963683128360001,16.0
2018-09-11 22:05:34.650,-0.147227029408,0.0461318222689,-0.865302493294,0.16738396883,0.210027247667,0.0266412645578,0.85317855,0.784532,5.6290171,0.0,-7.60494041443,10.9173526764,5.48690414429,0.16738396883,0.210027247667,0.0266412645578,-20.2199993134,1.45788192749,-113.063278198,9.720197677600002,-19.4951660633,9.799608707440001,4.0985174179,13.55828285218,4.826260566710002,15.9899997711
2018-09-11 22:05:34.700,-0.147227029408,0.0461318222689,-0.865302493294,0.16738396883,0.210027247667,0.0266412645578,0.85317855,0.784532,5.6290171,0.0,-7.51040506363,10.6556224823,4.50910663605,0.16738396883,0.210027247667,0.0266412645578,-20.7099990845,0.457859039307,-111.965423584,9.720197677600002,-20.865166187270002,9.83960866924,4.188935279900001,13.50202417374,4.416352748870001,15.9899997711
2018-09-11 22:05:34.750,-0.147227029408,0.0461318222689,-0.865302493294,0.16738396883,0.210027247667,0.0266412645578,0.85317855,0.784532,5.6290171,0.0,-7.51040506363,10.6556224823,4.50910663605,0.16738396883,0.210027247667,0.0266412645578,-20.7099990845,0.457859039307,-111.965423584,9.720197677600002,-20.865166187270002,9.83960866924,4.188935279900001,13.50202417374,4.416352748870001,15.9899997711
2018-09-11 22:05:34.800,-0.147227029408,0.0461318222689,-0.865302493294,0.16738396883,0.210027247667,0.0266412645578,0.85317855,0.784532,5.6290171,0.0,-7.51040506363,10.6556224823,4.50910663605,0.16738396883,0.210027247667,0.0266412645578,-21.1399993896,16.7611122131,-109.48916626,13.720197677600002,-22.065165996540003,13.95960950854,3.800818443299999,14.46929693222,3.9960470199600016,15.9899997711
2018-09-11 22:05:34.850,-0.105646279779,0.00055635986979,-0.864742290089,0.141254946589,0.292750090361,-0.0722862482071,0.4118793,0.16671305,6.50180895,0.0,-7.51040506363,10.6556224823,4.50910663605,0.16738396883,0.210027247667,0.0266412645578,-21.1399993896,16.7611122131,-109.48916626,13.720197677600002,-22.065165996540003,13.95960950854,3.800818443299999,14.46929693222,3.9960470199600016,16.0
2018-09-11 22:05:34.900,-0.105646279779,0.00055635986979,-0.864742290089,0.141254946589,0.292750090361,-0.0722862482071,0.4118793,0.16671305,6.50180895,0.0,-7.51040506363,10.6556224823,4.50910663605,0.16738396883,0.210027247667,0.0266412645578,-21.1399993896,16.7611122131,-109.48916626,12.271373748799999,-15.23969984054,11.658854484550002,3.8380193709999997,14.4162940979,3.786938428880002,16.0
2018-09-11 22:05:34.950,-0.105646279779,0.00055635986979,-0.864742290089,0.141254946589,0.292750090361,-0.0722862482071,0.4118793,0.16671305,6.50180895,0.0,-7.30949115753,10.4822092056,3.51171541214,0.141254946589,0.292750090361,-0.0722862482071,-21.5499992371,17.7612304688,-108.360816956,12.271373748799999,-16.41969966888,11.41885471345,3.8743963240999992,14.36457300186,3.584581613540002,16.0
2018-09-11 22:05:35.000,-0.105646279779,0.00055635986979,-0.864742290089,0.141254946589,0.292750090361,-0.0722862482071,0.4118793,0.16671305,6.50180895,0.0,-7.30949115753,10.4822092056,3.51171541214,0.141254946589,0.292750090361,-0.0722862482071,-21.9300003052,34.9123001099,-107.252555847,12.271373748799999,-17.45969963073,11.17885494235,3.8957576752000005,14.31042098999,3.341470718380002,16.0
2018-09-11 22:05:35.050,-0.105646279779,0.00055635986979,-0.864742290089,0.141254946589,0.292750090361,-0.0722862482071,0.4118793,0.16671305,6.50180895,0.0,-7.30949115753,10.4822092056,3.51171541214,0.141254946589,0.292750090361,-0.0722862482071,-21.9300003052,34.9123001099,-107.252555847,12.271373748799999,-17.44969987869,11.218853950549999,3.9014234542999997,14.29610013962,3.2395563125600018,16.0
2018-09-11 22:05:35.100,-0.105646279779,0.00055635986979,-0.864742290089,0.141254946589,0.292750090361,-0.0722862482071,0.4118793,0.16671305,6.50180895,0.0,-7.30949115753,10.4822092056,3.51171541214,0.141254946589,0.292750090361,-0.0722862482071,-21.9300003052,34.9123001099,-107.252555847,12.271373748799999,-17.44969987869,11.218853950549999,2.4445066452000006,16.68934345246,2.8916563987700017,16.0
2018-09-11 22:05:35.150,-0.105646279779,0.00055635986979,-0.864742290089,0.141254946589,0.292750090361,-0.0722862482071,0.4118793,0.16671305,6.50180895,0.0,-7.30949115753,10.4822092056,3.51171541214,0.141254946589,0.292750090361,-0.0722862482071,-22.2699985504,34.9123001099,-15.8670902252,129.2713737488,-18.25969982147,38.558852195750006,-18.931616783149998,20.75043916705,2.453929424289999,15.9899997711
2018-09-11 22:05:35.200,-0.105646279779,0.00055635986979,-0.864742290089,0.141254946589,0.292750090361,-0.0722862482071,0.4118793,0.16671305,6.50180895,0.0,-7.15910577774,10.445145607,2.23288702965,0.141254946589,0.292750090361,-0.0722862482071,-22.5499992371,47.5662231445,-15.3560628891,130.2713737488,-18.91969966888,38.648852348350005,-18.929603576650003,20.71356487277,2.1286475658399993,15.9899997711
2018-09-11 22:05:35.250,-0.105646279779,0.00055635986979,-0.864742290089,0.141254946589,0.292750090361,-0.0722862482071,0.4118793,0.16671305,6.50180895,0.0,-7.15910577774,10.445145607,2.23288702965,0.141254946589,0.292750090361,-0.0722862482071,-22.5499992371,47.5662231445,-15.3560628891,130.2713737488,-18.91969966888,38.648852348350005,-18.929603576650003,20.71356487277,2.1286475658399993,15.9899997711
2018-09-11 22:05:35.300,-0.0830889645381,-0.092650183969,-0.86306912195,0.746190667152,0.31364557147,-0.0923544466496,0.10787315,0.36284605,4.56009225,0.0,-7.15910577774,10.445145607,2.23288702965,0.141254946589,0.292750090361,-0.0722862482071,-22.7899990082,47.5662231445,-14.845035553,130.5074634552,-11.34180092811,30.7484531402,-18.937417030349998,20.62945556643,1.6053633689899989,15.9899997711
2018-09-11 22:05:35.350,-0.0830889645381,-0.092650183969,-0.86306912195,0.746190667152,0.31364557147,-0.0923544466496,0.10787315,0.36284605,4.56009225,0.0,-7.15910577774,10.445145607,2.23288702965,0.141254946589,0.292750090361,-0.0722862482071,-22.7899990082,47.5662231445,-14.845035553,130.5074634552,-11.90180134773,30.7584514618,-18.937417030349998,20.62945556643,1.6053633689899989,15.9899997711
2018-09-11 22:05:35.400,-0.0830889645381,-0.092650183969,-0.86306912195,0.746190667152,0.31364557147,-0.0923544466496,0.10787315,0.36284605,4.56009225,0.0,-7.15910577774,10.445145607,2.23288702965,0.141254946589,0.292750090361,-0.0722862482071,-22.9699993134,54.4973373413,-14.325047493,131.5074634552,-12.241801500320001,30.788454055800003,-18.96048545835,20.5622725487,1.300085663799999,15.9899997711
2018-09-11 22:05:35.450,-0.0830889645381,-0.092650183969,-0.86306912195,0.746190667152,0.31364557147,-0.0923544466496,0.10787315,0.36284605,4.56009225,0.0,-6.87688112259,10.5302448273,0.917308866978,0.746190667152,0.31364557147,-0.0923544466496,-22.9699993134,54.4973373413,-14.325047493,131.5074634552,-12.241801500320001,30.788454055800003,-18.98351383205,20.50468683245,1.1094374656699988,15.9899997711
2018-09-11 22:05:35.500,-0.0830889645381,-0.092650183969,-0.86306912195,0.746190667152,0.31364557147,-0.0923544466496,0.10787315,0.36284605,4.56009225,0.0,-6.87688112259,10.5302448273,0.917308866978,0.746190667152,0.31364557147,-0.0923544466496,-22.9699993134,54.4973373413,-14.325047493,131.5074634552,-12.19180130958,30.788454055800003,-19.020371437050002,20.41872787478,0.809982717036999,15.9899997711
2018-09-11 22:05:35.550,-0.0830889645381,-0.092650183969,-0.86306912195,0.746190667152,0.31364557147,-0.0923544466496,0.10787315,0.36284605,4.56009225,0.0,-6.87688112259,10.5302448273,0.917308866978,0.746190667152,0.31364557147,-0.0923544466496,-23.109998703,54.4973373413,-13.781701088,132.5074634552,-12.471801042560001,30.788454055800003,-19.09246826175,20.282627105739998,0.41798448562599894,15.9899997711
2018-09-11 22:05:35.600,-0.0830889645381,-0.092650183969,-0.86306912195,0.746190667152,0.31364557147,-0.0923544466496,0.10787315,0.36284605,4.56009225,0.0,-6.87688112259,10.5302448273,0.917308866978,0.746190667152,0.31364557147,-0.0923544466496,-23.1999988556,59.8557472229,-13.2204351425,133.5074634552,-12.59180092811,30.7584514618,-19.13768196105,20.20573949816,0.24081665277499897,15.9899997711
2018-09-11 22:05:35.650,-0.113475641889,-0.244104730706,-0.827366389011,0.572358548641,0.25586488843,-0.198425590992,0.0,0.6864655,5.95263655,0.0,-6.87688112259,10.5302448273,0.917308866978,0.746190667152,0.31364557147,-0.0923544466496,-23.1999988556,59.8557472229,-13.2204351425,133.5074634552,-12.59180092811,30.7584514618,-19.161304473850002,20.16200971606,0.15358479320999896,15.9899997711
2018-09-11 22:05:35.700,-0.113475641889,-0.244104730706,-0.827366389011,0.572358548641,0.25586488843,-0.198425590992,0.0,0.6864655,5.95263655,0.0,-6.42679786682,10.7894935608,-0.216905042529,0.572358548641,0.25586488843,-0.198425590992,-23.25,59.8557472229,-12.6452474594,132.2702045441,-6.568116903310001,13.5704193115,-19.24172687535,20.04015445712,-0.12969113886400102,15.9899997711
2018-09-11 22:05:35.750,-0.113475641889,-0.244104730706,-0.827366389011,0.572358548641,0.25586488843,-0.198425590992,0.0,0.6864655,5.95263655,0.0,-6.42679786682,10.7894935608,-0.216905042529,0.572358548641,0.25586488843,-0.198425590992,-23.25,59.8557472229,-12.6452474594,132.2702045441,-6.568116903310001,13.5704193115,-19.32849216465,19.90390825274,-0.40997347235700105,15.9899997711
2018-09-11 22:05:35.800,-0.113475641889,-0.244104730706,-0.827366389011,0.572358548641,0.25586488843,-0.198425590992,0.0,0.6864655,5.95263655,0.0,-6.42679786682,10.7894935608,-0.216905042529,0.572358548641,0.25586488843,-0.198425590992,-23.25,63.0061149597,-12.0382204056,133.2702045441,-6.468117475510001,13.490421295199997,-19.45901393895,19.71166181567,-0.788859605789001,15.9899997711
2018-09-11 22:05:35.850,-0.113475641889,-0.244104730706,-0.827366389011,0.572358548641,0.25586488843,-0.198425590992,0.0,0.6864655,5.95263655,0.0,-6.42679786682,10.7894935608,-0.216905042529,0.572358548641,0.25586488843,-0.198425590992,-23.25,63.0061149597,-12.0382204056,133.2702045441,-6.42811751366,13.4304199219,-19.55720424655,19.57029485705,-1.055699348450001,15.9899997711
2018-09-11 22:05:35.900,-0.113475641889,-0.244104730706,-0.827366389011,0.572358548641,0.25586488843,-0.198425590992,0.0,0.6864655,5.95263655,0.0,-6.42679786682,10.7894935608,-0.216905042529,0.572358548641,0.25586488843,-0.198425590992,-23.2099990845,63.0061149597,-11.3934326172,135.2702045441,-6.418117284780001,13.410419464099999,-19.62815189365,19.47591876986,-1.247716546060001,15.9899997711
2018-09-11 22:05:35.950,-0.113475641889,-0.244104730706,-0.827366389011,0.572358548641,0.25586488843,-0.198425590992,0.0,0.6864655,5.95263655,0.0,-5.81740665436,11.2142543793,-1.44095242023,0.572358548641,0.25586488843,-0.198425590992,-23.2099990845,63.0061149597,-11.3934326172,135.2702045441,-6.26811766624,13.3204193115,-19.72654247285,19.3359475136,-1.534910678860001,15.9899997711
2018-09-11 22:05:36.000,-0.113475641889,-0.244104730706,-0.827366389011,0.572358548641,0.25586488843,-0.198425590992,0.0,0.6864655,5.95263655,0.0,-5.81740665436,11.2142543793,-1.44095242023,0.572358548641,0.25586488843,-0.198425590992,-23.1199989319,53.7092208862,-10.7312068939,136.2702045441,-5.988116979600001,13.270420074499999,-19.80108070375,19.24036121371,-1.726278662680001,15.9899997711
2018-09-11 22:05:36.050,-0.113475641889,-0.244104730706,-0.827366389011,0.572358548641,0.25586488843,-0.198425590992,0.0,0.6864655,5.95263655,0.0,-5.81740665436,11.2142543793,-1.44095242023,0.572358548641,0.25586488843,-0.198425590992,-23.1199989319,53.7092208862,-10.7312068939,136.2702045441,-5.988116979600001,13.270420074499999,-19.80108070375,19.24036121371,-1.726278662680001,15.9899997711
2018-09-11 22:05:36.100,-0.113475641889,-0.244104730706,-0.827366389011,0.572358548641,0.25586488843,-0.198425590992,0.0,0.6864655,5.95263655,0.0,-5.81740665436,11.2142543793,-1.44095242023,0.572358548641,0.25586488843,-0.198425590992,-22.9899997711,53.7092208862,-10.0361795425,137.2702045441,-5.958117246630001,13.150421142599999,-19.96695137025,19.012816906,-2.067301750180001,15.9899997711
2018-09-11 22:05:36.150,-0.120576276617,-0.327377308772,-0.769850937563,0.0894747152925,-0.114913187921,-0.406219422817,-0.0588399,0.85317855,6.8842683,0.0,-5.81740665436,11.2142543793,-1.44095242023,0.572358548641,0.25586488843,-0.198425590992,-22.9899997711,53.7092208862,-10.0361795425,137.2702045441,-5.6181170940400005,13.150421142599999,-20.016641616850002,18.94379234316,-2.140923500060001,15.9899997711
2018-09-11 22:05:36.200,-0.120576276617,-0.327377308772,-0.769850937563,0.0894747152925,-0.114913187921,-0.406219422817,-0.0588399,0.85317855,6.8842683,0.0,-5.18485832214,11.664940834,-2.39780473709,0.0894747152925,-0.114913187921,-0.406219422817,-22.8099994659,40.1082992554,-9.30483150482,132.9034786224,1.2547559738099991,4.214355468699999,-20.14492130275,18.75283241274,-2.397804737090001,15.9899997711
2018-09-11 22:05:36.250,-0.120576276617,-0.327377308772,-0.769850937563,0.0894747152925,-0.114913187921,-0.406219422817,-0.0588399,0.85317855,6.8842683,0.0,-5.18485832214,11.664940834,-2.39780473709,0.0894747152925,-0.114913187921,-0.406219422817,-22.8099994659,40.1082992554,-9.30483150482,132.9034786224,1.2547559738099991,4.214355468699999,-20.239737510650002,18.61415433886,-2.552700996400001,15.9899997711
2018-09-11 22:05:36.300,-0.120576276617,-0.327377308772,-0.769850937563,0.0894747152925,-0.114913187921,-0.406219422817,-0.0588399,0.85317855,6.8842683,0.0,-5.18485832214,11.664940834,-2.39780473709,0.0894747152925,-0.114913187921,-0.406219422817,-22.6000003815,40.1082992554,-8.53620815277,134.9034786224,1.2547559738099991,4.124359130800002,-20.239737510650002,18.61415433886,-2.552700996400001,15.9899997711
2018-09-11 22:05:36.350,-0.120576276617,-0.327377308772,-0.769850937563,0.0894747152925,-0.114913187921,-0.406219422817,-0.0588399,0.85317855,6.8842683,0.0,-5.18485832214,11.664940834,-2.39780473709,0.0894747152925,-0.114913187921,-0.406219422817,-22.6000003815,40.1082992554,-8.53620815277,134.9034786224,1.7547559738099991,4.114356994600001,-20.50202465055,18.228782177,-2.895186662670001,15.9899997711
