%time,field.orientation.x,field.orientation.y,field.orientation.z,field.angular_velocity.x,field.angular_velocity.y,field.angular_velocity.z,field.linear_acceleration.x,field.linear_acceleration.y,field.linear_acceleration.z,field.data,field.twist.linear.x,field.twist.linear.y,field.twist.linear.z,field.twist.angular.x,field.twist.angular.y,field.twist.angular.z,field.alt_error,field.aspd_error,field.xtrack_error,delta_yaw,delta_pitch,delta_roll,delta_x,delta_y,delta_z,delta_roll_airspeed
2018-09-11 19:16:59.550,,,,,,,,,,0.0,-17.279876709,5.11163806915,-0.309121489525,0.813396155834,0.0378259047866,-0.0179925393313,0.179999992251,-265.189544678,-28.5482292175,175.03912353520002,-0.15373468399,30.16632556916,-5.16429376602,17.2618179321,-0.328086227179,15.0
2018-09-11 19:16:59.600,-0.0205278198474,-0.206202629507,-0.965167140525,0.445257216692,-0.0378336161375,-0.0779216960073,0.0,0.65704555,9.80665,0.0,-17.279876709,5.11163806915,-0.309121489525,0.813396155834,0.0378259047866,-0.0179925393313,0.179999992251,-265.189544678,-28.5482292175,175.03912353520002,-0.15373468399,30.16632556916,-5.16429376602,17.2618179321,-0.328086227179,15.0
2018-09-11 19:16:59.650,-0.0205278198474,-0.206202629507,-0.965167140525,0.445257216692,-0.0378336161375,-0.0779216960073,0.0,0.65704555,9.80665,0.0,-17.279876709,5.11163806915,-0.309121489525,0.813396155834,0.0378259047866,-0.0179925393313,0.209999993443,-265.189544678,-26.7349529266,174.524810791,-0.18609380722000002,17.545352935700002,-5.4593205452,17.1633701324,-0.434650987387,15.0
2018-09-11 19:16:59.700,-0.0205278198474,-0.206202629507,-0.965167140525,0.445257216692,-0.0378336161375,-0.0779216960073,0.0,0.65704555,9.80665,0.0,-17.279876709,5.11163806915,-0.309121489525,0.813396155834,0.0378259047866,-0.0179925393313,0.25,-260.147277832,-24.9458808899,175.524810791,-0.006093859670000201,19.0953521728,10.28881263733,17.074363708499998,-0.520975589751998,15.0
2018-09-11 19:16:59.750,-0.0205278198474,-0.206202629507,-0.965167140525,0.445257216692,-0.0378336161375,-0.0779216960073,0.0,0.65704555,9.80665,0.0,-17.0436344147,5.77942371368,-0.544099569321,0.445257216692,-0.0378336161375,-0.0779216960073,0.299999982119,-260.147277832,-191.962875366,27.524810790999993,-1.4460939168900002,11.565353393500004,10.28881263733,17.074363708499998,-0.520975589751998,15.0
2018-09-11 19:16:59.800,-0.0205278198474,-0.206202629507,-0.965167140525,0.445257216692,-0.0378336161375,-0.0779216960073,0.0,0.65704555,9.80665,0.0,-17.0436344147,5.77942371368,-0.544099569321,0.445257216692,-0.0378336161375,-0.0779216960073,0.299999982119,-260.147277832,-191.962875366,27.524810790999993,-1.4460939168900002,11.565353393500004,10.09308815002,17.004404067999996,-0.595986127852998,16.0
2018-09-11 19:16:59.850,-0.0205278198474,-0.206202629507,-0.965167140525,0.445257216692,-0.0378336161375,-0.0779216960073,0.0,0.65704555,9.80665,0.0,-17.0436344147,5.77942371368,-0.544099569321,0.445257216692,-0.0378336161375,-0.0779216960073,0.299999982119,-260.147277832,-191.962875366,27.524810790999993,-1.4360936880100001,11.555355071999998,9.93804597855,16.947940826399996,-0.6351988315579981,16.0
2018-09-11 19:16:59.900,-0.0205278198474,-0.206202629507,-0.965167140525,0.445257216692,-0.0378336161375,-0.0779216960073,0.0,0.65704555,9.80665,0.0,-17.0436344147,5.77942371368,-0.544099569321,0.445257216692,-0.0378336161375,-0.0779216960073,0.370000004768,-164.296539307,-190.280700684,27.524810790999993,-2.8760939836499997,10.355354308999999,9.711847782140001,16.880367279099996,-0.711028695106998,16.0
2018-09-11 19:16:59.950,-0.0282388279814,-0.265039137406,-0.94476456752,0.215527176857,-0.0359600000083,-0.248873218894,0.18632635,0.79433865,9.62032365,0.0,-17.0436344147,5.77942371368,-0.544099569321,0.445257216692,-0.0378336161375,-0.0779216960073,0.439999997616,-164.296539307,-188.615432739,23.927391052199994,-3.0535402297900003,2.0725212096999996,9.55249452591,16.823625564599997,-0.757028758525998,16.0
2018-09-11 19:17:00.000,-0.0282388279814,-0.265039137406,-0.94476456752,0.215527176857,-0.0359600000083,-0.248873218894,0.18632635,0.79433865,9.62032365,0.0,-16.7211093903,6.76946783066,-0.881416797638,0.215527176857,-0.0359600000083,-0.248873218894,0.439999997616,-164.296539307,-188.615432739,23.927391052199994,-3.0535402297900003,2.0725212096999996,9.312922954560001,16.753356933599996,-0.850912272929998,16.0
2018-09-11 19:17:00.050,-0.0282388279814,-0.265039137406,-0.94476456752,0.215527176857,-0.0359600000083,-0.248873218894,0.18632635,0.79433865,9.62032365,0.0,-16.7211093903,6.76946783066,-0.881416797638,0.215527176857,-0.0359600000083,-0.248873218894,0.439999997616,-164.296539307,-188.615432739,23.927391052199994,-3.04354000091,2.062519073499999,9.09310770035,16.675716400099997,-0.956367969512998,16.0
2018-09-11 19:17:00.100,-0.0282388279814,-0.265039137406,-0.94476456752,0.215527176857,-0.0359600000083,-0.248873218894,0.18632635,0.79433865,9.62032365,0.0,-16.7211093903,6.76946783066,-0.881416797638,0.215527176857,-0.0359600000083,-0.248873218894,0.539999961853,-165.153686523,-186.958602905,23.927391052199994,-4.42354011535,0.6725196838000009,8.7698340416,16.554630279499996,-1.098593115809998,16.0
2018-09-11 19:17:00.150,-0.0282388279814,-0.265039137406,-0.94476456752,0.215527176857,-0.0359600000083,-0.248873218894,0.18632635,0.79433865,9.62032365,0.0,-16.7211093903,6.76946783066,-0.881416797638,0.215527176857,-0.0359600000083,-0.248873218894,0.539999961853,-165.153686523,-186.958602905,23.927391052199994,-4.42354011535,0.6725196838000009,8.59838151932,16.480232238799996,-1.160921335219998,16.0
2018-09-11 19:17:00.200,-0.0282388279814,-0.265039137406,-0.94476456752,0.215527176857,-0.0359600000083,-0.248873218894,0.18632635,0.79433865,9.62032365,0.0,-16.7211093903,6.76946783066,-0.881416797638,0.215527176857,-0.0359600000083,-0.248873218894,0.539999961853,-165.153686523,-186.958602905,23.927391052199994,-4.42354011535,0.6725196838000009,8.59838151932,16.480232238799996,-1.160921335219998,16.0
2018-09-11 19:17:00.250,-0.0282388279814,-0.265039137406,-0.94476456752,0.215527176857,-0.0359600000083,-0.248873218894,0.18632635,0.79433865,9.62032365,0.0,-16.3397884369,7.72803783417,-1.27569413185,0.215527176857,-0.0359600000083,-0.248873218894,0.649999976158,-165.153686523,-185.335540771,23.927391052199994,-5.80354022979,-0.8874797821000016,8.27196216583,16.339788436899997,-1.275694131849998,16.0
2018-09-11 19:17:00.300,-0.0282388279814,-0.265039137406,-0.94476456752,0.215527176857,-0.0359600000083,-0.248873218894,0.18632635,0.79433865,9.62032365,0.0,-16.3397884369,7.72803783417,-1.27569413185,0.215527176857,-0.0359600000083,-0.248873218894,0.77999997139,-165.390777588,-183.704086304,23.927391052199994,-7.20353984832,-2.5674800873000017,8.00899791718,16.213605880699998,-1.344755172729998,16.0
2018-09-11 19:17:00.350,-0.0282388279814,-0.265039137406,-0.94476456752,0.215527176857,-0.0359600000083,-0.248873218894,0.18632635,0.79433865,9.62032365,0.0,-16.3397884369,7.72803783417,-1.27569413185,0.215527176857,-0.0359600000083,-0.248873218894,0.77999997139,-165.390777588,-183.704086304,23.927391052199994,-7.20353984832,-2.5674800873000017,7.83593177795,16.122102737399995,-1.398346424099998,16.0
2018-09-11 19:17:00.400,-0.0311334091874,-0.281852496481,-0.925800946928,-0.0111945047975,-0.0646908655763,-0.232605189085,-0.30400615,0.53936575,9.6889702,0.0,-16.3397884369,7.72803783417,-1.27569413185,0.215527176857,-0.0359600000083,-0.248873218894,0.77999997139,-165.390777588,-183.704086304,23.927391052199994,-7.20353984832,-2.5674800873000017,7.83593177795,16.122102737399995,-1.398346424099998,16.0
2018-09-11 19:17:00.450,-0.0311334091874,-0.281852496481,-0.925800946928,-0.0111945047975,-0.0646908655763,-0.232605189085,-0.30400615,0.53936575,9.6889702,0.0,-16.3397884369,7.72803783417,-1.27569413185,0.215527176857,-0.0359600000083,-0.248873218894,0.919999957085,-165.390777588,-182.106414795,17.180004119899998,-6.54403448102,-6.257070541299999,7.34181308746,15.854295730599997,-1.556964874269998,16.0
2018-09-11 19:17:00.500,-0.0311334091874,-0.281852496481,-0.925800946928,-0.0111945047975,-0.0646908655763,-0.232605189085,-0.30400615,0.53936575,9.6889702,0.0,-15.8542957306,8.65818691254,-1.55696487427,-0.0111945047975,-0.0646908655763,-0.232605189085,1.06999993324,-163.867004395,-180.525665283,17.180004119899998,-7.904034137719999,-8.167070388700001,7.1818189620999995,15.753166198699997,-1.610920310019998,16.0
2018-09-11 19:17:00.550,-0.0311334091874,-0.281852496481,-0.925800946928,-0.0111945047975,-0.0646908655763,-0.232605189085,-0.30400615,0.53936575,9.6889702,0.0,-15.8542957306,8.65818691254,-1.55696487427,-0.0111945047975,-0.0646908655763,-0.232605189085,1.06999993324,-163.867004395,-180.525665283,17.180004119899998,-7.91403436662,-8.1870708465,6.95425033569,15.608884811399996,-1.689240932459998,16.0
2018-09-11 19:17:00.600,-0.0311334091874,-0.281852496481,-0.925800946928,-0.0111945047975,-0.0646908655763,-0.232605189085,-0.30400615,0.53936575,9.6889702,0.0,-15.8542957306,8.65818691254,-1.55696487427,-0.0111945047975,-0.0646908655763,-0.232605189085,1.24000000954,-163.867004395,-178.978729248,17.180004119899998,-9.25403451922,-10.1370697021,6.7450876236,15.470245361299996,-1.790907263759998,16.0
2018-09-11 19:17:00.650,-0.0311334091874,-0.281852496481,-0.925800946928,-0.0111945047975,-0.0646908655763,-0.232605189085,-0.30400615,0.53936575,9.6889702,0.0,-15.8542957306,8.65818691254,-1.55696487427,-0.0111945047975,-0.0646908655763,-0.232605189085,1.24000000954,-163.867004395,-178.978729248,17.180004119899998,-9.25403451922,-10.147069931,6.601349830629999,15.371726036099997,-1.859670877459998,16.0
2018-09-11 19:17:00.700,-0.0311334091874,-0.281852496481,-0.925800946928,-0.0111945047975,-0.0646908655763,-0.232605189085,-0.30400615,0.53936575,9.6889702,0.0,-15.2355985641,9.59298324585,-1.95686542988,-0.0111945047975,-0.0646908655763,-0.232605189085,1.40999996662,-157.642364502,-177.431686401,17.180004119899998,-10.524034023319999,-12.027070999100001,6.40701675415,15.235598564099996,-1.956865429879998,16.0
2018-09-11 19:17:00.750,-0.0169841859911,-0.265934870567,-0.918962180573,-0.175496861339,0.0443622581661,-0.213877007365,-0.8825985,0.7256921,8.5906254,0.0,-15.2355985641,9.59298324585,-1.95686542988,-0.0111945047975,-0.0646908655763,-0.232605189085,1.40999996662,-157.642364502,-177.431686401,17.180004119899998,-10.544034481019999,-12.047069549500002,6.28300952911,15.146219253499996,-2.0428888797799982,16.0
2018-09-11 19:17:00.800,-0.0169841859911,-0.265934870567,-0.918962180573,-0.175496861339,0.0443622581661,-0.213877007365,-0.8825985,0.7256921,8.5906254,0.0,-15.2355985641,9.59298324585,-1.95686542988,-0.0111945047975,-0.0646908655763,-0.232605189085,1.61000001431,-157.642364502,-175.93548584,12.805892944299998,-9.432109355959998,-11.344362258899999,6.11039924622,15.013923644999997,-2.160176992419998,16.0
2018-09-11 19:17:00.850,-0.0169841859911,-0.265934870567,-0.918962180573,-0.175496861339,0.0443622581661,-0.213877007365,-0.8825985,0.7256921,8.5906254,0.0,-15.2355985641,9.59298324585,-1.95686542988,-0.0111945047975,-0.0646908655763,-0.232605189085,1.61000001431,-157.642364502,-175.93548584,12.805892944299998,-9.442107677460001,-11.364362716599999,6.0081949234,14.933218002299997,-2.268684864039998,16.0
2018-09-11 19:17:00.900,-0.0169841859911,-0.265934870567,-0.918962180573,-0.175496861339,0.0443622581661,-0.213877007365,-0.8825985,0.7256921,8.5906254,0.0,-15.2355985641,9.59298324585,-1.95686542988,-0.0111945047975,-0.0646908655763,-0.232605189085,1.81999993324,-154.705810547,-174.464645386,12.805892944299998,-10.56210851666,-12.984361648499998,6.0081949234,14.933218002299997,-2.268684864039998,16.0
2018-09-11 19:17:00.950,-0.0169841859911,-0.265934870567,-0.918962180573,-0.175496861339,0.0443622581661,-0.213877007365,-0.8825985,0.7256921,8.5906254,0.0,-15.2355985641,9.59298324585,-1.95686542988,-0.0111945047975,-0.0646908655763,-0.232605189085,2.04999995232,-154.705810547,-172.985336304,12.805892944299998,-10.56210851666,-12.9943618774,5.7996349335,14.762626647899996,-2.457256555559998,16.0
2018-09-11 19:17:01.000,-0.0169841859911,-0.265934870567,-0.918962180573,-0.175496861339,0.0443622581661,-0.213877007365,-0.8825985,0.7256921,8.5906254,0.0,-14.637512207,10.3508939743,-2.60337471962,-0.175496861339,0.0443622581661,-0.213877007365,2.04999995232,-154.705810547,-172.985336304,12.805892944299998,-11.55210828776,-14.584362029999998,5.6037416458,14.596982955899996,-2.654862165449998,16.0
2018-09-11 19:17:01.050,-0.0169841859911,-0.265934870567,-0.918962180573,-0.175496861339,0.0443622581661,-0.213877007365,-0.8825985,0.7256921,8.5906254,0.0,-14.637512207,10.3508939743,-2.60337471962,-0.175496861339,0.0443622581661,-0.213877007365,2.04999995232,-154.705810547,-172.985336304,12.805892944299998,-11.56210851666,-14.604362487799998,5.5607528687,14.555203437799996,-2.701966524119998,16.0
2018-09-11 19:17:01.100,-0.0169841859911,-0.265934870567,-0.918962180573,-0.175496861339,0.0443622581661,-0.213877007365,-0.8825985,0.7256921,8.5906254,0.0,-14.637512207,10.3508939743,-2.60337471962,-0.175496861339,0.0443622581661,-0.213877007365,2.29999995232,-152.913665771,-171.539855957,12.805892944299998,-12.49210882186,-16.1543626785,5.3793210983,14.392084121699996,-2.903830051419998,16.0
2018-09-11 19:17:01.150,-0.0169841859911,-0.265934870567,-0.918962180573,-0.175496861339,0.0443622581661,-0.213877007365,-0.8825985,0.7256921,8.5906254,0.0,-14.637512207,10.3508939743,-2.60337471962,-0.175496861339,0.0443622581661,-0.213877007365,2.29999995232,-152.913665771,-171.539855957,12.805892944299998,-12.502109050759998,-16.1643619537,5.287500381499999,14.311024665799996,-3.0178518295299983,16.0
2018-09-11 19:17:01.200,0.0171986198191,-0.234596560471,-0.91275723255,-0.276436209679,0.0854468718171,-0.221302136779,-1.2748645,0.5295591,7.75706015,0.0,-14.637512207,10.3508939743,-2.60337471962,-0.175496861339,0.0443622581661,-0.213877007365,2.57999992371,-152.913665771,-170.119659424,8.225860595699999,-9.558215141300002,-12.569264411899999,5.2127027512,14.240393638599997,-3.1147172450999983,16.0
2018-09-11 19:17:01.250,0.0171986198191,-0.234596560471,-0.91275723255,-0.276436209679,0.0854468718171,-0.221302136779,-1.2748645,0.5295591,7.75706015,0.0,-14.170217514,10.8614292145,-3.22038507462,-0.276436209679,0.0854468718171,-0.221302136779,2.57999992371,-152.913665771,-170.119659424,8.225860595699999,-9.568215370200003,-12.5892648697,5.0955400467,14.127025604199996,-3.282557249069998,16.0
2018-09-11 19:17:01.300,0.0171986198191,-0.234596560471,-0.91275723255,-0.276436209679,0.0854468718171,-0.221302136779,-1.2748645,0.5295591,7.75706015,0.0,-14.170217514,10.8614292145,-3.22038507462,-0.276436209679,0.0854468718171,-0.221302136779,2.87999987602,-143.977935791,-168.716430664,8.225860595699999,-10.2982149124,-13.909264564499999,5.0327253342,14.059978485099997,-3.3896334171299984,16.0
2018-09-11 19:17:01.350,0.0171986198191,-0.234596560471,-0.91275723255,-0.276436209679,0.0854468718171,-0.221302136779,-1.2748645,0.5295591,7.75706015,0.0,-14.170217514,10.8614292145,-3.22038507462,-0.276436209679,0.0854468718171,-0.221302136779,2.87999987602,-143.977935791,-168.716430664,8.225860595699999,-10.308215141300002,-13.9292650223,4.9718360901,13.997853279099996,-3.491829872129998,16.0
2018-09-11 19:17:01.400,0.0171986198191,-0.234596560471,-0.91275723255,-0.276436209679,0.0854468718171,-0.221302136779,-1.2748645,0.5295591,7.75706015,0.0,-14.170217514,10.8614292145,-3.22038507462,-0.276436209679,0.0854468718171,-0.221302136779,2.87999987602,-143.977935791,-168.716430664,8.225860595699999,-10.308215141300002,-13.9292650223,4.9718360901,13.997853279099996,-3.491829872129998,16.0
2018-09-11 19:17:01.450,0.0171986198191,-0.234596560471,-0.91275723255,-0.276436209679,0.0854468718171,-0.221302136779,-1.2748645,0.5295591,7.75706015,0.0,-14.170217514,10.8614292145,-3.22038507462,-0.276436209679,0.0854468718171,-0.221302136779,3.19999980927,-143.977935791,-167.338531494,8.225860595699999,-10.948214531,-15.0892648697,4.8008356094,13.809985160799997,-3.8563644885999984,16.0
2018-09-11 19:17:01.500,0.0171986198191,-0.234596560471,-0.91275723255,-0.276436209679,0.0854468718171,-0.221302136779,-1.2748645,0.5295591,7.75706015,0.0,-13.7829265594,11.2201395035,-3.91561198235,-0.276436209679,0.0854468718171,-0.221302136779,3.54999995232,-137.849609375,-165.952209473,8.225860595699999,-11.438214302100002,-16.1092643738,4.7580928801999995,13.754483222999996,-3.982512950899998,16.0
2018-09-11 19:17:01.550,0.0618367865102,-0.198059359274,-0.908501043291,-0.2043543607,0.121753126383,-0.177461609244,-1.6279039,0.7256921,6.46258235,0.0,-13.7829265594,11.2201395035,-3.91561198235,-0.276436209679,0.0854468718171,-0.221302136779,3.54999995232,-137.849609375,-165.952209473,8.225860595699999,-11.448214531,-16.12926483156,4.7045993804999995,13.690358161899997,-4.127076148989998,16.0
2018-09-11 19:17:01.600,0.0618367865102,-0.198059359274,-0.908501043291,-0.2043543607,0.121753126383,-0.177461609244,-1.6279039,0.7256921,6.46258235,0.0,-13.7829265594,11.2201395035,-3.91561198235,-0.276436209679,0.0854468718171,-0.221302136779,3.91999983788,-137.849609375,-164.616607666,4.968532562299998,-7.8446311951,-10.978705406149999,4.6213951111,13.582167625399997,-4.397874355319998,16.0
2018-09-11 19:17:01.650,0.0618367865102,-0.198059359274,-0.908501043291,-0.2043543607,0.121753126383,-0.177461609244,-1.6279039,0.7256921,6.46258235,0.0,-13.7829265594,11.2201395035,-3.91561198235,-0.276436209679,0.0854468718171,-0.221302136779,3.91999983788,-137.849609375,-164.616607666,4.968532562299998,-7.8446311951,-10.978705406149999,4.6029815674000005,13.559047698999997,-4.463019847869998,16.0
2018-09-11 19:17:01.700,0.0618367865102,-0.198059359274,-0.908501043291,-0.2043543607,0.121753126383,-0.177461609244,-1.6279039,0.7256921,6.46258235,0.0,-13.7829265594,11.2201395035,-3.91561198235,-0.276436209679,0.0854468718171,-0.221302136779,4.32999992371,-138.638687134,-163.289398193,4.968532562299998,-8.1146297455,-11.788705348929998,4.5513858795,13.489611625699997,-4.638284683229998,16.0
2018-09-11 19:17:01.750,0.0618367865102,-0.198059359274,-0.908501043291,-0.2043543607,0.121753126383,-0.177461609244,-1.6279039,0.7256921,6.46258235,0.0,-13.4498977661,11.480348587,-4.75465011597,-0.2043543607,0.121753126383,-0.177461609244,4.75999975204,-138.638687134,-161.996078491,4.968532562299998,-8.124629974400001,-11.798705577809999,4.5513858795,13.489611625699997,-4.638284683229998,16.0
2018-09-11 19:17:01.800,0.0618367865102,-0.198059359274,-0.908501043291,-0.2043543607,0.121753126383,-0.177461609244,-1.6279039,0.7256921,6.46258235,0.0,-13.4498977661,11.480348587,-4.75465011597,-0.2043543607,0.121753126383,-0.177461609244,4.75999975204,-138.638687134,-161.996078491,4.968532562299998,-8.3446311951,-12.478705406149999,4.472951889000001,13.393474578899996,-4.928359031679999,16.0
2018-09-11 19:17:01.850,0.0943089674094,-0.169974941984,-0.905380747057,-0.266546010971,0.110681980848,-0.114175766706,-1.81423025,0.3726527,6.7469752,0.0,-13.4498977661,11.480348587,-4.75465011597,-0.2043543607,0.121753126383,-0.177461609244,4.75999975204,-138.638687134,-161.996078491,4.968532562299998,-8.3546295166,-12.488705635029998,4.438323974599999,13.356390953099996,-5.039218425749998,16.0
2018-09-11 19:17:01.900,0.0943089674094,-0.169974941984,-0.905380747057,-0.266546010971,0.110681980848,-0.114175766706,-1.81423025,0.3726527,6.7469752,0.0,-13.4498977661,11.480348587,-4.75465011597,-0.2043543607,0.121753126383,-0.177461609244,5.23000001907,-139.566986084,-160.66885376,2.941726684599999,-5.896484375,-8.42518472676,4.438323974599999,13.356390953099996,-5.039218425749998,16.0
2018-09-11 19:17:01.950,0.0943089674094,-0.169974941984,-0.905380747057,-0.266546010971,0.110681980848,-0.114175766706,-1.81423025,0.3726527,6.7469752,0.0,-13.4498977661,11.480348587,-4.75465011597,-0.2043543607,0.121753126383,-0.177461609244,5.23000001907,-139.566986084,-160.66885376,2.941726684599999,-5.906484603799999,-8.43518447881,4.3571434021,13.270979881299997,-5.306768894199998,16.0
2018-09-11 19:17:02.000,0.0943089674094,-0.169974941984,-0.905380747057,-0.266546010971,0.110681980848,-0.114175766706,-1.81423025,0.3726527,6.7469752,0.0,-13.2418956757,11.6788988113,-5.4031457901,-0.266546010971,0.110681980848,-0.114175766706,5.73000001907,-139.566986084,-159.358627319,2.941726684599999,-5.956483840899999,-9.02518463139,4.3007946014,13.227943420399997,-5.449226379389998,16.0
2018-09-11 19:17:02.050,0.0943089674094,-0.169974941984,-0.905380747057,-0.266546010971,0.110681980848,-0.114175766706,-1.81423025,0.3726527,6.7469752,0.0,-13.2418956757,11.6788988113,-5.4031457901,-0.266546010971,0.110681980848,-0.114175766706,5.73000001907,-139.566986084,-159.358627319,2.941726684599999,-5.9664840698,-9.03518486028,4.241147995,13.184460639999996,-5.592112541199998,16.0
2018-09-11 19:17:02.100,0.0943089674094,-0.169974941984,-0.905380747057,-0.266546010971,0.110681980848,-0.114175766706,-1.81423025,0.3726527,6.7469752,0.0,-13.2418956757,11.6788988113,-5.4031457901,-0.266546010971,0.110681980848,-0.114175766706,6.25,-136.37008667,-158.056838989,2.941726684599999,-5.956483840899999,-9.625184536029998,4.200853347800001,13.151036262499996,-5.6713848113999985,16.0
2018-09-11 19:17:02.150,0.0943089674094,-0.169974941984,-0.905380747057,-0.266546010971,0.110681980848,-0.114175766706,-1.81423025,0.3726527,6.7469752,0.0,-13.2418956757,11.6788988113,-5.4031457901,-0.266546010971,0.110681980848,-0.114175766706,6.25,-136.37008667,-158.056838989,2.941726684599999,-5.956483840899999,-9.635184764909999,4.163701057400001,13.127635002099996,-5.759694099429998,16.0
2018-09-11 19:17:02.200,0.0943089674094,-0.169974941984,-0.905380747057,-0.266546010971,0.110681980848,-0.114175766706,-1.81423025,0.3726527,6.7469752,0.0,-13.2418956757,11.6788988113,-5.4031457901,-0.266546010971,0.110681980848,-0.114175766706,6.25,-136.37008667,-158.056838989,2.941726684599999,-5.956483840899999,-9.635184764909999,4.163701057400001,13.127635002099996,-5.759694099429998,16.0
2018-09-11 19:17:02.250,0.0943089674094,-0.169974941984,-0.905380747057,-0.266546010971,0.110681980848,-0.114175766706,-1.81423025,0.3726527,6.7469752,0.0,-13.0763692856,11.927649498,-6.00177955627,-0.266546010971,0.110681980848,-0.114175766706,6.78999996185,-136.37008667,-156.780288696,2.941726684599999,-5.926485061600001,-10.235184669539999,4.072350502000001,13.076369285599997,-6.001779556269998,16.0
2018-09-11 19:17:02.300,0.128950178877,-0.145778523259,-0.900487680051,-0.141599908471,0.0328417345881,-0.0596466884017,-1.87307015,0.26477955,7.5315072,0.0,-13.0763692856,11.927649498,-6.00177955627,-0.266546010971,0.110681980848,-0.114175766706,7.34999990463,-142.151641846,-155.486968994,2.941726684599999,-5.7864837646,-10.68518471722,4.0328788757,13.059123992899996,-6.133486270899998,16.0
2018-09-11 19:17:02.350,0.128950178877,-0.145778523259,-0.900487680051,-0.141599908471,0.0328417345881,-0.0596466884017,-1.87307015,0.26477955,7.5315072,0.0,-13.0763692856,11.927649498,-6.00177955627,-0.266546010971,0.110681980848,-0.114175766706,7.34999990463,-142.151641846,-155.486968994,1.0629386901999993,-2.980209350599999,-6.28656888008,4.0061988831,13.055552482599996,-6.211518287659998,16.0
2018-09-11 19:17:02.400,0.128950178877,-0.145778523259,-0.900487680051,-0.141599908471,0.0328417345881,-0.0596466884017,-1.87307015,0.26477955,7.5315072,0.0,-13.0763692856,11.927649498,-6.00177955627,-0.266546010971,0.110681980848,-0.114175766706,7.94000005722,-142.151641846,-154.193618774,1.0629386901999993,-2.800209045399999,-6.57656884194,3.9556789398000003,13.050223350499996,-6.310989856719998,16.0
2018-09-11 19:17:02.450,0.128950178877,-0.145778523259,-0.900487680051,-0.141599908471,0.0328417345881,-0.0596466884017,-1.87307015,0.26477955,7.5315072,0.0,-13.0763692856,11.927649498,-6.00177955627,-0.266546010971,0.110681980848,-0.114175766706,7.94000005722,-142.151641846,-154.193618774,1.0629386901999993,-2.800209045399999,-6.57656884194,3.8974514007999996,13.045864105199996,-6.392064571379998,16.0
2018-09-11 19:17:02.500,0.128950178877,-0.145778523259,-0.900487680051,-0.141599908471,0.0328417345881,-0.0596466884017,-1.87307015,0.26477955,7.5315072,0.0,-13.0358991623,12.1441287994,-6.4344291687,-0.141599908471,0.0328417345881,-0.0596466884017,8.53999996185,-148.662185669,-152.900299072,1.0629386901999993,-2.630210876499998,-6.92656874657,3.8338947296000008,13.033718109099997,-6.459306716919998,16.0
2018-09-11 19:17:02.550,0.128950178877,-0.145778523259,-0.900487680051,-0.141599908471,0.0328417345881,-0.0596466884017,-1.87307015,0.26477955,7.5315072,0.0,-13.0358991623,12.1441287994,-6.4344291687,-0.141599908471,0.0328417345881,-0.0596466884017,8.53999996185,-148.662185669,-152.900299072,1.0629386901999993,-2.630210876499998,-6.92656874657,3.8117570877,13.033477783199997,-6.480863094329998,16.0
2018-09-11 19:17:02.600,0.128950178877,-0.145778523259,-0.900487680051,-0.141599908471,0.0328417345881,-0.0596466884017,-1.87307015,0.26477955,7.5315072,0.0,-13.0358991623,12.1441287994,-6.4344291687,-0.141599908471,0.0328417345881,-0.0596466884017,9.15999984741,-148.662185669,-151.61541748,1.0629386901999993,-2.4402103424000003,-7.34656882286,3.744802475,13.039601325999996,-6.538878440859998,16.0
2018-09-11 19:17:02.650,0.128950178877,-0.145778523259,-0.900487680051,-0.141599908471,0.0328417345881,-0.0596466884017,-1.87307015,0.26477955,7.5315072,0.0,-13.0358991623,12.1441287994,-6.4344291687,-0.141599908471,0.0328417345881,-0.0596466884017,9.15999984741,-148.662185669,-151.61541748,1.0629386901999993,-2.4402103424000003,-7.34656882286,3.744802475,13.039601325999996,-6.538878440859998,16.0
2018-09-11 19:17:02.700,0.141143635904,-0.123591943874,-0.899712534739,-0.0744358375669,-0.013246291317,-0.0296068787575,-2.0397832,0.9218251,9.1594111,0.0,-13.0358991623,12.1441287994,-6.4344291687,-0.141599908471,0.0328417345881,-0.0596466884017,9.77999973297,-149.948883057,-150.313598633,1.0629386901999993,-2.2402095795,-7.57656884194,3.6582708359,13.073561668399996,-6.599006652829998,16.0
2018-09-11 19:17:02.750,0.141143635904,-0.123591943874,-0.899712534739,-0.0744358375669,-0.013246291317,-0.0296068787575,-2.0397832,0.9218251,9.1594111,0.0,-13.0358991623,12.1441287994,-6.4344291687,-0.141599908471,0.0328417345881,-0.0596466884017,9.77999973297,-149.948883057,-150.313598633,1.0629386901999993,-2.2402095795,-7.57656884194,3.6582708359,13.073561668399996,-6.599006652829998,16.0
2018-09-11 19:17:02.800,0.141143635904,-0.123591943874,-0.899712534739,-0.0744358375669,-0.013246291317,-0.0296068787575,-2.0397832,0.9218251,9.1594111,0.0,-13.0977573395,12.4255485535,-6.64009284973,-0.0744358375669,-0.013246291317,-0.0296068787575,10.4200000763,-149.948883057,-149.020263672,-0.07167816159999774,-1.6673698424999976,-4.65786218643,3.5529670714999995,13.100502967799997,-6.643341064449999,16.0
2018-09-11 19:17:02.850,0.141143635904,-0.123591943874,-0.899712534739,-0.0744358375669,-0.013246291317,-0.0296068787575,-2.0397832,0.9218251,9.1594111,0.0,-13.0977573395,12.4255485535,-6.64009284973,-0.0744358375669,-0.013246291317,-0.0296068787575,10.4200000763,-149.948883057,-149.020263672,-0.07167816159999774,-1.6673698424999976,-4.65786218643,3.5096635818,13.111633300799996,-6.657983303069998,16.0
2018-09-11 19:17:02.900,0.141143635904,-0.123591943874,-0.899712534739,-0.0744358375669,-0.013246291317,-0.0296068787575,-2.0397832,0.9218251,9.1594111,0.0,-13.0977573395,12.4255485535,-6.64009284973,-0.0744358375669,-0.013246291317,-0.0296068787575,11.0599994659,-169.124221802,-147.718399048,-0.07167816159999774,-1.447370529199997,-4.96786212921,3.4240913391000003,13.138079643199996,-6.680413246149998,16.0
2018-09-11 19:17:02.950,0.141143635904,-0.123591943874,-0.899712534739,-0.0744358375669,-0.013246291317,-0.0296068787575,-2.0397832,0.9218251,9.1594111,0.0,-13.1596269608,12.6152963638,-6.68285417557,-0.0744358375669,-0.013246291317,-0.0296068787575,11.0599994659,-169.124221802,-147.718399048,-0.07167816159999774,-1.447370529199997,-4.96786212921,3.40558815,13.148322105399997,-6.681458950039998,16.0
2018-09-11 19:17:03.000,0.141143635904,-0.123591943874,-0.899712534739,-0.0744358375669,-0.013246291317,-0.0296068787575,-2.0397832,0.9218251,9.1594111,0.0,-13.1596269608,12.6152963638,-6.68285417557,-0.0744358375669,-0.013246291317,-0.0296068787575,11.6999998093,-169.124221802,-146.399703979,-0.07167816159999774,-1.2173690795999974,-5.15786206722,3.3408012389999993,13.203578948999997,-6.691583633419998,16.0
2018-09-11 19:17:03.050,0.141143635904,-0.123591943874,-0.899712534739,-0.0744358375669,-0.013246291317,-0.0296068787575,-2.0397832,0.9218251,9.1594111,0.0,-13.1596269608,12.6152963638,-6.68285417557,-0.0744358375669,-0.013246291317,-0.0296068787575,11.6999998093,-169.124221802,-146.399703979,-0.07167816159999774,-1.2173690795999974,-5.15786206722,3.3263387679999994,13.217205047599997,-6.693832397459998,16.0
2018-09-11 19:17:03.100,0.141143635904,-0.123591943874,-0.899712534739,-0.0744358375669,-0.013246291317,-0.0296068787575,-2.0397832,0.9218251,9.1594111,0.0,-13.1596269608,12.6152963638,-6.68285417557,-0.0744358375669,-0.013246291317,-0.0296068787575,12.3400001526,-187.369720459,-145.097885132,-0.07167816159999774,-0.9873695372999975,-5.16786205768,3.266125679,13.270312309299996,-6.6962180137599985,16.0
2018-09-11 19:17:03.150,0.151160598524,-0.10164457852,-0.899896400506,-0.0944847464561,-0.00776898581535,-0.00856737419963,-2.1182364,1.0787315,9.5516771,0.0,-13.1596269608,12.6152963638,-6.68285417557,-0.0744358375669,-0.013246291317,-0.0296068787575,12.3400001526,-187.369720459,-145.097885132,-0.8242607116999991,-0.9130325316999972,-2.21937763691,3.2480134964000005,13.283836364699997,-6.692932128909998,16.0
2018-09-11 19:17:03.200,0.151160598524,-0.10164457852,-0.899896400506,-0.0944847464561,-0.00776898581535,-0.00856737419963,-2.1182364,1.0787315,9.5516771,0.0,-13.1596269608,12.6152963638,-6.68285417557,-0.0744358375669,-0.013246291317,-0.0296068787575,12.9799995422,-187.369720459,-143.770736694,-0.8242607116999991,-0.6630325316999972,-2.2593775987600004,3.1791048049999997,13.338863372799997,-6.6921486854599985,16.0
2018-09-11 19:17:03.250,0.151160598524,-0.10164457852,-0.899896400506,-0.0944847464561,-0.00776898581535,-0.00856737419963,-2.1182364,1.0787315,9.5516771,0.0,-13.3388633728,12.820895195,-6.69214868546,-0.0944847464561,-0.00776898581535,-0.00856737419963,13.6300001144,-211.813537598,-142.443603516,-0.8242607116999991,-0.6630325316999972,-2.2593775987600004,3.1456775665,13.360539436299996,-6.686307907099998,16.0
2018-09-11 19:17:03.300,0.151160598524,-0.10164457852,-0.899896400506,-0.0944847464561,-0.00776898581535,-0.00856737419963,-2.1182364,1.0787315,9.5516771,0.0,-13.3388633728,12.820895195,-6.69214868546,-0.0944847464561,-0.00776898581535,-0.00856737419963,13.6300001144,-211.813537598,-142.443603516,-0.8242607116999991,-0.6630325316999972,-2.2593775987600004,3.1456775665,13.360539436299996,-6.686307907099998,16.0
2018-09-11 19:17:03.350,0.151160598524,-0.10164457852,-0.899896400506,-0.0944847464561,-0.00776898581535,-0.00856737419963,-2.1182364,1.0787315,9.5516771,0.0,-13.3388633728,12.820895195,-6.69214868546,-0.0944847464561,-0.00776898581535,-0.00856737419963,13.6300001144,-211.813537598,-142.443603516,-0.8242607116999991,-0.40303230289999803,-2.33937764168,3.0710439681999997,13.429928779599997,-6.677041053769998,16.0
2018-09-11 19:17:03.400,0.151160598524,-0.10164457852,-0.899896400506,-0.0944847464561,-0.00776898581535,-0.00856737419963,-2.1182364,1.0787315,9.5516771,0.0,-13.3388633728,12.820895195,-6.69214868546,-0.0944847464561,-0.00776898581535,-0.00856737419963,14.2699995041,-211.813537598,-141.107955933,-0.8242607116999991,-0.13303184509999966,-2.3593776226100003,3.0398244858000005,13.460639953599996,-6.669585227969998,16.0
2018-09-11 19:17:03.450,0.151160598524,-0.10164457852,-0.899896400506,-0.0944847464561,-0.00776898581535,-0.00856737419963,-2.1182364,1.0787315,9.5516771,0.0,-13.5148925781,12.9937162399,-6.66916322708,-0.0944847464561,-0.00776898581535,-0.00856737419963,14.2699995041,-211.813537598,-141.107955933,-0.8242607116999991,-0.13303184509999966,-2.3593776226100003,3.0129394530999996,13.494706153899996,-6.668022632599998,16.0
2018-09-11 19:17:03.500,0.156998656063,-0.0846892537403,-0.901620690687,-0.0987045690417,0.00222921837121,0.00886906310916,-2.1378497,-0.5491724,9.7478101,0.0,-13.5148925781,12.9937162399,-6.66916322708,-0.0944847464561,-0.00776898581535,-0.00856737419963,14.9200000763,-232.101821899,-139.747009277,-0.8925743102999988,0.017934799199998963,-0.19339013099000013,2.9859285354999994,13.542755126999996,-6.682213306429999,16.0
2018-09-11 19:17:03.550,0.156998656063,-0.0846892537403,-0.901620690687,-0.0987045690417,0.00222921837121,0.00886906310916,-2.1378497,-0.5491724,9.7478101,0.0,-13.5148925781,12.9937162399,-6.66916322708,-0.0944847464561,-0.00776898581535,-0.00856737419963,14.9200000763,-232.101821899,-139.747009277,-0.8925743102999988,0.017934799199998963,-0.19339013099000013,2.964838028000001,13.592038154599997,-6.710679054259998,16.0
2018-09-11 19:17:03.600,0.156998656063,-0.0846892537403,-0.901620690687,-0.0987045690417,0.00222921837121,0.00886906310916,-2.1378497,-0.5491724,9.7478101,0.0,-13.5148925781,12.9937162399,-6.66916322708,-0.0944847464561,-0.00776898581535,-0.00856737419963,15.5599994659,-232.101821899,-138.402862549,-0.8925743102999988,0.33793449410000065,-0.07339012623000007,2.9451246262,13.621139526399997,-6.722178935999998,16.0
2018-09-11 19:17:03.650,0.156998656063,-0.0846892537403,-0.901620690687,-0.0987045690417,0.00222921837121,0.00886906310916,-2.1378497,-0.5491724,9.7478101,0.0,-13.5148925781,12.9937162399,-6.66916322708,-0.0944847464561,-0.00776898581535,-0.00856737419963,15.5599994659,-232.101821899,-138.402862549,-0.8925743102999988,0.33793449410000065,-0.07339012623000007,2.9245977401999994,13.684554099999996,-6.727890968319998,16.0
2018-09-11 19:17:03.700,0.156998656063,-0.0846892537403,-0.901620690687,-0.0987045690417,0.00222921837121,0.00886906310916,-2.1378497,-0.5491724,9.7478101,0.0,-13.7522716522,13.095123291,-6.73447132111,-0.0987045690417,0.00222921837121,0.00886906310916,16.1900005341,-255.078704834,-137.058807373,-0.8925743102999988,0.6579341889000005,0.11660993098999994,2.904876709,13.752271652199996,-6.734471321109998,16.0
2018-09-11 19:17:03.750,0.160403220349,-0.0736367206278,-0.90348094944,-0.0243431013077,0.00609499029815,0.0171483904123,-2.18688295,-0.10787315,9.2574776,0.0,-13.7522716522,13.095123291,-6.73447132111,-0.0987045690417,0.00222921837121,0.00886906310916,16.1900005341,-255.078704834,-137.058807373,-0.8925743102999988,0.6579341889000005,0.11660993098999994,2.8998584747000002,13.772925376899996,-6.743043899539998,16.0
2018-09-11 19:17:03.800,0.160403220349,-0.0736367206278,-0.90348094944,-0.0243431013077,0.00609499029815,0.0171483904123,-2.18688295,-0.10787315,9.2574776,0.0,-13.7522716522,13.095123291,-6.73447132111,-0.0987045690417,0.00222921837121,0.00886906310916,16.1900005341,-255.078704834,-137.058807373,-0.8925743102999988,0.6579341889000005,0.11660993098999994,2.8998584747000002,13.772925376899996,-6.743043899539998,16.0
2018-09-11 19:17:03.850,0.160403220349,-0.0736367206278,-0.90348094944,-0.0243431013077,0.00609499029815,0.0171483904123,-2.18688295,-0.10787315,9.2574776,0.0,-13.7522716522,13.095123291,-6.73447132111,-0.0987045690417,0.00222921837121,0.00886906310916,16.8400001526,-255.078704834,-135.680953979,-0.6757583617999998,0.8664112090999971,1.686414420603,2.8745126724,13.872115135199996,-6.7751111984299985,16.0
2018-09-11 19:17:03.900,0.160403220349,-0.0736367206278,-0.90348094944,-0.0243431013077,0.00609499029815,0.0171483904123,-2.18688295,-0.10787315,9.2574776,0.0,-13.7522716522,13.095123291,-6.73447132111,-0.0987045690417,0.00222921837121,0.00886906310916,17.5,-271.872131348,-134.28616333,-0.6757583617999998,1.2664108276999997,1.936414420603,2.8451175689999992,13.945501327499997,-6.788024902339998,16.0
2018-09-11 19:17:03.950,0.160403220349,-0.0736367206278,-0.90348094944,-0.0243431013077,0.00609499029815,0.0171483904123,-2.18688295,-0.10787315,9.2574776,0.0,-13.9971780777,13.1825256348,-6.79671144485,-0.0243431013077,0.00609499029815,0.0171483904123,17.5,-271.872131348,-134.28616333,-0.6757583617999998,1.2664108276999997,1.936414420603,2.8339452743999995,13.962619781499997,-6.791402816769998,16.0
2018-09-11 19:17:04.000,0.160403220349,-0.0736367206278,-0.90348094944,-0.0243431013077,0.00609499029815,0.0171483904123,-2.18688295,-0.10787315,9.2574776,0.0,-13.9971780777,13.1825256348,-6.79671144485,-0.0243431013077,0.00609499029815,0.0171483904123,18.1599998474,-271.872131348,-132.882949829,-0.6757583617999998,1.6564102172999995,2.0864145159730003,2.7998600006000007,14.031399726899997,-6.804913043979998,16.0
2018-09-11 19:17:04.050,0.160403220349,-0.0736367206278,-0.90348094944,-0.0243431013077,0.00609499029815,0.0171483904123,-2.18688295,-0.10787315,9.2574776,0.0,-13.9971780777,13.1825256348,-6.79671144485,-0.0243431013077,0.00609499029815,0.0171483904123,18.1599998474,-271.872131348,-132.882949829,-0.6757583617999998,1.6564102172999995,2.0864145159730003,2.7998600006000007,14.031399726899997,-6.804913043979998,16.0
2018-09-11 19:17:04.100,0.160403220349,-0.0736367206278,-0.90348094944,-0.0243431013077,0.00609499029815,0.0171483904123,-2.18688295,-0.10787315,9.2574776,0.0,-13.9971780777,13.1825256348,-6.79671144485,-0.0243431013077,0.00609499029815,0.0171483904123,18.8099994659,-293.625823975,-131.488098145,-0.6757583617999998,2.0664100646999977,2.276414573193,2.7869691849000002,14.119753837599996,-6.804975032809998,16.0
2018-09-11 19:17:04.150,0.160403220349,-0.0736367206278,-0.90348094944,-0.0243431013077,0.00609499029815,0.0171483904123,-2.18688295,-0.10787315,9.2574776,0.0,-13.9971780777,13.1825256348,-6.79671144485,-0.0243431013077,0.00609499029815,0.0171483904123,19.4799995422,-293.625823975,-130.059524536,-0.6757583617999998,2.5064105987999987,2.5864145159730003,2.7600107193000003,14.197902679399997,-6.794931888579998,16.0
2018-09-11 19:17:04.200,0.160403220349,-0.0736367206278,-0.90348094944,-0.0243431013077,0.00609499029815,0.0171483904123,-2.18688295,-0.10787315,9.2574776,0.0,-14.232093811,13.2743282318,-6.77832508087,-0.0243431013077,0.00609499029815,0.0171483904123,19.4799995422,-293.625823975,-130.059524536,-0.6757583617999998,2.5064105987999987,2.5864145159730003,2.7396202087,14.214487075799996,-6.785874366759998,16.0
2018-09-11 19:17:04.250,0.160403220349,-0.0736367206278,-0.90348094944,-0.0243431013077,0.00609499029815,0.0171483904123,-2.18688295,-0.10787315,9.2574776,0.0,-14.232093811,13.2743282318,-6.77832508087,-0.0243431013077,0.00609499029815,0.0171483904123,19.4799995422,-293.625823975,-130.059524536,-0.6757583617999998,2.5064105987999987,2.5864145159730003,2.7160968781,14.250932693499996,-6.772440433499998,16.0
2018-09-11 19:17:04.300,0.160403220349,-0.0736367206278,-0.90348094944,-0.0243431013077,0.00609499029815,0.0171483904123,-2.18688295,-0.10787315,9.2574776,0.0,-14.232093811,13.2743282318,-6.77832508087,-0.0243431013077,0.00609499029815,0.0171483904123,19.4799995422,-293.625823975,-130.059524536,-0.6757583617999998,2.5064105987999987,2.5864145159730003,2.7160968781,14.250932693499996,-6.772440433499998,16.0
2018-09-11 19:17:04.350,0.152286578434,-0.0758009173281,-0.904733769629,0.0380442366004,-0.0521487630904,0.00772291235626,-2.16726965,0.42168595,10.3558224,0.0,-14.232093811,13.2743282318,-6.77832508087,-0.0243431013077,0.00609499029815,0.0171483904123,20.1399993896,-315.321533203,-128.639404297,-0.6757583617999998,4.506410598799999,2.696414411073,2.6650114058999996,14.388713836699996,-6.691210746769999,16.0
2018-09-11 19:17:04.400,0.152286578434,-0.0758009173281,-0.904733769629,0.0380442366004,-0.0521487630904,0.00772291235626,-2.16726965,0.42168595,10.3558224,0.0,-14.232093811,13.2743282318,-6.77832508087,-0.0243431013077,0.00609499029815,0.0171483904123,20.8099994659,-315.321533203,-127.193893433,-0.5050277710000017,6.0981798172,2.33257067203,2.6290245056000003,14.423926353499997,-6.655659675599998,16.0
2018-09-11 19:17:04.450,0.152286578434,-0.0758009173281,-0.904733769629,0.0380442366004,-0.0521487630904,0.00772291235626,-2.16726965,0.42168595,10.3558224,0.0,-14.232093811,13.2743282318,-6.77832508087,-0.0243431013077,0.00609499029815,0.0171483904123,20.8099994659,-315.321533203,-127.193893433,-0.5050277710000017,6.0981798172,2.33257067203,2.6047725676999995,14.463546752899996,-6.607818126679998,16.0
2018-09-11 19:17:04.500,0.152286578434,-0.0758009173281,-0.904733769629,0.0380442366004,-0.0521487630904,0.00772291235626,-2.16726965,0.42168595,10.3558224,0.0,-14.5410718918,13.4295053482,-6.52688503265,0.0380442366004,-0.0521487630904,0.00772291235626,21.4599990845,-332.447631836,-125.731513977,-0.5050277710000017,8.3981800079,2.46257078647,2.5505304337000005,14.558633804299996,-6.498908042909998,16.0
2018-09-11 19:17:04.550,0.152286578434,-0.0758009173281,-0.904733769629,0.0380442366004,-0.0521487630904,0.00772291235626,-2.16726965,0.42168595,10.3558224,0.0,-14.5410718918,13.4295053482,-6.52688503265,0.0380442366004,-0.0521487630904,0.00772291235626,21.4599990845,-332.447631836,-125.731513977,-0.5050277710000017,8.3981800079,2.47257077694,2.5154275893999998,14.597330093399997,-6.4304242134099985,16.0
2018-09-11 19:17:04.600,0.152286578434,-0.0758009173281,-0.904733769629,0.0380442366004,-0.0521487630904,0.00772291235626,-2.16726965,0.42168595,10.3558224,0.0,-14.5410718918,13.4295053482,-6.52688503265,0.0380442366004,-0.0521487630904,0.00772291235626,22.109998703,-332.447631836,-124.260665894,-0.5050277710000017,10.598179817150001,2.55257070064,2.4928598403999995,14.649794578599996,-6.360151767729998,16.0
2018-09-11 19:17:04.650,0.152286578434,-0.0758009173281,-0.904733769629,0.0380442366004,-0.0521487630904,0.00772291235626,-2.16726965,0.42168595,10.3558224,0.0,-14.5410718918,13.4295053482,-6.52688503265,0.0380442366004,-0.0521487630904,0.00772291235626,22.109998703,-332.447631836,-124.260665894,-0.5050277710000017,10.598179817150001,2.56257069111,2.4510231018000006,14.688274383499996,-6.285905361179998,16.0
2018-09-11 19:17:04.700,0.152286578434,-0.0758009173281,-0.904733769629,0.0380442366004,-0.0521487630904,0.00772291235626,-2.16726965,0.42168595,10.3558224,0.0,-14.7811155319,13.6256971359,-6.1051440239,0.0380442366004,-0.0521487630904,0.00772291235626,22.7299995422,-352.538116455,-122.781311035,-0.5050277710000017,12.70817995067,2.69257080555,2.3969488144,14.761293411299997,-6.152055740359998,16.0
2018-09-11 19:17:04.750,0.152286578434,-0.0758009173281,-0.904733769629,0.0380442366004,-0.0521487630904,0.00772291235626,-2.16726965,0.42168595,10.3558224,0.0,-14.7811155319,13.6256971359,-6.1051440239,0.0380442366004,-0.0521487630904,0.00772291235626,22.7299995422,-352.538116455,-122.781311035,-0.5050277710000017,12.70817995067,2.7025707960100003,2.3618669509999997,14.805836677599997,-6.051753520969998,16.0
2018-09-11 19:17:04.800,0.12597910202,-0.071927840006,-0.907650246452,0.0445270687342,-0.183830797672,0.00805614236742,-1.83384355,0.1765197,12.1994726,0.0,-14.7811155319,13.6256971359,-6.1051440239,0.0380442366004,-0.0521487630904,0.00772291235626,22.7299995422,-352.538116455,-122.781311035,-0.5050277710000017,12.70817995067,2.7025707960100003,2.3618669509999997,14.805836677599997,-6.051753520969998,16.0
2018-09-11 19:17:04.850,0.12597910202,-0.071927840006,-0.907650246452,0.0445270687342,-0.183830797672,0.00805614236742,-1.83384355,0.1765197,12.1994726,0.0,-14.7811155319,13.6256971359,-6.1051440239,0.0380442366004,-0.0521487630904,0.00772291235626,23.3299999237,-352.538116455,-121.293563843,-0.6424217224000017,11.72971773147,2.03647553921,2.245092392,14.917963981599996,-5.766097545619998,16.0
2018-09-11 19:17:04.900,0.12597910202,-0.071927840006,-0.907650246452,0.0445270687342,-0.183830797672,0.00805614236742,-1.83384355,0.1765197,12.1994726,0.0,-14.7811155319,13.6256971359,-6.1051440239,0.0380442366004,-0.0521487630904,0.00772291235626,23.9099998474,-383.373077393,-119.788848877,-0.6424217224000017,13.59971761703,2.04647552968,2.1806926726999993,14.991326332099996,-5.560836315159999,16.0
2018-09-11 19:17:04.950,0.12597910202,-0.071927840006,-0.907650246452,0.0445270687342,-0.183830797672,0.00805614236742,-1.83384355,0.1765197,12.1994726,0.0,-15.0630378723,13.9018268585,-5.31895065308,0.0445270687342,-0.183830797672,0.00805614236742,23.9099998474,-383.373077393,-119.788848877,-0.6424217224000017,13.59971761703,2.0564755201400002,2.1252536774,15.040624618499997,-5.406875133509998,16.0
2018-09-11 19:17:05.000,0.12597910202,-0.071927840006,-0.907650246452,0.0445270687342,-0.183830797672,0.00805614236742,-1.83384355,0.1765197,12.1994726,0.0,-15.0630378723,13.9018268585,-5.31895065308,0.0445270687342,-0.183830797672,0.00805614236742,24.4499988556,-383.373077393,-118.275733948,-0.6424217224000017,15.29971766471,2.03647553921,2.0214414597,15.134026527399996,-5.075845718379998,16.0
2018-09-11 19:17:05.050,0.12597910202,-0.071927840006,-0.907650246452,0.0445270687342,-0.183830797672,0.00805614236742,-1.83384355,0.1765197,12.1994726,0.0,-15.0630378723,13.9018268585,-5.31895065308,0.0445270687342,-0.183830797672,0.00805614236742,24.4499988556,-383.373077393,-118.275733948,-0.6424217224000017,15.29971766471,2.04647552968,1.9927434921000007,15.156991004899997,-4.9880199432399985,16.0
2018-09-11 19:17:05.100,0.12597910202,-0.071927840006,-0.907650246452,0.0445270687342,-0.183830797672,0.00805614236742,-1.83384355,0.1765197,12.1994726,0.0,-15.0630378723,13.9018268585,-5.31895065308,0.0445270687342,-0.183830797672,0.00805614236742,24.4499988556,-383.373077393,-118.275733948,-0.6424217224000017,15.29971766471,2.04647552968,1.9927434921000007,15.156991004899997,-4.9880199432399985,16.0
2018-09-11 19:17:05.150,0.0885137883284,-0.0633402858265,-0.912932285882,0.0235834699124,-0.187681689858,0.0389157161117,-1.4513842,0.40207265,14.1411893,0.0,-15.0630378723,13.9018268585,-5.31895065308,0.0445270687342,-0.183830797672,0.00805614236742,24.9599990845,-414.37109375,-116.737251282,-0.6424217224000017,16.879717618219,2.03647553921,1.8688087462999992,15.269186019899996,-4.518350601199998,16.0
2018-09-11 19:17:05.200,0.0885137883284,-0.0633402858265,-0.912932285882,0.0235834699124,-0.187681689858,0.0389157161117,-1.4513842,0.40207265,14.1411893,0.0,-15.3564949036,14.2218961716,-4.15642929077,0.0235834699124,-0.187681689858,0.0389157161117,25.4099998474,-414.37109375,-115.215698242,-0.3281555176000026,13.89683377741,1.1812181472799996,1.7781038284000008,15.356494903599996,-4.1564292907699985,16.0
2018-09-11 19:17:05.250,0.0885137883284,-0.0633402858265,-0.912932285882,0.0235834699124,-0.187681689858,0.0389157161117,-1.4513842,0.40207265,14.1411893,0.0,-15.3564949036,14.2218961716,-4.15642929077,0.0235834699124,-0.187681689858,0.0389157161117,25.4099998474,-414.37109375,-115.215698242,-0.3281555176000026,13.89683377741,1.1812181472799996,1.7781038284000008,15.356494903599996,-4.1564292907699985,16.0
2018-09-11 19:17:05.300,0.0885137883284,-0.0633402858265,-0.912932285882,0.0235834699124,-0.187681689858,0.0389157161117,-1.4513842,0.40207265,14.1411893,0.0,-15.3564949036,14.2218961716,-4.15642929077,0.0235834699124,-0.187681689858,0.0389157161117,25.8299999237,-444.885253906,-113.677238464,-0.3281555176000026,15.196833848939999,1.1412181854299996,1.6622276306000003,15.470285415599996,-3.6315262317699983,16.0
2018-09-11 19:17:05.350,0.0885137883284,-0.0633402858265,-0.912932285882,0.0235834699124,-0.187681689858,0.0389157161117,-1.4513842,0.40207265,14.1411893,0.0,-15.3564949036,14.2218961716,-4.15642929077,0.0235834699124,-0.187681689858,0.0389157161117,26.1999988556,-444.885253906,-112.138694763,-0.3281555176000026,16.27683353422,1.1412181854299996,1.6622276306000003,15.470285415599996,-3.6315262317699983,16.0
2018-09-11 19:17:05.400,0.0885137883284,-0.0633402858265,-0.912932285882,0.0235834699124,-0.187681689858,0.0389157161117,-1.4513842,0.40207265,14.1411893,0.0,-15.3564949036,14.2218961716,-4.15642929077,0.0235834699124,-0.187681689858,0.0389157161117,26.1999988556,-444.885253906,-112.138694763,-0.3281555176000026,16.27683353422,1.15121817589,1.5942211150999999,15.526553153999997,-3.2752230167399983,16.0
2018-09-11 19:17:05.450,0.0885137883284,-0.0633402858265,-0.912932285882,0.0235834699124,-0.187681689858,0.0389157161117,-1.4513842,0.40207265,14.1411893,0.0,-15.5944385529,14.4637374878,-2.94415616989,0.0235834699124,-0.187681689858,0.0389157161117,26.1999988556,-444.885253906,-112.138694763,-0.3281555176000026,16.27683353422,1.15121817589,1.5588035582999993,15.578137397799997,-3.0504255294799982,16.0
2018-09-11 19:17:05.500,0.0885137883284,-0.0633402858265,-0.912932285882,0.0235834699124,-0.187681689858,0.0389157161117,-1.4513842,0.40207265,14.1411893,0.0,-15.5944385529,14.4637374878,-2.94415616989,0.0235834699124,-0.187681689858,0.0389157161117,26.5199985504,-472.986602783,-110.583328247,-0.3281555176000026,17.22683382033,1.1612181663599999,1.4865884780999998,15.639604568499996,-2.6029641628299984,16.0
2018-09-11 19:17:05.550,0.0885137883284,-0.0633402858265,-0.912932285882,0.0235834699124,-0.187681689858,0.0389157161117,-1.4513842,0.40207265,14.1411893,0.0,-15.5944385529,14.4637374878,-2.94415616989,0.0235834699124,-0.187681689858,0.0389157161117,26.5199985504,-472.986602783,-110.583328247,-0.3281555176000026,17.22683382033,1.1712181568199997,1.4865884780999998,15.639604568499996,-2.6029641628299984,16.0
2018-09-11 19:17:05.600,0.0435006278881,-0.0417588129712,-0.919116174499,-0.00258866325021,-0.289625525475,0.0222165174782,-0.44129925,0.85317855,15.6514134,0.0,-15.5944385529,14.4637374878,-2.94415616989,0.0235834699124,-0.187681689858,0.0389157161117,26.7699985504,-472.986602783,-109.019477844,0.22380447390000313,12.26837778091,1.49618315697,1.4344024657999999,15.734516143799997,-1.892424583439998,16.0
2018-09-11 19:17:05.650,0.0435006278881,-0.0417588129712,-0.919116174499,-0.00258866325021,-0.289625525475,0.0222165174782,-0.44129925,0.85317855,15.6514134,0.0,-15.5944385529,14.4637374878,-2.94415616989,0.0235834699124,-0.187681689858,0.0389157161117,26.7699985504,-472.986602783,-109.019477844,0.22380447390000313,12.26837778091,1.49618315697,1.4249076843000008,15.743296623199996,-1.763921260829998,16.0
2018-09-11 19:17:05.700,0.0435006278881,-0.0417588129712,-0.919116174499,-0.00258866325021,-0.289625525475,0.0222165174782,-0.44129925,0.85317855,15.6514134,0.0,-15.7582321167,14.5903148651,-1.50494492054,-0.00258866325021,-0.289625525475,0.0222165174782,26.9899997711,-502.237884521,-107.44720459,0.22380447390000313,12.9083776474,1.5761828422600002,1.4034566879000003,15.776782989499996,-1.225210905079998,16.0
2018-09-11 19:17:05.750,0.0435006278881,-0.0417588129712,-0.919116174499,-0.00258866325021,-0.289625525475,0.0222165174782,-0.44129925,0.85317855,15.6514134,0.0,-15.7582321167,14.5903148651,-1.50494492054,-0.00258866325021,-0.289625525475,0.0222165174782,26.9899997711,-502.237884521,-107.44720459,0.22380447390000313,12.9083776474,1.5761828422600002,1.4034566879000003,15.776782989499996,-1.225210905079998,16.0
2018-09-11 19:17:05.800,0.0435006278881,-0.0417588129712,-0.919116174499,-0.00258866325021,-0.289625525475,0.0222165174782,-0.44129925,0.85317855,15.6514134,0.0,-15.7582321167,14.5903148651,-1.50494492054,-0.00258866325021,-0.289625525475,0.0222165174782,27.1299991608,-502.237884521,-105.88331604,0.22380447390000313,13.31837749481,1.6761832237300003,1.4005098342999993,15.796493530299996,-0.827620446681998,16.0
2018-09-11 19:17:05.850,0.0435006278881,-0.0417588129712,-0.919116174499,-0.00258866325021,-0.289625525475,0.0222165174782,-0.44129925,0.85317855,15.6514134,0.0,-15.7582321167,14.5903148651,-1.50494492054,-0.00258866325021,-0.289625525475,0.0222165174782,27.1299991608,-502.237884521,-105.88331604,0.22380447390000313,13.31837749481,1.6761832237300003,1.4083948134999993,15.809074401899997,-0.41045570373499807,16.0
2018-09-11 19:17:05.900,0.0435006278881,-0.0417588129712,-0.919116174499,-0.00258866325021,-0.289625525475,0.0222165174782,-0.44129925,0.85317855,15.6514134,0.0,-15.8156042099,14.5594024658,0.107437521219,-0.00258866325021,-0.289625525475,0.0222165174782,27.2199993134,-521.369750977,-104.302589417,0.22380447390000313,13.598377704619999,1.8061828613300004,1.4263143539000005,15.814333915699997,-0.02543531730769804,16.0
2018-09-11 19:17:05.950,0.0435006278881,-0.0417588129712,-0.919116174499,-0.00258866325021,-0.289625525475,0.0222165174782,-0.44129925,0.85317855,15.6514134,0.0,-15.8156042099,14.5594024658,0.107437521219,-0.00258866325021,-0.289625525475,0.0222165174782,27.2199993134,-521.369750977,-104.302589417,0.22380447390000313,13.598377704619999,1.8061828613300004,1.4453363418999992,15.813864707899997,0.22078777849700196,16.0
2018-09-11 19:17:06.000,0.0435006278881,-0.0417588129712,-0.919116174499,-0.00258866325021,-0.289625525475,0.0222165174782,-0.44129925,0.85317855,15.6514134,0.0,-15.8156042099,14.5594024658,0.107437521219,-0.00258866325021,-0.289625525475,0.0222165174782,27.2299995422,-521.369750977,-102.7472229,0.22380447390000313,13.698377609249999,1.9561829566999998,1.4762220382999995,15.809892654399997,0.5681782960890019,16.0
2018-09-11 19:17:06.050,0.0435006278881,-0.0417588129712,-0.919116174499,-0.00258866325021,-0.289625525475,0.0222165174782,-0.44129925,0.85317855,15.6514134,0.0,-15.8156042099,14.5594024658,0.107437521219,-0.00258866325021,-0.289625525475,0.0222165174782,27.2299995422,-521.369750977,-102.7472229,0.22380447390000313,13.698377609249999,1.9561829566999998,1.4833822249999997,15.795731544499997,0.808198094368002,16.0
2018-09-11 19:17:06.100,-0.0196329009365,-0.0145826532315,-0.921012549575,0.00958935078233,-0.21975697577,0.00521111022681,0.1176798,0.7060788,15.38663385,0.0,-15.8156042099,14.5594024658,0.107437521219,-0.00258866325021,-0.289625525475,0.0222165174782,27.1899986267,-520.27166748,-101.16645813,0.20026397710000055,5.837436437599999,2.07485485077,1.5396633148000003,15.771783828699997,1.221995353700002,16.0
2018-09-11 19:17:06.150,-0.0196329009365,-0.0145826532315,-0.921012549575,0.00958935078233,-0.21975697577,0.00521111022681,0.1176798,0.7060788,15.38663385,0.0,-15.7546806335,14.4176359177,1.41469848156,0.00958935078233,-0.21975697577,0.00521111022681,27.1899986267,-520.27166748,-101.16645813,0.20026397710000055,5.837436437599999,2.07485485077,1.5557374954000007,15.763675689699996,1.316687107090002,16.0
2018-09-11 19:17:06.200,-0.0196329009365,-0.0145826532315,-0.921012549575,0.00958935078233,-0.21975697577,0.00521111022681,0.1176798,0.7060788,15.38663385,0.0,-15.7546806335,14.4176359177,1.41469848156,0.00958935078233,-0.21975697577,0.00521111022681,27.0999984741,-520.27166748,-99.5857315063,0.20026397710000055,5.7374365329699994,2.25485515594,1.6347227097,15.724682807899997,1.659300565720002,16.0
2018-09-11 19:17:06.250,-0.0196329009365,-0.0145826532315,-0.921012549575,0.00958935078233,-0.21975697577,0.00521111022681,0.1176798,0.7060788,15.38663385,0.0,-15.7546806335,14.4176359177,1.41469848156,0.00958935078233,-0.21975697577,0.00521111022681,27.0999984741,-520.27166748,-99.5857315063,0.20026397710000055,5.7374365329699994,2.25485515594,1.6461191176999996,15.708735465999997,1.753140211110002,16.0
2018-09-11 19:17:06.300,-0.0196329009365,-0.0145826532315,-0.921012549575,0.00958935078233,-0.21975697577,0.00521111022681,0.1176798,0.7060788,15.38663385,0.0,-15.7546806335,14.4176359177,1.41469848156,0.00958935078233,-0.21975697577,0.00521111022681,26.9699993134,-512.442749023,-98.0133972168,0.20026397710000055,5.597436666489999,2.32485485077,1.7012119292999994,15.668432235699996,2.010097026820002,16.0
2018-09-11 19:17:06.350,-0.0196329009365,-0.0145826532315,-0.921012549575,0.00958935078233,-0.21975697577,0.00521111022681,0.1176798,0.7060788,15.38663385,0.0,-15.7546806335,14.4176359177,1.41469848156,0.00958935078233,-0.21975697577,0.00521111022681,26.9699993134,-512.442749023,-98.0133972168,0.20026397710000055,5.597436666489999,2.32485485077,1.7717056273999994,15.622857093799997,2.272297859190002,16.0
2018-09-11 19:17:06.400,-0.0196329009365,-0.0145826532315,-0.921012549575,0.00958935078233,-0.21975697577,0.00521111022681,0.1176798,0.7060788,15.38663385,0.0,-15.7546806335,14.4176359177,1.41469848156,0.00958935078233,-0.21975697577,0.00521111022681,26.9699993134,-512.442749023,-98.0133972168,0.20026397710000055,5.597436666489999,2.32485485077,1.7717056273999994,15.622857093799997,2.272297859190002,16.0
2018-09-11 19:17:06.450,-0.0196329009365,-0.0145826532315,-0.921012549575,0.00958935078233,-0.21975697577,0.00521111022681,0.1176798,0.7060788,15.38663385,0.0,-15.5535945892,14.1400346756,2.59559941292,0.00958935078233,-0.21975697577,0.00521111022681,26.7899990082,-512.442749023,-96.4749298096,0.20026397710000055,5.30743670463,2.4548549652100005,1.8599653243999992,15.553594589199996,2.5955994129200017,16.0
2018-09-11 19:17:06.500,-0.0526557787672,-0.00654588244938,-0.919736733463,0.0526984110475,-0.0906938463449,-0.00183452479541,0.0980665,0.6276256,13.2585908,0.0,-15.5535945892,14.1400346756,2.59559941292,0.00958935078233,-0.21975697577,0.00521111022681,26.7899990082,-512.442749023,-96.4749298096,0.20026397710000055,5.30743670463,2.4548549652100005,1.8599653243999992,15.553594589199996,2.5955994129200017,16.0
2018-09-11 19:17:06.550,-0.0526557787672,-0.00654588244938,-0.919736733463,0.0526984110475,-0.0906938463449,-0.00183452479541,0.0980665,0.6276256,13.2585908,0.0,-15.5535945892,14.1400346756,2.59559941292,0.00958935078233,-0.21975697577,0.00521111022681,26.5799999237,-502.265167236,-94.9111175537,0.015178680399998257,1.08472537994,1.8690078258499998,1.9609785080000002,15.46833942461979,2.8712322711900016,16.0
2018-09-11 19:17:06.600,-0.0526557787672,-0.00654588244938,-0.919736733463,0.0526984110475,-0.0906938463449,-0.00183452479541,0.0980665,0.6276256,13.2585908,0.0,-15.5535945892,14.1400346756,2.59559941292,0.00958935078233,-0.21975697577,0.00521111022681,26.3299999237,-502.265167236,-93.3913497925,0.015178680399998257,0.7047252655000005,1.9690077304899996,2.0617961884000007,15.39375827831979,3.075497865680002,16.0
2018-09-11 19:17:06.650,-0.0526557787672,-0.00654588244938,-0.919736733463,0.0526984110475,-0.0906938463449,-0.00183452479541,0.0980665,0.6276256,13.2585908,0.0,-15.3469009399,13.898932457,3.1613368988,0.0526984110475,-0.0906938463449,-0.00183452479541,26.3299999237,-502.265167236,-93.3913497925,0.015178680399998257,0.7047252655000005,1.9690077304899996,2.0825290679999995,15.37440155071979,3.1147186756100016,16.0
2018-09-11 19:17:06.700,-0.0526557787672,-0.00654588244938,-0.919736733463,0.0526984110475,-0.0906938463449,-0.00183452479541,0.0980665,0.6276256,13.2585908,0.0,-15.3469009399,13.898932457,3.1613368988,0.0526984110475,-0.0906938463449,-0.00183452479541,26.0699996948,-471.288482666,-91.8443450928,0.015178680399998257,0.2647252082800007,2.00900769234,2.1407260894999993,15.305259209119791,3.229406833650002,16.0
2018-09-11 19:17:06.750,-0.0526557787672,-0.00654588244938,-0.919736733463,0.0526984110475,-0.0906938463449,-0.00183452479541,0.0980665,0.6276256,13.2585908,0.0,-15.3469009399,13.898932457,3.1613368988,0.0526984110475,-0.0906938463449,-0.00183452479541,26.0699996948,-471.288482666,-91.8443450928,0.015178680399998257,0.2647252082800007,2.00900769234,2.1794862747000003,15.26699016611979,3.278974771500002,16.0
2018-09-11 19:17:06.800,-0.0526557787672,-0.00654588244938,-0.919736733463,0.0526984110475,-0.0906938463449,-0.00183452479541,0.0980665,0.6276256,13.2585908,0.0,-15.3469009399,13.898932457,3.1613368988,0.0526984110475,-0.0906938463449,-0.00183452479541,25.7799987793,-471.288482666,-90.3519134521,0.015178680399998257,-0.17527484894,2.0390074253099995,2.266625404400001,15.19104676595839,3.3677861690500017,16.0
