%time,field.orientation.x,field.orientation.y,field.orientation.z,field.angular_velocity.x,field.angular_velocity.y,field.angular_velocity.z,field.linear_acceleration.x,field.linear_acceleration.y,field.linear_acceleration.z,field.data,field.twist.linear.x,field.twist.linear.y,field.twist.linear.z,field.twist.angular.x,field.twist.angular.y,field.twist.angular.z,field.alt_error,field.aspd_error,field.xtrack_error,delta_yaw,delta_pitch,delta_roll,delta_x,delta_y,delta_z,delta_roll_airspeed
2018-09-11 19:21:31.450,0.00399611050235,-0.0855588963402,-0.982213897961,0.657208859921,0.0246329195797,-0.00568712782115,-0.0392266,0.392266,9.7674234,0.0,,,,,,,,,,,,,,,,
2018-09-11 19:21:31.500,0.00399611050235,-0.0855588963402,-0.982213897961,0.657208859921,0.0246329195797,-0.00568712782115,-0.0392266,0.392266,9.7674234,0.0,,,,,,,,,,,,,,,,
2018-09-11 19:21:31.550,0.00399611050235,-0.0855588963402,-0.982213897961,0.657208859921,0.0246329195797,-0.00568712782115,-0.0392266,0.392266,9.7674234,0.0,-16.6833877563,5.36881113052,-0.623671174049,0.657208859921,0.0246329195797,-0.00568712782115,0.229999989271,-168.137939453,-34.9937019348,176.8663330078,0.5484580993699999,21.70529651638,-5.2346497178060005,0.6773405075000021,-0.636312305927,15.0
2018-09-11 19:21:31.600,0.00399611050235,-0.0855588963402,-0.982213897961,0.657208859921,0.0246329195797,-0.00568712782115,-0.0392266,0.392266,9.7674234,0.0,-16.6833877563,5.36881113052,-0.623671174049,0.657208859921,0.0246329195797,-0.00568712782115,0.299999982119,-168.137939453,-33.2803192139,175.8663330078,0.7684581279799998,23.625296592679998,-5.278667032716,0.6554574967000022,-0.673664748669,15.0
2018-09-11 19:21:31.650,0.00399611050235,-0.0855588963402,-0.982213897961,0.657208859921,0.0246329195797,-0.00568712782115,-0.0392266,0.392266,9.7674234,0.0,-16.6833877563,5.36881113052,-0.623671174049,0.657208859921,0.0246329195797,-0.00568712782115,0.299999982119,-168.137939453,-33.2803192139,175.8663330078,0.7884581088999998,23.625296592679998,-5.364289343356,0.6281137467000022,-0.717459380627,15.0
2018-09-11 19:21:31.700,0.00399611050235,-0.0855588963402,-0.982213897961,0.657208859921,0.0246329195797,-0.00568712782115,-0.0392266,0.392266,9.7674234,0.0,-16.6833877563,5.36881113052,-0.623671174049,0.657208859921,0.0246329195797,-0.00568712782115,0.299999982119,-168.137939453,-33.2803192139,175.8663330078,0.7884581088999998,23.625296592679998,-5.364289343356,0.6281137467000022,-0.717459380627,15.0
2018-09-11 19:21:31.750,0.00399611050235,-0.0855588963402,-0.982213897961,0.657208859921,0.0246329195797,-0.00568712782115,-0.0392266,0.392266,9.7674234,0.0,-16.6833877563,5.36881113052,-0.623671174049,0.657208859921,0.0246329195797,-0.00568712782115,0.370000004768,-169.25201416,-31.541469574,176.8663330078,1.04845809937,25.50529766088,-5.512900412086,0.5777921677000002,-0.77325117588,15.0
2018-09-11 19:21:31.800,-0.0137156147482,-0.182548170693,-0.967558720121,0.485656738281,-0.0294192507863,-0.0667654648423,0.0588399,0.588399,9.89490985,0.0,-16.5518226624,5.7546710968,-0.795785665512,0.657208859921,0.0246329195797,-0.00568712782115,0.449999988079,-169.25201416,-29.807598114,176.8663330078,1.3284580707569997,27.31529521938,-5.644948065276,0.5354700088999991,-0.80506926775,15.0
2018-09-11 19:21:31.850,-0.0137156147482,-0.182548170693,-0.967558720121,0.485656738281,-0.0294192507863,-0.0667654648423,0.0588399,0.588399,9.89490985,0.0,-16.5518226624,5.7546710968,-0.795785665512,0.657208859921,0.0246329195797,-0.00568712782115,0.449999988079,-169.25201416,-29.807598114,175.9898223877,1.37212872505,15.925750732400001,-5.789401113986,0.4891290665000021,-0.840158045292,15.0
2018-09-11 19:21:31.900,-0.0137156147482,-0.182548170693,-0.967558720121,0.485656738281,-0.0294192507863,-0.0667654648423,0.0588399,0.588399,9.89490985,0.0,-16.5518226624,5.7546710968,-0.795785665512,0.657208859921,0.0246329195797,-0.00568712782115,0.539999961853,-170.668609619,-28.0673980713,175.9898223877,1.672128736971,17.715751647999998,-5.946651518346,0.44052982330000034,-0.881554186344,15.0
2018-09-11 19:21:31.950,-0.0137156147482,-0.182548170693,-0.967558720121,0.485656738281,-0.0294192507863,-0.0667654648423,0.0588399,0.588399,9.89490985,0.0,-16.5518226624,5.7546710968,-0.795785665512,0.657208859921,0.0246329195797,-0.00568712782115,0.539999961853,-170.668609619,-28.0673980713,175.9898223877,1.6921287477,17.715751647999998,-6.057058870796,0.4014959335999997,-0.911214292049,15.0
2018-09-11 19:21:32.000,-0.0137156147482,-0.182548170693,-0.967558720121,0.485656738281,-0.0294192507863,-0.0667654648423,0.0588399,0.588399,9.89490985,0.0,-16.5518226624,5.7546710968,-0.795785665512,0.657208859921,0.0246329195797,-0.00568712782115,0.639999985695,-170.668609619,-26.3062458038,175.9898223877,2.012128725646,19.445751190200003,-6.057058870796,0.4014959335999997,-0.911214292049,15.0
2018-09-11 19:21:32.050,-0.0137156147482,-0.182548170693,-0.967558720121,0.485656738281,-0.0294192507863,-0.0667654648423,0.0588399,0.588399,9.89490985,0.0,-16.3304920197,6.46087646484,-0.96523141861,0.485656738281,-0.0294192507863,-0.0667654648423,0.639999985695,-170.668609619,-26.3062458038,175.9898223877,2.0221287310105,19.445751190200003,-6.2976594567260005,0.3313245774000002,-0.96523141861,15.0
2018-09-11 19:21:32.100,-0.0137156147482,-0.182548170693,-0.967558720121,0.485656738281,-0.0294192507863,-0.0667654648423,0.0588399,0.588399,9.89490985,0.0,-16.3304920197,6.46087646484,-0.96523141861,0.485656738281,-0.0294192507863,-0.0667654648423,0.729999959469,-170.783813477,-24.5867824554,176.9898223877,2.322128713129,21.105751037599997,-6.4955335259460005,0.2661085129000007,-0.996668338776,15.0
2018-09-11 19:21:32.150,-0.033292534644,-0.254055619568,-0.946613307822,0.396387726068,-0.0845165252686,-0.170937269926,0.1765197,0.8629852,10.5715687,0.0,-16.3304920197,6.46087646484,-0.96523141861,0.485656738281,-0.0294192507863,-0.0667654648423,0.729999959469,-170.783813477,-24.5867824554,176.9898223877,2.342128723858,21.105751037599997,-6.648523867126,0.22182750700000042,-1.00951361656,15.0
2018-09-11 19:21:32.200,-0.033292534644,-0.254055619568,-0.946613307822,0.396387726068,-0.0845165252686,-0.170937269926,0.1765197,0.8629852,10.5715687,0.0,-16.3304920197,6.46087646484,-0.96523141861,0.485656738281,-0.0294192507863,-0.0667654648423,0.839999973774,-170.783813477,-22.8373699188,174.1983413696,2.624355077743,14.093898773199996,-6.862071096896,0.1585359574000016,-1.02875065804,15.0
2018-09-11 19:21:32.250,-0.033292534644,-0.254055619568,-0.946613307822,0.396387726068,-0.0845165252686,-0.170937269926,0.1765197,0.8629852,10.5715687,0.0,-16.099811554,7.19713497162,-1.04448521137,0.396387726068,-0.0845165252686,-0.170937269926,0.839999973774,-170.783813477,-22.8373699188,174.1983413696,2.6443551182740004,14.093898773199996,-7.033917963506,0.10064411169999943,-1.04448521137,15.0
2018-09-11 19:21:32.300,-0.033292534644,-0.254055619568,-0.946613307822,0.396387726068,-0.0845165252686,-0.170937269926,0.1765197,0.8629852,10.5715687,0.0,-16.099811554,7.19713497162,-1.04448521137,0.396387726068,-0.0845165252686,-0.170937269926,0.939999997616,-163.3565979,-21.1286888123,174.1983413696,2.974355101585,15.123901367199998,-7.364710867406,-0.008818626400000085,-1.07652366161,15.0
2018-09-11 19:21:32.350,-0.033292534644,-0.254055619568,-0.946613307822,0.396387726068,-0.0845165252686,-0.170937269926,0.1765197,0.8629852,10.5715687,0.0,-16.099811554,7.19713497162,-1.04448521137,0.396387726068,-0.0845165252686,-0.170937269926,0.939999997616,-163.3565979,-21.1286888123,174.1983413696,2.974355101585,15.123901367199998,-7.364710867406,-0.008818626400000085,-1.07652366161,15.0
2018-09-11 19:21:32.400,-0.033292534644,-0.254055619568,-0.946613307822,0.396387726068,-0.0845165252686,-0.170937269926,0.1765197,0.8629852,10.5715687,0.0,-16.099811554,7.19713497162,-1.04448521137,0.396387726068,-0.0845165252686,-0.170937269926,1.04999995232,-163.3565979,-19.3855342865,175.1983413696,3.3143551349600004,15.123901367199998,-7.8131518959960005,-0.1643781661999988,-1.11807441711,15.0
2018-09-11 19:21:32.450,-0.033292534644,-0.254055619568,-0.946613307822,0.396387726068,-0.0845165252686,-0.170937269926,0.1765197,0.8629852,10.5715687,0.0,-16.099811554,7.19713497162,-1.04448521137,0.396387726068,-0.0845165252686,-0.170937269926,1.16999995708,-163.3565979,-17.6391048431,175.1983413696,3.67435503006,15.123901367199998,-8.089094698426,-0.27332401269999984,-1.14736521244,15.0
2018-09-11 19:21:32.500,-0.033292534644,-0.254055619568,-0.946613307822,0.396387726068,-0.0845165252686,-0.170937269926,0.1765197,0.8629852,10.5715687,0.0,-15.6895313263,8.34402275085,-1.1588973999,0.396387726068,-0.0845165252686,-0.170937269926,1.16999995708,-163.3565979,-17.6391048431,175.1983413696,3.6943551302,15.113899230999998,-8.280617296696,-0.3495359420999993,-1.1763150692,15.0
2018-09-11 19:21:32.550,-0.033292534644,-0.254055619568,-0.946613307822,0.396387726068,-0.0845165252686,-0.170937269926,0.1765197,0.8629852,10.5715687,0.0,-15.6895313263,8.34402275085,-1.1588973999,0.396387726068,-0.0845165252686,-0.170937269926,1.16999995708,-163.3565979,-17.6391048431,175.1983413696,3.7043551206600003,15.113899230999998,-8.490884363656,-0.4369039534999999,-1.19813203812,15.0
2018-09-11 19:21:32.600,-0.0644841497982,-0.317492802128,-0.912229765286,0.271951973438,-0.208981215954,-0.276983767748,0.5295591,0.8237586,10.9638347,0.0,-15.6895313263,8.34402275085,-1.1588973999,0.396387726068,-0.0845165252686,-0.170937269926,1.28999996185,-172.514343262,-15.9035930634,176.1983413696,4.07435512543,15.113899230999998,-8.695280611516,-0.5303754806000001,-1.20210242271,15.0
2018-09-11 19:21:32.650,-0.0644841497982,-0.317492802128,-0.912229765286,0.271951973438,-0.208981215954,-0.276983767748,0.5295591,0.8237586,10.9638347,0.0,-15.6895313263,8.34402275085,-1.1588973999,0.396387726068,-0.0845165252686,-0.170937269926,1.41999995708,-181.922149658,-14.1669502258,169.0749816895,4.73279881477,7.006961822500003,-9.154230654236,-0.7376537323000001,-1.21140372753,15.0
2018-09-11 19:21:32.700,-0.0644841497982,-0.317492802128,-0.912229765286,0.271951973438,-0.208981215954,-0.276983767748,0.5295591,0.8237586,10.9638347,0.0,-15.2020349503,9.43674755096,-1.21268332005,0.271951973438,-0.208981215954,-0.276983767748,1.41999995708,-181.922149658,-14.1669502258,169.0749816895,4.73279881477,7.006961822500003,-9.154230654236,-0.7376537323000001,-1.21140372753,15.0
2018-09-11 19:21:32.750,-0.0644841497982,-0.317492802128,-0.912229765286,0.271951973438,-0.208981215954,-0.276983767748,0.5295591,0.8237586,10.9638347,0.0,-15.2020349503,9.43674755096,-1.21268332005,0.271951973438,-0.208981215954,-0.276983767748,1.41999995708,-181.922149658,-14.1669502258,169.0749816895,4.762798786159999,7.006961822500003,-9.619488298896,-0.9705848693999997,-1.21861863136,15.0
2018-09-11 19:21:32.800,-0.0644841497982,-0.317492802128,-0.912229765286,0.271951973438,-0.208981215954,-0.276983767748,0.5295591,0.8237586,10.9638347,0.0,-15.2020349503,9.43674755096,-1.21268332005,0.271951973438,-0.208981215954,-0.276983767748,1.53999996185,-181.922149658,-12.4511356354,170.0749816895,5.13279891014,7.006961822500003,-9.991192400486,-1.1590986251999986,-1.21356534958,15.0
2018-09-11 19:21:32.850,-0.0644841497982,-0.317492802128,-0.912229765286,0.271951973438,-0.208981215954,-0.276983767748,0.5295591,0.8237586,10.9638347,0.0,-15.2020349503,9.43674755096,-1.21268332005,0.271951973438,-0.208981215954,-0.276983767748,1.53999996185,-181.922149658,-12.4511356354,170.0749816895,5.1427989006,7.006961822500003,-10.128741800786,-1.2310581206999984,-1.20561921597,15.0
2018-09-11 19:21:32.900,-0.0644841497982,-0.317492802128,-0.912229765286,0.271951973438,-0.208981215954,-0.276983767748,0.5295591,0.8237586,10.9638347,0.0,-15.2020349503,9.43674755096,-1.21268332005,0.271951973438,-0.208981215954,-0.276983767748,1.66999995708,-192.737762451,-10.6993331909,171.0749816895,5.48279881477,7.016960144000002,-10.537169039286,-1.4549398422,-1.18181276321,15.0
2018-09-11 19:21:32.950,-0.0644841497982,-0.317492802128,-0.912229765286,0.271951973438,-0.208981215954,-0.276983767748,0.5295591,0.8237586,10.9638347,0.0,-14.3834915161,10.9811306,-1.16134262085,0.271951973438,-0.208981215954,-0.276983767748,1.66999995708,-192.737762451,-10.6993331909,171.0749816895,5.5027987957,7.016960144000002,-10.960213243986,-1.6997900008999984,-1.15228295326,15.0
2018-09-11 19:21:33.000,-0.109476362822,-0.347675839809,-0.876459454053,0.110461041331,-0.313971847296,-0.244527474046,0.99047165,0.7649187,13.18994425,0.0,-14.3834915161,10.9811306,-1.16134262085,0.271951973438,-0.208981215954,-0.276983767748,1.66999995708,-192.737762451,-10.6993331909,171.0749816895,5.5027987957,7.016960144000002,-10.960213243986,-1.6997900008999984,-1.15228295326,15.0
2018-09-11 19:21:33.050,-0.109476362822,-0.347675839809,-0.876459454053,0.110461041331,-0.313971847296,-0.244527474046,0.99047165,0.7649187,13.18994425,0.0,-14.3834915161,10.9811306,-1.16134262085,0.271951973438,-0.208981215954,-0.276983767748,1.78999996185,-192.737762451,-8.96878051758,163.1142807007,4.9576978683499995,2.038139343300003,-11.516742289086,-2.037260055499999,-1.11421573162,15.0
2018-09-11 19:21:33.100,-0.109476362822,-0.347675839809,-0.876459454053,0.110461041331,-0.313971847296,-0.244527474046,0.99047165,0.7649187,13.18994425,0.0,-14.3834915161,10.9811306,-1.16134262085,0.271951973438,-0.208981215954,-0.276983767748,1.90999996662,-202.250488281,-7.24111557007,163.1142807007,5.25769805908,2.038139343300003,-12.072040140586001,-2.4081602095999983,-1.05706620216,15.0
2018-09-11 19:21:33.150,-0.109476362822,-0.347675839809,-0.876459454053,0.110461041331,-0.313971847296,-0.244527474046,0.99047165,0.7649187,13.18994425,0.0,-13.3934230804,12.5150594711,-1.01522898674,0.110461041331,-0.313971847296,-0.244527474046,2.01999998093,-202.250488281,-5.54127883911,164.1142807007,5.4976978302,2.038139343300003,-12.499678194486,-2.7133293151999993,-0.980064809322,15.0
2018-09-11 19:21:33.200,-0.109476362822,-0.347675839809,-0.876459454053,0.110461041331,-0.313971847296,-0.244527474046,0.99047165,0.7649187,13.18994425,0.0,-13.3934230804,12.5150594711,-1.01522898674,0.110461041331,-0.313971847296,-0.244527474046,2.01999998093,-202.250488281,-5.54127883911,164.1142807007,5.4976978302,2.038139343300003,-12.499678194486,-2.7133293151999993,-0.980064809322,15.0
2018-09-11 19:21:33.250,-0.109476362822,-0.347675839809,-0.876459454053,0.110461041331,-0.313971847296,-0.244527474046,0.99047165,0.7649187,13.18994425,0.0,-13.3934230804,12.5150594711,-1.01522898674,0.110461041331,-0.313971847296,-0.244527474046,2.11999988556,-230.63583374,-3.83569335938,165.1142807007,5.657697916030001,2.038139343300003,-12.951163828386,-3.0475053786999986,-0.872586429119,15.0
2018-09-11 19:21:33.300,-0.143023025301,-0.343037109128,-0.85690028483,-0.00495540723205,-0.329967439175,-0.221688956022,1.30428445,1.4317709,14.513842,0.0,-13.3934230804,12.5150594711,-1.01522898674,0.110461041331,-0.313971847296,-0.244527474046,2.11999988556,-230.63583374,-3.83569335938,158.7411575317,4.11729470384399,1.1341247559000038,-13.510446131186,-3.497945785499999,-0.751109540462,15.0
2018-09-11 19:21:33.350,-0.143023025301,-0.343037109128,-0.85690028483,-0.00495540723205,-0.329967439175,-0.221688956022,1.30428445,1.4317709,14.513842,0.0,-13.3934230804,12.5150594711,-1.01522898674,0.110461041331,-0.313971847296,-0.244527474046,2.20000004768,-230.63583374,-2.13041687012,159.7411575317,4.25729457032399,1.1341247559000038,-13.510446131186,-3.497945785499999,-0.751109540462,15.0
2018-09-11 19:21:33.400,-0.143023025301,-0.343037109128,-0.85690028483,-0.00495540723205,-0.329967439175,-0.221688956022,1.30428445,1.4317709,14.513842,0.0,-12.0706939697,14.1638278961,-0.666465580463,-0.00495540723205,-0.329967439175,-0.221688956022,2.20000004768,-230.63583374,-2.13041687012,159.7411575317,4.26729479921399,1.1341247559000038,-14.123839914786,-4.0414781569999985,-0.644536852837,15.0
2018-09-11 19:21:33.450,-0.143023025301,-0.343037109128,-0.85690028483,-0.00495540723205,-0.329967439175,-0.221688956022,1.30428445,1.4317709,14.513842,0.0,-12.0706939697,14.1638278961,-0.666465580463,-0.00495540723205,-0.329967439175,-0.221688956022,2.20000004768,-230.63583374,-2.13041687012,159.7411575317,4.26729479921399,1.1341247559000038,-14.123839914786,-4.0414781569999985,-0.644536852837,15.0
2018-09-11 19:21:33.500,-0.143023025301,-0.343037109128,-0.85690028483,-0.00495540723205,-0.329967439175,-0.221688956022,1.30428445,1.4317709,14.513842,0.0,-12.0706939697,14.1638278961,-0.666465580463,-0.00495540723205,-0.329967439175,-0.221688956022,2.25999999046,-248.771286011,-0.446029663086,160.7411575317,4.42729464662399,1.1341247559000038,-14.725567400486,-4.621885299699999,-0.548668324947,15.0
2018-09-11 19:21:33.550,-0.143023025301,-0.343037109128,-0.85690028483,-0.00495540723205,-0.329967439175,-0.221688956022,1.30428445,1.4317709,14.513842,0.0,-12.0706939697,14.1638278961,-0.666465580463,-0.00495540723205,-0.329967439175,-0.221688956022,2.25999999046,-248.771286011,-0.446029663086,160.7411575317,4.43729487550399,1.1341247559000038,-14.950072824986,-4.8682498932,-0.502484858036,15.0
2018-09-11 19:21:33.600,-0.143023025301,-0.343037109128,-0.85690028483,-0.00495540723205,-0.329967439175,-0.221688956022,1.30428445,1.4317709,14.513842,0.0,-12.0706939697,14.1638278961,-0.666465580463,-0.00495540723205,-0.329967439175,-0.221688956022,2.30999994278,-248.771286011,1.19696807861,161.7411575317,4.5372947801339905,1.1341247559000038,-15.316479265686,-5.2575836181,-0.437129169703,15.0
2018-09-11 19:21:33.650,-0.143023025301,-0.343037109128,-0.85690028483,-0.00495540723205,-0.329967439175,-0.221688956022,1.30428445,1.4317709,14.513842,0.0,-10.4982881546,15.6908826828,-0.400136232376,-0.00495540723205,-0.329967439175,-0.221688956022,2.3599998951,-255.2734375,2.84897613525,162.7411575317,4.64729491365399,1.1241226196000014,-15.316479265686,-5.2575836181,-0.437129169703,15.0
2018-09-11 19:21:33.700,-0.143023025301,-0.343037109128,-0.85690028483,-0.00495540723205,-0.329967439175,-0.221688956022,1.30428445,1.4317709,14.513842,0.0,-10.4982881546,15.6908826828,-0.400136232376,-0.00495540723205,-0.329967439175,-0.221688956022,2.3599998951,-255.2734375,2.84897613525,162.7411575317,4.64729491365399,1.1241226196000014,-15.843378603486002,-5.910918235799999,-0.320806860924,15.0
2018-09-11 19:21:33.750,-0.143023025301,-0.343037109128,-0.85690028483,-0.00495540723205,-0.329967439175,-0.221688956022,1.30428445,1.4317709,14.513842,0.0,-10.4982881546,15.6908826828,-0.400136232376,-0.00495540723205,-0.329967439175,-0.221688956022,2.3599998951,-255.2734375,2.84897613525,162.7411575317,4.64729491365399,1.1241226196000014,-16.065445482686002,-6.1910781860099995,-0.288211137056,15.0
2018-09-11 19:21:33.800,-0.187713997385,-0.327591858741,-0.814421670861,0.0021247304976,-0.31280374527,-0.313965082169,1.2748645,1.2748645,13.6116302,0.0,-10.4982881546,15.6908826828,-0.400136232376,-0.00495540723205,-0.329967439175,-0.221688956022,2.38999986649,-255.2734375,4.47402191162,151.7706069946,3.7327172756229996,0.40303802489999896,-16.264368593686,-6.4572458266999995,-0.259789794683,15.0
2018-09-11 19:21:33.850,-0.187713997385,-0.327591858741,-0.814421670861,0.0021247304976,-0.31280374527,-0.313965082169,1.2748645,1.2748645,13.6116302,0.0,-9.11442184448,16.718542099,-0.189161658287,0.0021247304976,-0.31280374527,-0.313965082169,2.38999986649,-255.2734375,4.47402191162,151.7706069946,3.7327172756229996,0.40303802489999896,-16.460007250286,-6.736576080299999,-0.21010361611799996,15.0
2018-09-11 19:21:33.900,-0.187713997385,-0.327591858741,-0.814421670861,0.0021247304976,-0.31280374527,-0.313965082169,1.2748645,1.2748645,13.6116302,0.0,-9.11442184448,16.718542099,-0.189161658287,0.0021247304976,-0.31280374527,-0.313965082169,2.41999983788,-261.052124023,6.08387756348,153.7706069946,3.7827169895129997,0.40303802489999896,-16.848036348786,-7.3302440643099995,-0.11805647611599998,15.0
2018-09-11 19:21:33.950,-0.187713997385,-0.327591858741,-0.814421670861,0.0021247304976,-0.31280374527,-0.313965082169,1.2748645,1.2748645,13.6116302,0.0,-9.11442184448,16.718542099,-0.189161658287,0.0021247304976,-0.31280374527,-0.313965082169,2.41999983788,-261.052124023,7.65859222412,154.7706069946,3.772717237473,0.40303802489999896,-17.020876467186,-7.631563186619999,-0.05766890570519998,15.0
2018-09-11 19:21:34.000,-0.187713997385,-0.327591858741,-0.814421670861,0.0021247304976,-0.31280374527,-0.313965082169,1.2748645,1.2748645,13.6116302,0.0,-9.11442184448,16.718542099,-0.189161658287,0.0021247304976,-0.31280374527,-0.313965082169,2.41999983788,-261.052124023,7.65859222412,154.7706069946,3.772717237473,0.40303802489999896,-17.207800447986,-7.934901237469999,-0.021618861705099978,15.0
2018-09-11 19:21:34.050,-0.187713997385,-0.327591858741,-0.814421670861,0.0021247304976,-0.31280374527,-0.313965082169,1.2748645,1.2748645,13.6116302,0.0,-9.11442184448,16.718542099,-0.189161658287,0.0021247304976,-0.31280374527,-0.313965082169,2.41999983788,-261.052124023,7.65859222412,154.7706069946,3.772717237473,0.3930397033999995,-17.446346819386,-8.372248172739999,0.03443480283020002,15.0
2018-09-11 19:21:34.100,-0.214632990942,-0.313178206154,-0.782397561015,0.00669305957854,-0.322570294142,-0.300188809633,1.42196425,1.2944778,13.66066345,0.0,-7.14605236053,17.8540210724,0.0958683565259,0.00669305957854,-0.322570294142,-0.300188809633,2.41999983788,-276.902770996,9.22520065308,147.872625351,3.22312879562,0.14436340329999808,-17.690804064286,-8.85311508177,0.09586835652590002,15.0
2018-09-11 19:21:34.150,-0.214632990942,-0.313178206154,-0.782397561015,0.00669305957854,-0.322570294142,-0.300188809633,1.42196425,1.2944778,13.66066345,0.0,-7.14605236053,17.8540210724,0.0958683565259,0.00669305957854,-0.322570294142,-0.300188809633,2.39999985695,-276.902770996,10.7539749146,148.872625351,3.1731286048900005,0.14436340329999808,-17.891117632386,-9.3067216873,0.15576277673200004,15.0
2018-09-11 19:21:34.200,-0.214632990942,-0.313178206154,-0.782397561015,0.00669305957854,-0.322570294142,-0.300188809633,1.42196425,1.2944778,13.66066345,0.0,-7.14605236053,17.8540210724,0.0958683565259,0.00669305957854,-0.322570294142,-0.300188809633,2.39999985695,-276.902770996,10.7539749146,148.872625351,3.1831288337699997,0.1343612670999974,-18.040861666186,-9.630218982669998,0.18629388511200004,15.0
2018-09-11 19:21:34.250,-0.214632990942,-0.313178206154,-0.782397561015,0.00669305957854,-0.322570294142,-0.300188809633,1.42196425,1.2944778,13.66066345,0.0,-7.14605236053,17.8540210724,0.0958683565259,0.00669305957854,-0.322570294142,-0.300188809633,2.37999987602,-289.119903564,12.2603645325,149.872625351,3.13312864303,0.1343612670999974,-18.219170153186,-10.10957574842,0.24320110678700002,15.0
2018-09-11 19:21:34.300,-0.214632990942,-0.313178206154,-0.782397561015,0.00669305957854,-0.322570294142,-0.300188809633,1.42196425,1.2944778,13.66066345,0.0,-7.14605236053,17.8540210724,0.0958683565259,0.00669305957854,-0.322570294142,-0.300188809633,2.37999987602,-289.119903564,12.2603645325,149.872625351,3.14312887191,0.1343612670999974,-18.340105593186,-10.452652931189998,0.284173041582,15.0
2018-09-11 19:21:34.350,-0.214632990942,-0.313178206154,-0.782397561015,0.00669305957854,-0.322570294142,-0.300188809633,1.42196425,1.2944778,13.66066345,0.0,-5.37272596359,18.5677986145,0.306837022305,0.00669305957854,-0.322570294142,-0.300188809633,2.33999991417,-289.119903564,13.7333908081,150.872625351,3.04312849044,0.12436294549999616,-18.506205141586,-10.947435379009999,0.333933383226,15.0
2018-09-11 19:21:34.400,-0.214632990942,-0.313178206154,-0.782397561015,0.00669305957854,-0.322570294142,-0.300188809633,1.42196425,1.2944778,13.66066345,0.0,-5.37272596359,18.5677986145,0.306837022305,0.00669305957854,-0.322570294142,-0.300188809633,2.33999991417,-289.119903564,13.7333908081,150.872625351,3.04312849044,0.12436294549999616,-18.612591326286,-11.29849624632,0.381386607885,15.0
2018-09-11 19:21:34.450,-0.214632990942,-0.313178206154,-0.782397561015,0.00669305957854,-0.322570294142,-0.300188809633,1.42196425,1.2944778,13.66066345,0.0,-5.37272596359,18.5677986145,0.306837022305,0.00669305957854,-0.322570294142,-0.300188809633,2.29999995232,-293.691833496,15.1888504028,151.872625351,2.9531288146900003,0.11436080929999548,-18.752140581586,-11.813617229439998,0.423657923937,15.0
2018-09-11 19:21:34.500,-0.256846085095,-0.289350430584,-0.727284502012,-0.0131035037339,-0.35586348176,-0.279363900423,1.4317709,0.95124505,13.83718315,0.0,-5.37272596359,18.5677986145,0.306837022305,0.00669305957854,-0.322570294142,-0.300188809633,2.29999995232,-293.691833496,15.1888504028,151.872625351,2.9531288146900003,0.11436080929999548,-18.787079393886,-11.99494361875,0.454832553864,15.0
2018-09-11 19:21:34.550,-0.256846085095,-0.289350430584,-0.727284502012,-0.0131035037339,-0.35586348176,-0.279363900423,1.4317709,0.95124505,13.83718315,0.0,-3.45425987244,19.0774593353,0.514269351959,-0.0131035037339,-0.35586348176,-0.279363900423,2.29999995232,-293.691833496,15.1888504028,140.0362138748,1.8697941303200003,-0.7553482054999989,-18.914242327186,-12.54490756986,0.514269351959,15.0
2018-09-11 19:21:34.600,-0.256846085095,-0.289350430584,-0.727284502012,-0.0131035037339,-0.35586348176,-0.279363900423,1.4317709,0.95124505,13.83718315,0.0,-3.45425987244,19.0774593353,0.514269351959,-0.0131035037339,-0.35586348176,-0.279363900423,2.24000000954,-293.691833496,16.5952148438,142.0362138748,1.71979403496,-0.7653465271000002,-19.009701311586,-13.07545471189,0.583603382111,15.0
2018-09-11 19:21:34.650,-0.256846085095,-0.289350430584,-0.727284502012,-0.0131035037339,-0.35586348176,-0.279363900423,1.4317709,0.95124505,13.83718315,0.0,-3.45425987244,19.0774593353,0.514269351959,-0.0131035037339,-0.35586348176,-0.279363900423,2.24000000954,-293.691833496,16.5952148438,142.0362138748,1.71979403496,-0.7753486632999937,-19.075016558186,-13.465740919089999,0.638740181923,15.0
2018-09-11 19:21:34.700,-0.256846085095,-0.289350430584,-0.727284502012,-0.0131035037339,-0.35586348176,-0.279363900423,1.4317709,0.95124505,13.83718315,0.0,-3.45425987244,19.0774593353,0.514269351959,-0.0131035037339,-0.35586348176,-0.279363900423,2.18000006676,-293.358215332,17.9822654724,143.0362138748,1.54979395866,-0.7853469848000003,-19.116692125786,-13.82289838789,0.678675591946,15.0
2018-09-11 19:21:34.750,-0.256846085095,-0.289350430584,-0.727284502012,-0.0131035037339,-0.35586348176,-0.279363900423,1.4317709,0.95124505,13.83718315,0.0,-3.45425987244,19.0774593353,0.514269351959,-0.0131035037339,-0.35586348176,-0.279363900423,2.18000006676,-293.358215332,17.9822654724,143.0362138748,1.54979395866,-0.7953491210999957,-19.147968828686,-14.209503769849999,0.751397430897,15.0
2018-09-11 19:21:34.800,-0.256846085095,-0.289350430584,-0.727284502012,-0.0131035037339,-0.35586348176,-0.279363900423,1.4317709,0.95124505,13.83718315,0.0,-3.45425987244,19.0774593353,0.514269351959,-0.0131035037339,-0.35586348176,-0.279363900423,2.09999990463,-293.358215332,19.318397522,144.0362138748,1.30979394913,-0.8153495787999958,-19.215742647686,-14.979223251319999,0.867613077164,15.0
2018-09-11 19:21:34.850,-0.256846085095,-0.289350430584,-0.727284502012,-0.0131035037339,-0.35586348176,-0.279363900423,1.4317709,0.95124505,13.83718315,0.0,-1.01994419098,19.3789596558,0.867613077164,-0.0131035037339,-0.35586348176,-0.279363900423,2.09999990463,-293.358215332,19.318397522,144.0362138748,1.30979394913,-0.8153495787999958,-19.230005800686,-15.40053552387,0.946776747704,15.0
2018-09-11 19:21:34.900,-0.29679800082,-0.259381335909,-0.67237842641,-0.0112007595599,-0.34584659338,-0.281082034111,1.2944778,1.372931,15.11204765,0.0,-1.01994419098,19.3789596558,0.867613077164,-0.0131035037339,-0.35586348176,-0.279363900423,2.0,-291.722686768,20.6273078918,145.0362138748,1.00979399681,-0.8353500365999977,-19.228586733386,-15.972037384264699,1.03953874111,15.0
2018-09-11 19:21:34.950,-0.29679800082,-0.259381335909,-0.67237842641,-0.0112007595599,-0.34584659338,-0.281082034111,1.2944778,1.372931,15.11204765,0.0,-1.01994419098,19.3789596558,0.867613077164,-0.0131035037339,-0.35586348176,-0.279363900423,2.0,-291.722686768,20.6273078918,134.22648191452,-0.6195642948200004,-1.6576232910000002,-19.217152178286,-16.179440975167,1.08283746243,15.0
2018-09-11 19:21:35.000,-0.29679800082,-0.259381335909,-0.67237842641,-0.0112007595599,-0.34584659338,-0.281082034111,1.2944778,1.372931,15.11204765,0.0,-1.01994419098,19.3789596558,0.867613077164,-0.0131035037339,-0.35586348176,-0.279363900423,1.87000000477,-291.722686768,21.8598747253,135.22648191452,-0.97956418991,-1.6576232910000002,-19.208157122086,-16.752258717992,1.15340566635,15.0
2018-09-11 19:21:35.050,-0.29679800082,-0.259381335909,-0.67237842641,-0.0112007595599,-0.34584659338,-0.281082034111,1.2944778,1.372931,15.11204765,0.0,-1.01994419098,19.3789596558,0.867613077164,-0.0131035037339,-0.35586348176,-0.279363900423,1.87000000477,-291.722686768,21.8598747253,135.22648191452,-0.97956418991,-1.6676216124999996,-19.164022982086,-17.29730403421,1.22074151039,15.0
2018-09-11 19:21:35.100,-0.29679800082,-0.259381335909,-0.67237842641,-0.0112007595599,-0.34584659338,-0.281082034111,1.2944778,1.372931,15.11204765,0.0,1.50321125984,19.3106212616,1.24217116833,-0.0112007595599,-0.34584659338,-0.281082034111,1.74000000954,-289.149841309,23.0700340271,137.22648191452,-1.3295643329600004,-1.6676216124999996,-19.128168642486,-17.69893300531,1.26841902733,15.0
2018-09-11 19:21:35.150,-0.29679800082,-0.259381335909,-0.67237842641,-0.0112007595599,-0.34584659338,-0.281082034111,1.2944778,1.372931,15.11204765,0.0,1.50321125984,19.3106212616,1.24217116833,-0.0112007595599,-0.34584659338,-0.281082034111,1.74000000954,-289.149841309,23.0700340271,137.22648191452,-1.3295643329600004,-1.677623748800002,-19.055456697986,-18.23863935468,1.33546447754,15.0
2018-09-11 19:21:35.200,-0.29679800082,-0.259381335909,-0.67237842641,-0.0112007595599,-0.34584659338,-0.281082034111,1.2944778,1.372931,15.11204765,0.0,1.50321125984,19.3106212616,1.24217116833,-0.0112007595599,-0.34584659338,-0.281082034111,1.59999990463,-289.149841309,24.2291297913,138.22648191452,-1.7195641994500002,-1.677623748800002,-18.997986376286,-18.61011648176,1.38386690617,15.0
2018-09-11 19:21:35.250,-0.29679800082,-0.259381335909,-0.67237842641,-0.0112007595599,-0.34584659338,-0.281082034111,1.2944778,1.372931,15.11204765,0.0,1.50321125984,19.3106212616,1.24217116833,-0.0112007595599,-0.34584659338,-0.281082034111,1.44999992847,-290.24105835,25.3445549011,139.22648191452,-1.7195641994500002,-1.677623748800002,-18.911682665386,-19.15306377409,1.4275534153,15.0
2018-09-11 19:21:35.300,-0.319274403035,-0.231321318525,-0.61902917741,-0.00876264460385,-0.312108367682,-0.315362393856,1.18660465,1.2552512,13.68027675,0.0,3.66979050636,18.9495601654,1.4699485302,-0.00876264460385,-0.312108367682,-0.315362393856,1.44999992847,-290.24105835,25.3445549011,129.70347976685,-2.4982492923699997,-1.6603507996000033,-18.828411638786,-19.49711513517,1.45216464996,15.0
2018-09-11 19:21:35.350,-0.319274403035,-0.231321318525,-0.61902917741,-0.00876264460385,-0.312108367682,-0.315362393856,1.18660465,1.2552512,13.68027675,0.0,3.66979050636,18.9495601654,1.4699485302,-0.00876264460385,-0.312108367682,-0.315362393856,1.27999997139,-290.24105835,26.4121742249,130.70347976685,-2.9082491397799997,-1.6603507996000033,-18.656632006186,-20.22614383695,1.51373672485,15.0
2018-09-11 19:21:35.400,-0.319274403035,-0.231321318525,-0.61902917741,-0.00876264460385,-0.312108367682,-0.315362393856,1.18660465,1.2552512,13.68027675,0.0,3.66979050636,18.9495601654,1.4699485302,-0.00876264460385,-0.312108367682,-0.315362393856,1.27999997139,-290.24105835,26.4121742249,130.70347976685,-2.9082491397799997,-1.6603507996000033,-18.656632006186,-20.22614383695,1.51373672485,15.0
2018-09-11 19:21:35.450,-0.319274403035,-0.231321318525,-0.61902917741,-0.00876264460385,-0.312108367682,-0.315362393856,1.18660465,1.2552512,13.68027675,0.0,3.66979050636,18.9495601654,1.4699485302,-0.00876264460385,-0.312108367682,-0.315362393856,1.27999997139,-290.24105835,26.4121742249,130.70347976685,-2.9082491397799997,-1.6603507996000033,-18.409386217586,-21.05532073972,1.55092918873,15.0
2018-09-11 19:21:35.500,-0.319274403035,-0.231321318525,-0.61902917741,-0.00876264460385,-0.312108367682,-0.315362393856,1.18660465,1.2552512,13.68027675,0.0,3.66979050636,18.9495601654,1.4699485302,-0.00876264460385,-0.312108367682,-0.315362393856,1.12000000477,-295.823303223,27.461933136,131.70347976685,-3.30824923515,-1.6503486633000009,-18.242413103586,-21.541571617099997,1.54917478561,15.0
2018-09-11 19:21:35.550,-0.319274403035,-0.231321318525,-0.61902917741,-0.00876264460385,-0.312108367682,-0.315362393856,1.18660465,1.2552512,13.68027675,0.0,5.70846652985,18.3476867676,1.54996323586,-0.00876264460385,-0.312108367682,-0.315362393856,0.939999997616,-295.823303223,28.4421348572,133.70347976685,-3.698249161241,-1.6503486633000009,-18.128435671286,-21.86907863615,1.5486137867,15.0
2018-09-11 19:21:35.600,-0.319274403035,-0.231321318525,-0.61902917741,-0.00876264460385,-0.312108367682,-0.315362393856,1.18660465,1.2552512,13.68027675,0.0,5.70846652985,18.3476867676,1.54996323586,-0.00876264460385,-0.312108367682,-0.315362393856,0.939999997616,-295.823303223,28.4421348572,133.70347976685,-3.698249161241,-1.6403503418000014,-18.128435671286,-21.86907863615,1.5486137867,15.0
2018-09-11 19:21:35.650,-0.338386139826,-0.205749167327,-0.557221269901,-0.00139491818845,-0.287743002176,-0.326847553253,0.8629852,1.2552512,12.64077185,0.0,5.70846652985,18.3476867676,1.54996323586,-0.00876264460385,-0.312108367682,-0.315362393856,0.939999997616,-295.823303223,28.4421348572,133.70347976685,-3.698249161241,-1.6403503418000014,-17.959154665486,-22.32805871961,1.53594195843,15.0
2018-09-11 19:21:35.700,-0.338386139826,-0.205749167327,-0.557221269901,-0.00139491818845,-0.287743002176,-0.326847553253,0.8629852,1.2552512,12.64077185,0.0,5.70846652985,18.3476867676,1.54996323586,-0.00876264460385,-0.312108367682,-0.315362393856,0.769999980927,-297.045715332,29.4148445129,124.8295688629,-3.823729455469,-1.8798561095999986,-17.673672258886,-22.9418325424,1.53328514099,15.0
2018-09-11 19:21:35.750,-0.338386139826,-0.205749167327,-0.557221269901,-0.00139491818845,-0.287743002176,-0.326847553253,0.8629852,1.2552512,12.64077185,0.0,5.70846652985,18.3476867676,1.54996323586,-0.00876264460385,-0.312108367682,-0.315362393856,0.769999980927,-297.045715332,29.4148445129,124.8295688629,-3.823729455469,-1.8798561095999986,-17.673672258886,-22.9418325424,1.53328514099,15.0
2018-09-11 19:21:35.800,-0.338386139826,-0.205749167327,-0.557221269901,-0.00139491818845,-0.287743002176,-0.326847553253,0.8629852,1.2552512,12.64077185,0.0,7.53921365738,17.5549812317,1.49848878384,-0.00139491818845,-0.287743002176,-0.326847553253,0.589999973774,-297.045715332,30.3288841248,125.8295688629,-4.193729445337,-1.8698577880999991,-17.317711412886002,-23.69005298612,1.48870038986,15.0
2018-09-11 19:21:35.850,-0.338386139826,-0.205749167327,-0.557221269901,-0.00139491818845,-0.287743002176,-0.326847553253,0.8629852,1.2552512,12.64077185,0.0,7.53921365738,17.5549812317,1.49848878384,-0.00139491818845,-0.287743002176,-0.326847553253,0.42999997735,-301.244354248,31.2237129211,126.8295688629,-4.543729439376,-1.8698577880999991,-17.317711412886002,-23.69005298612,1.48870038986,15.0
2018-09-11 19:21:35.900,-0.338386139826,-0.205749167327,-0.557221269901,-0.00139491818845,-0.287743002176,-0.326847553253,0.8629852,1.2552512,12.64077185,0.0,7.53921365738,17.5549812317,1.49848878384,-0.00139491818845,-0.287743002176,-0.326847553253,0.42999997735,-301.244354248,31.2237129211,126.8295688629,-4.543729439376,-1.8698577880999991,-16.903618395286,-24.44026374815,1.45690310001,15.0
2018-09-11 19:21:35.950,-0.338386139826,-0.205749167327,-0.557221269901,-0.00139491818845,-0.287743002176,-0.326847553253,0.8629852,1.2552512,12.64077185,0.0,7.53921365738,17.5549812317,1.49848878384,-0.00139491818845,-0.287743002176,-0.326847553253,0.42999997735,-301.244354248,31.2237129211,126.8295688629,-4.5537294298390005,-1.8698577880999991,-16.734617769686,-24.73161125181,1.4457449913,15.0
2018-09-11 19:21:36.000,-0.338386139826,-0.205749167327,-0.557221269901,-0.00139491818845,-0.287743002176,-0.326847553253,0.8629852,1.2552512,12.64077185,0.0,7.53921365738,17.5549812317,1.49848878384,-0.00139491818845,-0.287743002176,-0.326847553253,0.259999990463,-301.244354248,32.0677223206,128.8295688629,-4.913729429243,-1.8598556518999985,-16.482977449886,-25.16154479978,1.42633748055,15.0
2018-09-11 19:21:36.050,-0.338386139826,-0.205749167327,-0.557221269901,-0.00139491818845,-0.287743002176,-0.326847553253,0.8629852,1.2552512,12.64077185,0.0,9.30173587799,16.5610904694,1.41895222664,-0.00139491818845,-0.287743002176,-0.326847553253,0.259999990463,-301.244354248,32.0677223206,128.8295688629,-4.913729429243,-1.8598556518999985,-16.301909029486,-25.44076728819,1.41359305382,15.0
2018-09-11 19:21:36.100,-0.357992604039,-0.173553121204,-0.47682276777,-0.0205078739673,-0.296560883522,-0.325274020433,0.7453054,0.97085835,12.6898051,0.0,9.30173587799,16.5610904694,1.41895222664,-0.00139491818845,-0.287743002176,-0.326847553253,0.259999990463,-301.244354248,32.0677223206,128.8295688629,-4.913729429243,-1.8598556518999985,-16.301909029486,-25.44076728819,1.41359305382,15.0
2018-09-11 19:21:36.150,-0.357992604039,-0.173553121204,-0.47682276777,-0.0205078739673,-0.296560883522,-0.325274020433,0.7453054,0.97085835,12.6898051,0.0,9.30173587799,16.5610904694,1.41895222664,-0.00139491818845,-0.287743002176,-0.326847553253,0.109999999404,-297.91317749,32.8950233459,117.90830421449999,-4.83562856913,-2.1073341369000005,-15.813354074986,-26.1315622329,1.38127720356,15.0
2018-09-11 19:21:36.200,-0.357992604039,-0.173553121204,-0.47682276777,-0.0205078739673,-0.296560883522,-0.325274020433,0.7453054,0.97085835,12.6898051,0.0,9.30173587799,16.5610904694,1.41895222664,-0.00139491818845,-0.287743002176,-0.326847553253,-0.0499999970198,-297.91317749,33.660068512,118.90830421449999,-5.18562853337,-2.1073341369000005,-15.514223635186001,-26.534737587,1.34878909588,15.0
2018-09-11 19:21:36.250,-0.357992604039,-0.173553121204,-0.47682276777,-0.0205078739673,-0.296560883522,-0.325274020433,0.7453054,0.97085835,12.6898051,0.0,10.8064126968,15.4633903503,1.32740175724,-0.0205078739673,-0.296560883522,-0.325274020433,-0.0499999970198,-297.91317749,33.660068512,118.90830421449999,-5.18562853337,-2.0973320007,-15.410864412786001,-26.672961235,1.33651125431,15.0
2018-09-11 19:21:36.300,-0.357992604039,-0.173553121204,-0.47682276777,-0.0205078739673,-0.296560883522,-0.325274020433,0.7453054,0.97085835,12.6898051,0.0,10.8064126968,15.4633903503,1.32740175724,-0.0205078739673,-0.296560883522,-0.325274020433,-0.199999988079,-296.237548828,34.4160041809,119.90830421449999,-5.4856286048900005,-2.0873336792000003,-14.970595896286,-27.193034171999997,1.29304134846,15.0
2018-09-11 19:21:36.350,-0.357992604039,-0.173553121204,-0.47682276777,-0.0205078739673,-0.296560883522,-0.325274020433,0.7453054,0.97085835,12.6898051,0.0,10.8064126968,15.4633903503,1.32740175724,-0.0205078739673,-0.296560883522,-0.325274020433,-0.199999988079,-296.237548828,34.4160041809,119.90830421449999,-5.4856286048900005,-2.0873336792000003,-14.866106569786,-27.311699867199998,1.27703583241,15.0
2018-09-11 19:21:36.400,-0.369079862046,-0.157280918197,-0.422761488306,0.0261807180941,-0.247830659151,-0.317147761583,0.4511059,1.0983448,11.99353295,0.0,10.8064126968,15.4633903503,1.32740175724,-0.0205078739673,-0.296560883522,-0.325274020433,-0.340000003576,-296.237548828,35.0996284485,120.90830421449999,-5.77562856675,-2.077331542900005,-14.550959169886001,-27.6756801605,1.22899854183,15.0
2018-09-11 19:21:36.450,-0.369079862046,-0.157280918197,-0.422761488306,0.0261807180941,-0.247830659151,-0.317147761583,0.4511059,1.0983448,11.99353295,0.0,10.8064126968,15.4633903503,1.32740175724,-0.0205078739673,-0.296560883522,-0.325274020433,-0.340000003576,-296.237548828,35.0996284485,113.5573272705,-5.02624988556,-2.531288146999998,-14.213553965086,-28.0524921417,1.17510402203,15.0
2018-09-11 19:21:36.500,-0.369079862046,-0.157280918197,-0.422761488306,0.0261807180941,-0.247830659151,-0.317147761583,0.4511059,1.0983448,11.99353295,0.0,12.0533246994,14.3767709732,1.17510402203,0.0261807180941,-0.247830659151,-0.317147761583,-0.479999989271,-296.707733154,35.7681617737,115.5573272705,-5.29624986649,-2.531288146999998,-13.981451570986,-28.2950830459,1.14892792702,15.0
2018-09-11 19:21:36.550,-0.369079862046,-0.157280918197,-0.422761488306,0.0261807180941,-0.247830659151,-0.317147761583,0.4511059,1.0983448,11.99353295,0.0,12.0533246994,14.3767709732,1.17510402203,0.0261807180941,-0.247830659151,-0.317147761583,-0.479999989271,-296.707733154,35.7681617737,115.5573272705,-5.29624986649,-2.5212860108000044,-13.622903406586,-28.6686897278,1.09623610973,15.0
2018-09-11 19:21:36.600,-0.369079862046,-0.157280918197,-0.422761488306,0.0261807180941,-0.247830659151,-0.317147761583,0.4511059,1.0983448,11.99353295,0.0,12.0533246994,14.3767709732,1.17510402203,0.0261807180941,-0.247830659151,-0.317147761583,-0.610000014305,-296.707733154,36.3744087219,116.5573272705,-5.54624986649,-2.511287689200003,-13.622903406586,-28.6686897278,1.09623610973,15.0
2018-09-11 19:21:36.650,-0.369079862046,-0.157280918197,-0.422761488306,0.0261807180941,-0.247830659151,-0.317147761583,0.4511059,1.0983448,11.99353295,0.0,12.0533246994,14.3767709732,1.17510402203,0.0261807180941,-0.247830659151,-0.317147761583,-0.610000014305,-296.707733154,36.3744087219,116.5573272705,-5.54624986649,-2.511287689200003,-13.137114107586001,-29.1526632309,1.0282099247,15.0
2018-09-11 19:21:36.700,-0.379553119299,-0.145025270495,-0.37906795044,-0.0341073423624,-0.257102996111,-0.295571535826,0.4511059,1.10815145,12.1994726,0.0,13.5939435959,12.8091287613,0.958699584007,-0.0341073423624,-0.257102996111,-0.295571535826,-0.719999969006,-294.26651001,36.9567222595,111.8340835571,-5.221341133119999,-3.1810226440000022,-12.645911753186,-29.5931110382,0.958699584007,15.0
2018-09-11 19:21:36.750,-0.379553119299,-0.145025270495,-0.37906795044,-0.0341073423624,-0.257102996111,-0.295571535826,0.4511059,1.10815145,12.1994726,0.0,13.5939435959,12.8091287613,0.958699584007,-0.0341073423624,-0.257102996111,-0.295571535826,-0.719999969006,-294.26651001,36.9567222595,111.8340835571,-5.221341133119999,-3.1710243225000028,-12.521635591986,-29.7027721405,0.941444158554,15.0
2018-09-11 19:21:36.800,-0.379553119299,-0.145025270495,-0.37906795044,-0.0341073423624,-0.257102996111,-0.295571535826,0.4511059,1.10815145,12.1994726,0.0,13.5939435959,12.8091287613,0.958699584007,-0.0341073423624,-0.257102996111,-0.295571535826,-0.829999983311,-294.26651001,37.4835777283,112.8340835571,-5.44134116173,-3.1710243225000028,-12.029423296486,-30.1397323608,0.857062578201,15.0
2018-09-11 19:21:36.850,-0.379553119299,-0.145025270495,-0.37906795044,-0.0341073423624,-0.257102996111,-0.295571535826,0.4511059,1.10815145,12.1994726,0.0,13.5939435959,12.8091287613,0.958699584007,-0.0341073423624,-0.257102996111,-0.295571535826,-0.829999983311,-294.26651001,37.4835777283,112.8340835571,-5.44134116173,-3.1710243225000028,-11.902119219286,-30.248860359200002,0.836489796638,15.0
2018-09-11 19:21:36.900,-0.379553119299,-0.145025270495,-0.37906795044,-0.0341073423624,-0.257102996111,-0.295571535826,0.4511059,1.10815145,12.1994726,0.0,13.5939435959,12.8091287613,0.958699584007,-0.0341073423624,-0.257102996111,-0.295571535826,-0.919999957085,-305.703918457,37.989490509,114.8340835571,-5.62134122848,-3.161022186300002,-11.401351511486,-30.6381292343,0.739988267422,15.0
2018-09-11 19:21:36.950,-0.379553119299,-0.145025270495,-0.37906795044,-0.0341073423624,-0.257102996111,-0.295571535826,0.4511059,1.10815145,12.1994726,0.0,14.7226829529,11.4544906616,0.707613706589,-0.0341073423624,-0.257102996111,-0.295571535826,-1.0,-305.703918457,38.434589386,115.8340835571,-5.73134112358,-3.151023864700001,-11.062526285686001,-30.8942718506,0.649245738983,15.0
2018-09-11 19:21:37.000,-0.379553119299,-0.145025270495,-0.37906795044,-0.0341073423624,-0.257102996111,-0.295571535826,0.4511059,1.10815145,12.1994726,0.0,14.7226829529,11.4544906616,0.707613706589,-0.0341073423624,-0.257102996111,-0.295571535826,-1.0,-305.703918457,38.434589386,115.8340835571,-5.73134112358,-3.1410217285,-10.822053492086,-31.0759134292,0.586754381657,15.0
2018-09-11 19:21:37.050,-0.376505718263,-0.121952224265,-0.315994184735,-0.105660274625,-0.236995398998,-0.334278076887,0.3138128,1.2748645,10.75789505,0.0,14.7226829529,11.4544906616,0.707613706589,-0.0341073423624,-0.257102996111,-0.295571535826,-1.05999994278,-307.738311768,38.8752250671,108.5701675415,-4.72353839875,-1.8565406799000002,-10.434771120586001,-31.3424224853,0.511027514935,15.0
2018-09-11 19:21:37.100,-0.376505718263,-0.121952224265,-0.315994184735,-0.105660274625,-0.236995398998,-0.334278076887,0.3138128,1.2748645,10.75789505,0.0,14.7226829529,11.4544906616,0.707613706589,-0.0341073423624,-0.257102996111,-0.295571535826,-1.05999994278,-307.738311768,38.8752250671,108.5701675415,-4.72353839875,-1.8565406799000002,-10.434771120586001,-31.3424224853,0.511027514935,15.0
2018-09-11 19:21:37.150,-0.376505718263,-0.121952224265,-0.315994184735,-0.105660274625,-0.236995398998,-0.334278076887,0.3138128,1.2748645,10.75789505,0.0,14.7226829529,11.4544906616,0.707613706589,-0.0341073423624,-0.257102996111,-0.295571535826,-1.05999994278,-307.738311768,38.8752250671,108.5701675415,-4.7335383892100005,-1.8465423584000007,-9.945748865586001,-31.6693487167,0.406560540199,15.0
2018-09-11 19:21:37.200,-0.376505718263,-0.121952224265,-0.315994184735,-0.105660274625,-0.236995398998,-0.334278076887,0.3138128,1.2748645,10.75789505,0.0,15.9199018478,9.72789573669,0.328600019217,-0.105660274625,-0.236995398998,-0.334278076887,-1.11000001431,-307.738311768,39.2724723816,109.5701675415,-4.79353857041,-1.8365402220999982,-9.700623095036,-31.8331060409,0.351522982121,15.0
2018-09-11 19:21:37.250,-0.376505718263,-0.121952224265,-0.315994184735,-0.105660274625,-0.236995398998,-0.334278076887,0.3138128,1.2748645,10.75789505,0.0,15.9199018478,9.72789573669,0.328600019217,-0.105660274625,-0.236995398998,-0.334278076887,-1.13999998569,-321.365722656,39.6361732483,110.5701675415,-4.8235385418,-1.8365402220999982,-9.188447535036,-32.1382913589,0.263243168592,15.0
2018-09-11 19:21:37.300,-0.376505718263,-0.121952224265,-0.315994184735,-0.105660274625,-0.236995398998,-0.334278076887,0.3138128,1.2748645,10.75789505,0.0,15.9199018478,9.72789573669,0.328600019217,-0.105660274625,-0.236995398998,-0.334278076887,-1.13999998569,-321.365722656,39.6361732483,110.5701675415,-4.8235385418,-1.8365402220999982,-9.188447535036,-32.1382913589,0.263243168592,15.0
2018-09-11 19:21:37.350,-0.376505718263,-0.121952224265,-0.315994184735,-0.105660274625,-0.236995398998,-0.334278076887,0.3138128,1.2748645,10.75789505,0.0,15.9199018478,9.72789573669,0.328600019217,-0.105660274625,-0.236995398998,-0.334278076887,-1.13999998569,-321.365722656,39.6361732483,110.5701675415,-4.8235385418,-1.8365402220999982,-8.659991800786,-32.4473047256,0.15688540041400004,15.0
2018-09-11 19:21:37.400,-0.376505718263,-0.121952224265,-0.315994184735,-0.105660274625,-0.236995398998,-0.334278076887,0.3138128,1.2748645,10.75789505,0.0,15.9199018478,9.72789573669,0.328600019217,-0.105660274625,-0.236995398998,-0.334278076887,-1.16999995708,-321.365722656,39.9750709534,112.5701675415,-4.80353856087,-1.8365402220999982,-8.530833780766,-32.51658535,0.13981013000000003,15.0
2018-09-11 19:21:37.450,-0.376505718263,-0.121952224265,-0.315994184735,-0.105660274625,-0.236995398998,-0.334278076887,0.3138128,1.2748645,10.75789505,0.0,16.8052577972,8.1781463623,0.055774256587,-0.105660274625,-0.236995398998,-0.334278076887,-1.16999995708,-321.365722656,39.9750709534,112.5701675415,-4.80353856087,-1.8365402220999982,-8.149296343326,-32.732485771200004,0.08178117126230001,15.0
2018-09-11 19:21:37.500,-0.372758471215,-0.0988597741032,-0.223258535897,-0.0110248047858,-0.220650717616,-0.344896197319,0.26477955,0.9218251,11.75817335,0.0,16.8052577972,8.1781463623,0.055774256587,-0.105660274625,-0.236995398998,-0.334278076887,-1.16999995708,-332.215118408,40.2887458801,102.2593040466,-2.59488266707,-0.5944328307999953,-7.587265551086,-33.0184736252,-0.00301019591278998,15.0
2018-09-11 19:21:37.550,-0.372758471215,-0.0988597741032,-0.223258535897,-0.0110248047858,-0.220650717616,-0.344896197319,0.26477955,0.9218251,11.75817335,0.0,16.8052577972,8.1781463623,0.055774256587,-0.105660274625,-0.236995398998,-0.334278076887,-1.16999995708,-332.215118408,40.5608558655,103.2593040466,-2.59488266707,-0.5944328307999953,-7.335860788826,-33.145819664,-0.03792488574979998,15.0
2018-09-11 19:21:37.600,-0.372758471215,-0.0988597741032,-0.223258535897,-0.0110248047858,-0.220650717616,-0.344896197319,0.26477955,0.9218251,11.75817335,0.0,16.8052577972,8.1781463623,0.055774256587,-0.105660274625,-0.236995398998,-0.334278076887,-1.16999995708,-332.215118408,40.5608558655,103.2593040466,-2.54488271475,-0.5944328307999953,-6.787198603156001,-33.4075593948,-0.14205428957899996,15.0
2018-09-11 19:21:37.650,-0.372758471215,-0.0988597741032,-0.223258535897,-0.0110248047858,-0.220650717616,-0.344896197319,0.26477955,0.9218251,11.75817335,0.0,16.8052577972,8.1781463623,0.055774256587,-0.105660274625,-0.236995398998,-0.334278076887,-1.16999995708,-332.215118408,40.5608558655,103.2593040466,-2.54488271475,-0.5944328307999953,-6.787198603156001,-33.4075593948,-0.14205428957899996,15.0
2018-09-11 19:21:37.700,-0.372758471215,-0.0988597741032,-0.223258535897,-0.0110248047858,-0.220650717616,-0.344896197319,0.26477955,0.9218251,11.75817335,0.0,17.6501598358,6.40980148315,-0.249253794551,-0.0110248047858,-0.220650717616,-0.344896197319,-1.16999995708,-346.372619629,40.7993812561,104.2593040466,-2.46488279104,-0.5944328307999953,-6.246584475036,-33.6493272781,-0.24925379455099997,15.0
2018-09-11 19:21:37.750,-0.372758471215,-0.0988597741032,-0.223258535897,-0.0110248047858,-0.220650717616,-0.344896197319,0.26477955,0.9218251,11.75817335,0.0,17.6501598358,6.40980148315,-0.249253794551,-0.0110248047858,-0.220650717616,-0.344896197319,-1.14999997616,-346.372619629,41.0177116394,106.2593040466,-2.35488289595,-0.6044349670999978,-6.246584475036,-33.6493272781,-0.24925379455099997,15.0
2018-09-11 19:21:37.800,-0.372758471215,-0.0988597741032,-0.223258535897,-0.0110248047858,-0.220650717616,-0.344896197319,0.26477955,0.9218251,11.75817335,0.0,17.6501598358,6.40980148315,-0.249253794551,-0.0110248047858,-0.220650717616,-0.344896197319,-1.14999997616,-346.372619629,41.0177116394,106.2593040466,-2.35488289595,-0.6044349670999978,-5.697248518466,-33.8803682327,-0.34596785903,15.0
2018-09-11 19:21:37.850,-0.378495226004,-0.0815446904942,-0.148485817194,0.0267481226474,-0.243479266763,-0.3155836761,0.32361945,0.8041453,11.52281375,0.0,17.6501598358,6.40980148315,-0.249253794551,-0.0110248047858,-0.220650717616,-0.344896197319,-1.14999997616,-346.372619629,41.0177116394,106.2593040466,-2.35488289595,-0.6044349670999978,-5.409057676796,-33.9980344772,-0.392958074808,15.0
2018-09-11 19:21:37.900,-0.378495226004,-0.0815446904942,-0.148485817194,0.0267481226474,-0.243479266763,-0.3155836761,0.32361945,0.8041453,11.52281375,0.0,18.2529830933,4.86242771149,-0.521622896194,0.0267481226474,-0.243479266763,-0.3155836761,-1.11000001431,-354.685394287,41.2038612366,98.4010848999,-0.7466793060300003,-0.7717933655000024,-4.833345472816,-34.204165458700004,-0.501178383827,15.0
2018-09-11 19:21:37.950,-0.378495226004,-0.0815446904942,-0.148485817194,0.0267481226474,-0.243479266763,-0.3155836761,0.32361945,0.8041453,11.52281375,0.0,18.2529830933,4.86242771149,-0.521622896194,0.0267481226474,-0.243479266763,-0.3155836761,-1.11000001431,-354.685394287,41.2038612366,98.4010848999,-0.7466793060300003,-0.7717933655000024,-4.5535970330260005,-34.3020849228,-0.546932816505,15.0
2018-09-11 19:21:38.000,-0.378495226004,-0.0815446904942,-0.148485817194,0.0267481226474,-0.243479266763,-0.3155836761,0.32361945,0.8041453,11.52281375,0.0,18.2529830933,4.86242771149,-0.521622896194,0.0267481226474,-0.243479266763,-0.3155836761,-1.06999993324,-354.685394287,41.3506584167,99.4010848999,-0.5766792297400003,-0.7717933655000024,-4.246303141116,-34.4041852951,-0.595148324966,15.0
2018-09-11 19:21:38.050,-0.378495226004,-0.0815446904942,-0.148485817194,0.0267481226474,-0.243479266763,-0.3155836761,0.32361945,0.8041453,11.52281375,0.0,18.2529830933,4.86242771149,-0.521622896194,0.0267481226474,-0.243479266763,-0.3155836761,-1.06999993324,-354.685394287,41.3506584167,99.4010848999,-0.5766792297400003,-0.7717933655000024,-3.788491785526,-34.5388498306,-0.653479516506,15.0
2018-09-11 19:21:38.100,-0.378495226004,-0.0815446904942,-0.148485817194,0.0267481226474,-0.243479266763,-0.3155836761,0.32361945,0.8041453,11.52281375,0.0,18.2529830933,4.86242771149,-0.521622896194,0.0267481226474,-0.243479266763,-0.3155836761,-1.00999999046,-364.162261963,41.4753456116,100.4010848999,-0.38667941093000024,-0.7717933655000024,-3.347539484496,-34.6673650741,-0.717145264149,15.0
2018-09-11 19:21:38.150,-0.378495226004,-0.0815446904942,-0.148485817194,0.0267481226474,-0.243479266763,-0.3155836761,0.32361945,0.8041453,11.52281375,0.0,18.2529830933,4.86242771149,-0.521622896194,0.0267481226474,-0.243479266763,-0.3155836761,-1.00999999046,-364.162261963,41.4753456116,100.4010848999,-0.38667941093000024,-0.7717933655000024,-3.189633190636,-34.7096319198,-0.737011551857,15.0
2018-09-11 19:21:38.200,-0.378495226004,-0.0815446904942,-0.148485817194,0.0267481226474,-0.243479266763,-0.3155836761,0.32361945,0.8041453,11.52281375,0.0,18.8203029633,2.90190815926,-0.791725635529,0.0267481226474,-0.243479266763,-0.3155836761,-0.930000007153,-364.162261963,41.5554389954,102.4010848999,-0.14667940140000013,-0.7717933655000024,-2.591349184516,-34.8543787002,-0.812507152557,15.0
2018-09-11 19:21:38.250,-0.378495226004,-0.0815446904942,-0.148485817194,0.0267481226474,-0.243479266763,-0.3155836761,0.32361945,0.8041453,11.52281375,0.0,18.8203029633,2.90190815926,-0.791725635529,0.0267481226474,-0.243479266763,-0.3155836761,-0.930000007153,-364.162261963,41.5554389954,102.4010848999,-0.14667940140000013,-0.7717933655000024,-2.437582552436,-34.8909788131,-0.836689531803,15.0
2018-09-11 19:21:38.300,-0.388510064127,-0.0501149459464,-0.0680314938283,0.0265285316855,-0.299256533384,-0.306264609098,0.3334261,0.6864655,12.0817928,0.0,18.8203029633,2.90190815926,-0.791725635529,0.0267481226474,-0.243479266763,-0.3155836761,-0.839999973774,-380.06439209,41.6052894592,103.4010848999,0.10332071780999996,-0.7717933655000024,-1.951317846776,-34.9916410446,-0.907146453857,15.0
2018-09-11 19:21:38.350,-0.388510064127,-0.0501149459464,-0.0680314938283,0.0265285316855,-0.299256533384,-0.306264609098,0.3334261,0.6864655,12.0817928,0.0,18.8203029633,2.90190815926,-0.791725635529,0.0267481226474,-0.243479266763,-0.3155836761,-0.839999973774,-380.06439209,41.6052894592,93.4340286255,0.28114044666000026,-1.3320617676000026,-1.6484238505359998,-35.048792839,-0.952853024006,15.0
2018-09-11 19:21:38.400,-0.388510064127,-0.0501149459464,-0.0680314938283,0.0265285316855,-0.299256533384,-0.306264609098,0.3334261,0.6864655,12.0817928,0.0,19.1336708069,1.33693265915,-1.00647437572,0.0265285316855,-0.299256533384,-0.306264609098,-0.75,-380.06439209,41.6179695129,94.4340286255,0.5611404180500001,-1.3320617676000026,-1.337999999526,-35.1047639847,-0.987064838409,15.0
2018-09-11 19:21:38.450,-0.388510064127,-0.0501149459464,-0.0680314938283,0.0265285316855,-0.299256533384,-0.306264609098,0.3334261,0.6864655,12.0817928,0.0,19.1336708069,1.33693265915,-1.00647437572,0.0265285316855,-0.299256533384,-0.306264609098,-0.75,-380.06439209,41.6179695129,94.4340286255,0.5611404180500001,-1.3320617676000026,-0.844496548176,-35.184493064899996,-1.0326975584,15.0
2018-09-11 19:21:38.500,-0.388510064127,-0.0501149459464,-0.0680314938283,0.0265285316855,-0.299256533384,-0.306264609098,0.3334261,0.6864655,12.0817928,0.0,19.1336708069,1.33693265915,-1.00647437572,0.0265285316855,-0.299256533384,-0.306264609098,-0.639999985695,-412.281036377,41.5950126648,95.4340286255,0.8311403989800001,-1.3220634461000031,-0.49836534261700005,-35.2252168655,-1.04853057861,15.0
2018-09-11 19:21:38.550,-0.388510064127,-0.0501149459464,-0.0680314938283,0.0265285316855,-0.299256533384,-0.306264609098,0.3334261,0.6864655,12.0817928,0.0,19.1336708069,1.33693265915,-1.00647437572,0.0265285316855,-0.299256533384,-0.306264609098,-0.639999985695,-412.281036377,41.5950126648,95.4340286255,0.8311403989800001,-1.3220634461000031,-0.0038112103940000086,-35.2834024429,-1.0542550087,15.0
2018-09-11 19:21:38.600,-0.388510064127,-0.0501149459464,-0.0680314938283,0.0265285316855,-0.299256533384,-0.306264609098,0.3334261,0.6864655,12.0817928,0.0,19.1336708069,1.33693265915,-1.00647437572,0.0265285316855,-0.299256533384,-0.306264609098,-0.52999997139,-412.281036377,41.5239448547,97.4340286255,1.0811403989800001,-1.3220634461000031,0.338417932391,-35.3179769516,-1.06600046158,15.0
2018-09-11 19:21:38.650,-0.388510064127,-0.0501149459464,-0.0680314938283,0.0265285316855,-0.299256533384,-0.306264609098,0.3334261,0.6864655,12.0817928,0.0,19.3644008636,-0.86848783493,-1.06541585922,0.0265285316855,-0.299256533384,-0.306264609098,-0.52999997139,-412.281036377,41.5239448547,97.4340286255,1.0811403989800001,-1.3220634461000031,0.856824994087,-35.3565530777,-1.06695139408,15.0
2018-09-11 19:21:38.700,-0.388510064127,-0.0501149459464,-0.0680314938283,0.0265285316855,-0.299256533384,-0.306264609098,0.3334261,0.6864655,12.0817928,0.0,19.3644008636,-0.86848783493,-1.06541585922,0.0265285316855,-0.299256533384,-0.306264609098,-0.52999997139,-412.281036377,41.5239448547,97.4340286255,1.0811403989800001,-1.3220634461000031,0.856824994087,-35.3565530777,-1.06695139408,15.0
2018-09-11 19:21:38.750,-0.383974373363,-0.00978288758945,0.0161199941818,-0.0838596373796,-0.309232443571,-0.302250653505,0.4314926,1.30428445,13.15071765,0.0,19.3644008636,-0.86848783493,-1.06541585922,0.0265285316855,-0.299256533384,-0.306264609098,-0.419999986887,-416.724975586,41.4183311462,98.4340286255,1.331140398979,-0.3892211913999972,1.697850167754,-35.390744209299996,-1.0522851944,15.0
2018-09-11 19:21:38.800,-0.383974373363,-0.00978288758945,0.0161199941818,-0.0838596373796,-0.309232443571,-0.302250653505,0.4314926,1.30428445,13.15071765,0.0,19.3644008636,-0.86848783493,-1.06541585922,0.0265285316855,-0.299256533384,-0.306264609098,-0.299999982119,-416.724975586,41.2560539246,-270.2755050659,1.0644388794870001,-0.3892211913999972,2.394761502744,-35.400404930099995,-1.02768611908,15.0
2018-09-11 19:21:38.850,-0.383974373363,-0.00978288758945,0.0161199941818,-0.0838596373796,-0.309232443571,-0.302250653505,0.4314926,1.30428445,13.15071765,0.0,19.3644008636,-0.86848783493,-1.06541585922,0.0265285316855,-0.299256533384,-0.306264609098,-0.299999982119,-416.724975586,41.2560539246,-270.2755050659,1.0644388794870001,-0.3892211913999972,2.394761502744,-35.400404930099995,-1.02768611908,15.0
2018-09-11 19:21:38.900,-0.383974373363,-0.00978288758945,0.0161199941818,-0.0838596373796,-0.309232443571,-0.302250653505,0.4314926,1.30428445,13.15071765,0.0,19.3767795563,-2.94955015182,-0.974471569061,-0.0838596373796,-0.309232443571,-0.302250653505,-0.189999997616,-444.534667969,41.0710334778,-268.2755050659,1.274438887832,-0.3892211913999972,3.268116891384,-35.3695993423,-0.960944116116,15.0
