%time,field.orientation.x,field.orientation.y,field.orientation.z,field.angular_velocity.x,field.angular_velocity.y,field.angular_velocity.z,field.linear_acceleration.x,field.linear_acceleration.y,field.linear_acceleration.z,field.data,field.twist.linear.x,field.twist.linear.y,field.twist.linear.z,field.twist.angular.x,field.twist.angular.y,field.twist.angular.z,field.alt_error,field.aspd_error,field.xtrack_error,delta_yaw,delta_pitch,delta_roll,delta_x,delta_y,delta_z,delta_roll_airspeed
2018-09-11 21:34:18.950,,,,,,,,,,0.0,-20.4089603424,0.0659633949399,1.10024607182,-0.0486024953425,0.106703393161,-0.23313345015,-0.229999989271,-430.68560791,-41.1022377014,173.7684860229,-3.448628604407,36.4784613848,15.6274342387889,23.50584697719,1.039888143540002,15.0
2018-09-11 21:34:19.000,,,,,,,,,,0.0,-20.4089603424,0.0659633949399,1.10024607182,-0.0486024953425,0.106703393161,-0.23313345015,-0.34999999404,-430.68560791,-39.0730056763,172.7684860229,-3.508628547187,38.6284629107,15.56079290807,23.47102069859,0.7088173031810019,15.0
2018-09-11 21:34:19.050,,,,,,,,,,0.0,-20.4089603424,0.0659633949399,1.10024607182,-0.0486024953425,0.106703393161,-0.23313345015,-0.34999999404,-430.68560791,-39.0730056763,172.7684860229,-3.4786288142170005,38.6284629107,15.494106486437001,23.44577312469,0.5904796719550018,15.0
2018-09-11 21:34:19.100,,,,,,,,,,0.0,-20.3184547424,0.282058000565,0.478190600872,1.23681855202,0.032565176487,-0.153524383903,-0.42999997735,-460.105133057,-37.043964386,168.40459442140002,-1.8180618286099999,24.7390680313,15.416529417035001,23.40946865079,0.47819060087200194,15.0
2018-09-11 21:34:19.150,0.00847617739148,-0.124906869891,-0.988456138478,1.23681855202,0.032565176487,-0.153524383903,-0.36284605,-0.26477955,6.5704555,0.0,-20.3184547424,0.282058000565,0.478190600872,1.23681855202,0.032565176487,-0.153524383903,-0.42999997735,-460.105133057,-37.043964386,168.40459442140002,-1.7780616283399997,24.7390680313,15.248354911802,23.33879375459,0.40876239538200193,15.0
2018-09-11 21:34:19.200,0.00847617739148,-0.124906869891,-0.988456138478,1.23681855202,0.032565176487,-0.153524383903,-0.36284605,-0.26477955,6.5704555,0.0,-20.3184547424,0.282058000565,0.478190600872,1.23681855202,0.032565176487,-0.153524383903,-0.479999989271,-460.105133057,-35.0154457092,169.40459442140002,-1.7380616664899997,26.349068641600006,15.248354911802,23.33879375459,0.40876239538200193,15.0
2018-09-11 21:34:19.250,0.00847617739148,-0.124906869891,-0.988456138478,1.23681855202,0.032565176487,-0.153524383903,-0.36284605,-0.26477955,6.5704555,0.0,-20.3184547424,0.282058000565,0.478190600872,1.23681855202,0.032565176487,-0.153524383903,-0.519999980927,-440.271575928,-74.2804031372,65.4045944214,-3.7680616378800003,30.639069557200003,14.189303100116,25.849301815009998,0.36765548586800184,15.0
2018-09-11 21:34:19.300,0.00847617739148,-0.124906869891,-0.988456138478,1.23681855202,0.032565176487,-0.153524383903,-0.36284605,-0.26477955,6.5704555,0.0,-20.3184547424,0.282058000565,0.478190600872,1.23681855202,0.032565176487,-0.153524383903,-0.519999980927,-440.271575928,-74.2804031372,65.4045944214,-3.7380619049,30.649067878700002,13.950816810137999,25.74833250051,0.31931346654900183,16.0
2018-09-11 21:34:19.350,-0.00784285761748,-0.241973193292,-0.966568355674,0.626153707504,-0.102254651487,0.115826554596,-1.0787315,-0.20593965,10.198916,0.0,-19.9606380463,1.16460704803,0.278000682592,1.23681855202,0.032565176487,-0.153524383903,-0.519999980927,-440.271575928,-74.2804031372,65.4045944214,-3.71806192398,30.649067878700002,13.77914619447,25.67765188221,0.27800068259200184,16.0
2018-09-11 21:34:19.400,-0.00784285761748,-0.241973193292,-0.966568355674,0.626153707504,-0.102254651487,0.115826554596,-1.0787315,-0.20593965,10.198916,0.0,-19.9606380463,1.16460704803,0.278000682592,1.23681855202,0.032565176487,-0.153524383903,-0.569999992847,-340.271575928,-72.3853530884,66.3796615601,-6.42667067051,16.894557952899998,13.37283897401,25.51823186871,0.28092816472100185,16.0
2018-09-11 21:34:19.450,-0.00784285761748,-0.241973193292,-0.966568355674,0.626153707504,-0.102254651487,0.115826554596,-1.0787315,-0.20593965,10.198916,0.0,-19.9606380463,1.16460704803,0.278000682592,1.23681855202,0.032565176487,-0.153524383903,-0.569999992847,-340.271575928,-72.3853530884,66.3796615601,-6.42667067051,16.894557952899998,13.37283897401,25.51823186871,0.28092816472100185,16.0
2018-09-11 21:34:19.500,-0.00784285761748,-0.241973193292,-0.966568355674,0.626153707504,-0.102254651487,0.115826554596,-1.0787315,-0.20593965,10.198916,0.0,-19.9606380463,1.16460704803,0.278000682592,1.23681855202,0.032565176487,-0.153524383903,-0.629999995232,-306.554229736,-70.4901123047,67.3796615601,-8.456670403479999,16.7845611573,12.81886696816,25.30924177171,0.27817407250400183,16.0
2018-09-11 21:34:19.550,-0.00784285761748,-0.241973193292,-0.966568355674,0.626153707504,-0.102254651487,0.115826554596,-1.0787315,-0.20593965,10.198916,0.0,-19.9606380463,1.16460704803,0.278000682592,1.23681855202,0.032565176487,-0.153524383903,-0.629999995232,-306.554229736,-70.4901123047,67.3796615601,-8.456670403479999,16.7845611573,12.81886696816,25.30924177171,0.27817407250400183,16.0
2018-09-11 21:34:19.600,-0.00784285761748,-0.241973193292,-0.966568355674,0.626153707504,-0.102254651487,0.115826554596,-1.0787315,-0.20593965,10.198916,0.0,-19.4213600159,2.60062432289,0.256245434284,0.626153707504,-0.102254651487,0.115826554596,-0.699999988079,-306.554229736,-68.6144638062,68.3796615601,-10.48667109008,16.7845611573,12.343128919609999,25.138373851809998,0.2562454342840018,16.0
2018-09-11 21:34:19.650,-0.00784285761748,-0.241973193292,-0.966568355674,0.626153707504,-0.102254651487,0.115826554596,-1.0787315,-0.20593965,10.198916,0.0,-19.4213600159,2.60062432289,0.256245434284,0.626153707504,-0.102254651487,0.115826554596,-0.699999988079,-306.554229736,-68.6144638062,68.3796615601,-10.476670861279999,16.7845611573,12.220566988,25.095578670509997,0.24494986236100183,16.0
2018-09-11 21:34:19.700,-0.0226643452141,-0.32949335686,-0.941324313729,0.277794152498,0.106693506241,0.0389253981411,-0.97085835,0.71588545,11.4737805,0.0,-19.4213600159,2.60062432289,0.256245434284,0.626153707504,-0.102254651487,0.115826554596,-0.789999961853,-284.120544434,-66.7070617676,69.618522644,-13.790971949742001,6.199787139900003,11.70306539536,24.891883373309998,0.08515003323550183,16.0
2018-09-11 21:34:19.750,-0.0226643452141,-0.32949335686,-0.941324313729,0.277794152498,0.106693506241,0.0389253981411,-0.97085835,0.71588545,11.4737805,0.0,-19.4213600159,2.60062432289,0.256245434284,0.626153707504,-0.102254651487,0.115826554596,-0.789999961853,-284.120544434,-66.7070617676,69.618522644,-13.790971949742001,6.199787139900003,11.70306539536,24.891883373309998,0.08515003323550183,16.0
2018-09-11 21:34:19.800,-0.0226643452141,-0.32949335686,-0.941324313729,0.277794152498,0.106693506241,0.0389253981411,-0.97085835,0.71588545,11.4737805,0.0,-19.4213600159,2.60062432289,0.256245434284,0.626153707504,-0.102254651487,0.115826554596,-0.870000004768,-284.120544434,-64.8350296021,70.618522644,-15.680972293042,6.199787139900003,11.34400987626,24.74370908741,-0.10927795618799817,16.0
2018-09-11 21:34:19.850,-0.0226643452141,-0.32949335686,-0.941324313729,0.277794152498,0.106693506241,0.0389253981411,-0.97085835,0.71588545,11.4737805,0.0,-18.9228305817,3.8249270916,-0.298563599586,0.277794152498,0.106693506241,0.0389253981411,-0.870000004768,-284.120544434,-64.8350296021,70.618522644,-15.670972064142001,6.199787139900003,11.259995460519999,24.707778453809997,-0.16593277454399816,16.0
2018-09-11 21:34:19.900,-0.0226643452141,-0.32949335686,-0.941324313729,0.277794152498,0.106693506241,0.0389253981411,-0.97085835,0.71588545,11.4737805,0.0,-18.9228305817,3.8249270916,-0.298563599586,0.277794152498,0.106693506241,0.0389253981411,-0.930000007153,-260.239013672,-62.9431114197,71.618522644,-17.400972560042,6.189785003600001,10.93863630296,24.538869380909997,-0.5494579672809983,16.0
2018-09-11 21:34:19.950,-0.0226643452141,-0.32949335686,-0.941324313729,0.277794152498,0.106693506241,0.0389253981411,-0.97085835,0.71588545,11.4737805,0.0,-18.9228305817,3.8249270916,-0.298563599586,0.277794152498,0.106693506241,0.0389253981411,-0.930000007153,-260.239013672,-62.9431114197,71.618522644,-17.400972560042,6.189785003600001,10.93863630296,24.538869380909997,-0.5494579672809983,16.0
2018-09-11 21:34:20.000,-0.0226643452141,-0.32949335686,-0.941324313729,0.277794152498,0.106693506241,0.0389253981411,-0.97085835,0.71588545,11.4737805,0.0,-18.9228305817,3.8249270916,-0.298563599586,0.277794152498,0.106693506241,0.0389253981411,-0.949999988079,-260.239013672,-61.0748214722,72.618522644,-17.250972941542,6.149784088099999,10.72054862977,24.41347837451,-0.9070459008219982,16.0
2018-09-11 21:34:20.050,-0.0226643452141,-0.32949335686,-0.941324313729,0.277794152498,0.106693506241,0.0389253981411,-0.97085835,0.71588545,11.4737805,0.0,-18.9228305817,3.8249270916,-0.298563599586,0.277794152498,0.106693506241,0.0389253981411,-0.949999988079,-260.239013672,-61.0748214722,72.618522644,-17.250972941542,6.139785766599999,10.66164493562,24.38176488881,-0.9948694109919982,16.0
2018-09-11 21:34:20.100,-0.0226643452141,-0.32949335686,-0.941324313729,0.277794152498,0.106693506241,0.0389253981411,-0.97085835,0.71588545,11.4737805,0.0,-18.5645141602,4.43877887726,-1.27703166008,0.277794152498,0.106693506241,0.0389253981411,-0.939999997616,-240.422058105,-59.1945991516,73.618522644,-16.670973017841998,6.0597839355000005,10.46534395219,24.24920415881,-1.3849688768399981,16.0
2018-09-11 21:34:20.150,0.00585529868078,-0.359453126176,-0.926044962966,0.00160464458168,0.151725977659,-0.440966576338,-1.0787315,1.12776475,6.08992965,0.0,-18.5645141602,4.43877887726,-1.27703166008,0.277794152498,0.106693506241,0.0389253981411,-0.939999997616,-240.422058105,-59.1945991516,73.618522644,-16.670973017841998,6.0597839355000005,10.46534395219,24.24920415881,-1.3849688768399981,16.0
2018-09-11 21:34:20.200,0.00585529868078,-0.359453126176,-0.926044962966,0.00160464458168,0.151725977659,-0.440966576338,-1.0787315,1.12776475,6.08992965,0.0,-18.5645141602,4.43877887726,-1.27703166008,0.277794152498,0.106693506241,0.0389253981411,-0.870000004768,-240.422058105,-57.3459587097,70.9072265625,-10.738447666199999,2.5699310302999976,10.26081323624,24.085233211509998,-1.9092934131599981,16.0
2018-09-11 21:34:20.250,0.00585529868078,-0.359453126176,-0.926044962966,0.00160464458168,0.151725977659,-0.440966576338,-1.0787315,1.12776475,6.08992965,0.0,-18.5645141602,4.43877887726,-1.27703166008,0.277794152498,0.106693506241,0.0389253981411,-0.870000004768,-240.422058105,-57.3459587097,70.9072265625,-10.738447666199999,2.5699310302999976,10.26081323624,24.085233211509998,-1.9092934131599981,16.0
2018-09-11 21:34:20.300,0.00585529868078,-0.359453126176,-0.926044962966,0.00160464458168,0.151725977659,-0.440966576338,-1.0787315,1.12776475,6.08992965,0.0,-18.5645141602,4.43877887726,-1.27703166008,0.277794152498,0.106693506241,0.0389253981411,-0.75,-227.615539551,-55.4893608093,70.9072265625,-9.7784466743,2.3199310302999976,10.069258213049999,23.916902065309998,-2.489863872529998,16.0
2018-09-11 21:34:20.350,0.00585529868078,-0.359453126176,-0.926044962966,0.00160464458168,0.151725977659,-0.440966576338,-1.0787315,1.12776475,6.08992965,0.0,-18.1295013428,4.97359132767,-2.7115418911,0.00160464458168,0.151725977659,-0.440966576338,-0.75,-227.615539551,-55.4893608093,70.9072265625,-9.7784466743,2.1699295044000024,9.82275724412,23.771325588209997,-2.8806226253499982,16.0
2018-09-11 21:34:20.400,0.00585529868078,-0.359453126176,-0.926044962966,0.00160464458168,0.151725977659,-0.440966576338,-1.0787315,1.12776475,6.08992965,0.0,-18.1295013428,4.97359132767,-2.7115418911,0.00160464458168,0.151725977659,-0.440966576338,-0.560000002384,-227.615539551,-53.6563873291,71.9072265625,-8.7284474373,2.0699310302999976,9.735192775729999,23.730575084709997,-2.954453706739998,16.0
2018-09-11 21:34:20.450,0.00585529868078,-0.359453126176,-0.926044962966,0.00160464458168,0.151725977659,-0.440966576338,-1.0787315,1.12776475,6.08992965,0.0,-18.1295013428,4.97359132767,-2.7115418911,0.00160464458168,0.151725977659,-0.440966576338,-0.560000002384,-227.615539551,-53.6563873291,71.9072265625,-8.7384467125,1.929931640600003,9.459032535559999,23.605451107009998,-3.156219959259998,16.0
2018-09-11 21:34:20.500,0.0376851777226,-0.369519860892,-0.90503914166,0.100614830852,-0.132333859801,-0.427224010229,-1.4121576,0.5295591,8.01203305,0.0,-18.1295013428,4.97359132767,-2.7115418911,0.00160464458168,0.151725977659,-0.440966576338,-0.340000003576,-206.725692749,-51.8233566284,72.9072265625,-7.7384467125,1.8599281310999984,9.25969791413,23.513572216009997,-3.279187917709998,16.0
2018-09-11 21:34:20.550,0.0376851777226,-0.369519860892,-0.90503914166,0.100614830852,-0.132333859801,-0.427224010229,-1.4121576,0.5295591,8.01203305,0.0,-17.702041626,5.89185428619,-3.39311265945,0.100614830852,-0.132333859801,-0.427224010229,-0.340000003576,-206.725692749,-51.8233566284,64.1414794922,-0.3113679886000007,1.5938301087000042,9.05189895631,23.41905546191,-3.393112659449998,16.0
2018-09-11 21:34:20.600,0.0376851777226,-0.369519860892,-0.90503914166,0.100614830852,-0.132333859801,-0.427224010229,-1.4121576,0.5295591,8.01203305,0.0,-17.702041626,5.89185428619,-3.39311265945,0.100614830852,-0.132333859801,-0.427224010229,-0.070000000298,-206.725692749,-50.0059967041,65.1414794922,0.7286319732999988,1.5338325501000014,8.79589414597,23.31811285021,-3.458851099009998,16.0
2018-09-11 21:34:20.650,0.0376851777226,-0.369519860892,-0.90503914166,0.100614830852,-0.132333859801,-0.427224010229,-1.4121576,0.5295591,8.01203305,0.0,-17.702041626,5.89185428619,-3.39311265945,0.100614830852,-0.132333859801,-0.427224010229,-0.070000000298,-206.725692749,-50.0059967041,65.1414794922,0.7386312484999991,1.463832855300005,8.384576320659999,23.16084051131,-3.5370759963999983,16.0
2018-09-11 21:34:20.700,0.0376851777226,-0.369519860892,-0.90503914166,0.100614830852,-0.132333859801,-0.427224010229,-1.4121576,0.5295591,8.01203305,0.0,-17.702041626,5.89185428619,-3.39311265945,0.100614830852,-0.132333859801,-0.427224010229,0.209999993443,-199.454116821,-48.1765823364,66.1414794922,1.6686315535999992,1.4338302613000025,7.77940320969,22.91947507861,-3.592852115629998,16.0
2018-09-11 21:34:20.750,0.0287933055133,-0.38302567772,-0.888034466861,0.161660820246,-0.18095459044,-0.223112493753,-1.20621795,0.2745862,12.62115855,0.0,-17.0200119019,7.60986804962,-3.63494849205,0.161660820246,-0.18095459044,-0.223112493753,0.209999993443,-199.454116821,-48.1765823364,60.8873405457,3.055271148700001,0.1080436705999972,7.47797632218,22.79681348801,-3.623011112209998,16.0
2018-09-11 21:34:20.800,0.0287933055133,-0.38302567772,-0.888034466861,0.161660820246,-0.18095459044,-0.223112493753,-1.20621795,0.2745862,12.62115855,0.0,-17.0200119019,7.60986804962,-3.63494849205,0.161660820246,-0.18095459044,-0.223112493753,0.509999990463,-199.454116821,-46.3548851013,61.8873405457,3.9552707673,0.12804412839999912,7.04407167435,22.61431837081,-3.663149118419998,16.0
2018-09-11 21:34:20.850,0.0287933055133,-0.38302567772,-0.888034466861,0.161660820246,-0.18095459044,-0.223112493753,-1.20621795,0.2745862,12.62115855,0.0,-17.0200119019,7.60986804962,-3.63494849205,0.161660820246,-0.18095459044,-0.223112493753,0.509999990463,-199.454116821,-46.3548851013,61.8873405457,3.9552707673,0.1380462645999998,6.892721176149999,22.548995494809997,-3.667315483089998,16.0
2018-09-11 21:34:20.900,0.0287933055133,-0.38302567772,-0.888034466861,0.161660820246,-0.18095459044,-0.223112493753,-1.20621795,0.2745862,12.62115855,0.0,-17.0200119019,7.60986804962,-3.63494849205,0.161660820246,-0.18095459044,-0.223112493753,0.799999952316,-209.52166748,-44.5369262695,61.8873405457,4.805271148720001,0.1680450439000012,6.45365810395,22.343612194109998,-3.7093038558999982,16.0
2018-09-11 21:34:20.950,0.0287933055133,-0.38302567772,-0.888034466861,0.161660820246,-0.18095459044,-0.223112493753,-1.20621795,0.2745862,12.62115855,0.0,-17.0200119019,7.60986804962,-3.63494849205,0.161660820246,-0.18095459044,-0.223112493753,0.799999952316,-209.52166748,-44.5369262695,61.8873405457,4.805271148720001,0.17804718010000187,6.299652099619999,22.27182912831,-3.7140345573399984,16.0
2018-09-11 21:34:21.000,0.0287933055133,-0.38302567772,-0.888034466861,0.161660820246,-0.18095459044,-0.223112493753,-1.20621795,0.2745862,12.62115855,0.0,-16.2532043457,9.28037548065,-3.69797873497,0.161660820246,-0.18095459044,-0.223112493753,1.10000002384,-209.52166748,-42.7226486206,62.8873405457,5.655270576520001,0.2180442809999974,5.6633777618500005,21.970218181609997,-3.697978734969998,16.0
2018-09-11 21:34:21.050,0.0287933055133,-0.38302567772,-0.888034466861,0.161660820246,-0.18095459044,-0.223112493753,-1.20621795,0.2745862,12.62115855,0.0,-16.2532043457,9.28037548065,-3.69797873497,0.161660820246,-0.18095459044,-0.223112493753,1.10000002384,-209.52166748,-42.7226486206,62.8873405457,5.6652708054000005,0.248046875,5.490974426279999,21.893235683409998,-3.677128076549998,16.0
2018-09-11 21:34:21.100,0.0287933055133,-0.38302567772,-0.888034466861,0.161660820246,-0.18095459044,-0.223112493753,-1.20621795,0.2745862,12.62115855,0.0,-16.2532043457,9.28037548065,-3.69797873497,0.161660820246,-0.18095459044,-0.223112493753,1.38999998569,-212.013824463,-40.9160804749,63.8873405457,6.44527101521,0.2680435179999989,5.003699302679999,21.64275789261,-3.6431736946099984,16.0
2018-09-11 21:34:21.150,0.0287933055133,-0.38302567772,-0.888034466861,0.161660820246,-0.18095459044,-0.223112493753,-1.20621795,0.2745862,12.62115855,0.0,-16.2532043457,9.28037548065,-3.69797873497,0.161660820246,-0.18095459044,-0.223112493753,1.38999998569,-212.013824463,-40.9160804749,63.8873405457,6.44527101521,0.2680435179999989,5.003699302679999,21.64275789261,-3.6431736946099984,16.0
2018-09-11 21:34:21.200,-0.0113819093054,-0.386156272328,-0.866124392806,-0.0595078319311,-0.271034181118,-0.21871098876,-1.0198916,0.89240515,13.34685065,0.0,-16.2532043457,9.28037548065,-3.69797873497,0.161660820246,-0.18095459044,-0.223112493753,1.67999994755,-212.013824463,-39.1250686646,63.8873405457,7.19527101521,0.308044433500001,4.2174863815000005,21.213552951809998,-3.600095748899998,16.0
2018-09-11 21:34:21.250,-0.0113819093054,-0.386156272328,-0.866124392806,-0.0595078319311,-0.271034181118,-0.21871098876,-1.0198916,0.89240515,13.34685065,0.0,-15.1648168564,11.2975759506,-3.59989666939,-0.0595078319311,-0.271034181118,-0.21871098876,1.9699999094,-212.013824463,-37.3298988342,56.0482177734,6.805840492250001,-0.2550201415999993,3.7901744842999996,20.96928453441,-3.6026735305799984,16.0
2018-09-11 21:34:21.300,-0.0113819093054,-0.386156272328,-0.866124392806,-0.0595078319311,-0.271034181118,-0.21871098876,-1.0198916,0.89240515,13.34685065,0.0,-15.1648168564,11.2975759506,-3.59989666939,-0.0595078319311,-0.271034181118,-0.21871098876,1.9699999094,-212.013824463,-37.3298988342,56.0482177734,6.79584074021,-0.27502059940000123,3.3649911880999994,20.70346212391,-3.592992544169998,16.0
2018-09-11 21:34:21.350,-0.0113819093054,-0.386156272328,-0.866124392806,-0.0595078319311,-0.271034181118,-0.21871098876,-1.0198916,0.89240515,13.34685065,0.0,-15.1648168564,11.2975759506,-3.59989666939,-0.0595078319311,-0.271034181118,-0.21871098876,1.9699999094,-212.013824463,-37.3298988342,56.0482177734,6.79584074021,-0.27502059940000123,3.2188501358000003,20.60657930371,-3.5921640396099983,16.0
2018-09-11 21:34:21.400,-0.0113819093054,-0.386156272328,-0.866124392806,-0.0595078319311,-0.271034181118,-0.21871098876,-1.0198916,0.89240515,13.34685065,0.0,-15.1648168564,11.2975759506,-3.59989666939,-0.0595078319311,-0.271034181118,-0.21871098876,2.25999999046,-232.613555908,-35.5898132324,56.0482177734,7.57584047318,-0.2850189209000007,2.691968917899999,20.25001859661,-3.6183221340199982,16.0
2018-09-11 21:34:21.450,-0.0113819093054,-0.386156272328,-0.866124392806,-0.0595078319311,-0.271034181118,-0.21871098876,-1.0198916,0.89240515,13.34685065,0.0,-15.1648168564,11.2975759506,-3.59989666939,-0.0595078319311,-0.271034181118,-0.21871098876,2.25999999046,-232.613555908,-35.5898132324,56.0482177734,7.56584072113,-0.2650184631000059,2.5650291443000004,20.16096830371,-3.631517410279998,16.0
2018-09-11 21:34:21.500,-0.0113819093054,-0.386156272328,-0.866124392806,-0.0595078319311,-0.271034181118,-0.21871098876,-1.0198916,0.89240515,13.34685065,0.0,-14.162979126,12.758764267,-3.64220929146,-0.0595078319311,-0.271034181118,-0.21871098876,2.55999994278,-263.518341064,-33.8495483398,57.0482177734,8.39584064484,-0.2650184631000059,2.0549364089999997,19.77877473831,-3.6465971469899983,16.0
2018-09-11 21:34:21.550,-0.0113819093054,-0.386156272328,-0.866124392806,-0.0595078319311,-0.271034181118,-0.21871098876,-1.0198916,0.89240515,13.34685065,0.0,-14.162979126,12.758764267,-3.64220929146,-0.0595078319311,-0.271034181118,-0.21871098876,2.55999994278,-263.518341064,-33.8495483398,57.0482177734,8.39584064484,-0.2650184631000059,2.0549364089999997,19.77877473831,-3.6465971469899983,16.0
2018-09-11 21:34:21.600,-0.0113819093054,-0.386156272328,-0.866124392806,-0.0595078319311,-0.271034181118,-0.21871098876,-1.0198916,0.89240515,13.34685065,0.0,-14.162979126,12.758764267,-3.64220929146,-0.0595078319311,-0.271034181118,-0.21871098876,2.8599998951,-263.518341064,-32.152557373,58.0482177734,9.19584059716,-0.2650184631000059,1.2987995147999989,19.18245649341,-3.6522986888899984,16.0
2018-09-11 21:34:21.650,-0.0401874867437,-0.368057046836,-0.840087845917,0.0026867967099,-0.26929217577,-0.282294869423,-0.89240515,0.7256921,12.5721253,0.0,-14.162979126,12.758764267,-3.64220929146,-0.0595078319311,-0.271034181118,-0.21871098876,2.8599998951,-263.518341064,-32.152557373,58.0482177734,9.19584059716,-0.2650184631000059,1.2987995147999989,19.18245649341,-3.6522986888899984,16.0
2018-09-11 21:34:21.700,-0.0401874867437,-0.368057046836,-0.840087845917,0.0026867967099,-0.26929217577,-0.282294869423,-0.89240515,0.7256921,12.5721253,0.0,-14.162979126,12.758764267,-3.64220929146,-0.0595078319311,-0.271034181118,-0.21871098876,3.15999984741,-284.090026855,-30.4632835388,48.4487876892,9.962264061,1.8334159851000038,0.8054895401,18.75966119771,-3.6322603225699983,16.0
2018-09-11 21:34:21.750,-0.0401874867437,-0.368057046836,-0.840087845917,0.0026867967099,-0.26929217577,-0.282294869423,-0.89240515,0.7256921,12.5721253,0.0,-12.9274244308,14.2734088898,-3.60421347618,0.0026867967099,-0.26929217577,-0.282294869423,3.47000002861,-284.090026855,-28.8172836304,48.4487876892,10.74226403239,1.8534164428999986,0.28432464599999996,18.30096864701,-3.5501441955599984,16.0
2018-09-11 21:34:21.800,-0.0401874867437,-0.368057046836,-0.840087845917,0.0026867967099,-0.26929217577,-0.282294869423,-0.89240515,0.7256921,12.5721253,0.0,-12.9274244308,14.2734088898,-3.60421347618,0.0026867967099,-0.26929217577,-0.282294869423,3.47000002861,-284.090026855,-28.8172836304,48.4487876892,10.752264022850001,1.8834152222,0.047399520899999104,18.07951974871,-3.5205407142599983,16.0
2018-09-11 21:34:21.850,-0.0401874867437,-0.368057046836,-0.840087845917,0.0026867967099,-0.26929217577,-0.282294869423,-0.89240515,0.7256921,12.5721253,0.0,-12.9274244308,14.2734088898,-3.60421347618,0.0026867967099,-0.26929217577,-0.282294869423,3.47000002861,-284.090026855,-28.8172836304,48.4487876892,10.752264022850001,1.8834152222,0.047399520899999104,18.07951974871,-3.5205407142599983,16.0
2018-09-11 21:34:21.900,-0.0401874867437,-0.368057046836,-0.840087845917,0.0026867967099,-0.26929217577,-0.282294869423,-0.89240515,0.7256921,12.5721253,0.0,-12.9274244308,14.2734088898,-3.60421347618,0.0026867967099,-0.26929217577,-0.282294869423,3.76999998093,-312.792785645,-27.190870285,49.4487876892,11.52226412299,1.9334182739000028,-0.29227256769999954,17.737924099009998,-3.483854770659998,16.0
2018-09-11 21:34:21.950,-0.0401874867437,-0.368057046836,-0.840087845917,0.0026867967099,-0.26929217577,-0.282294869423,-0.89240515,0.7256921,12.5721253,0.0,-11.4874420166,15.7336044312,-3.35288858414,0.0026867967099,-0.26929217577,-0.282294869423,4.05999994278,-312.792785645,-25.6077289581,50.4487876892,12.222264051463,2.0434150696000017,-0.6581439971999998,17.34593248371,-3.4002707004499984,16.0
2018-09-11 21:34:22.000,-0.0401874867437,-0.368057046836,-0.840087845917,0.0026867967099,-0.26929217577,-0.282294869423,-0.89240515,0.7256921,12.5721253,0.0,-11.4874420166,15.7336044312,-3.35288858414,0.0026867967099,-0.26929217577,-0.282294869423,4.05999994278,-312.792785645,-25.6077289581,50.4487876892,12.212264061,2.063415527300002,-1.045422554,16.92607736591,-3.254188299179998,16.0
2018-09-11 21:34:22.050,-0.0829907611782,-0.351842017131,-0.804128518154,0.0547700449824,-0.359313964844,-0.327437758446,-0.588399,1.1375714,14.8472681,0.0,-11.4874420166,15.7336044312,-3.35288858414,0.0026867967099,-0.26929217577,-0.282294869423,4.05999994278,-312.792785645,-25.6077289581,50.4487876892,12.212264061,2.063415527300002,-1.1682195663000012,16.78596544271,-3.2116591930399983,16.0
2018-09-11 21:34:22.100,-0.0829907611782,-0.351842017131,-0.804128518154,0.0547700449824,-0.359313964844,-0.327437758446,-0.588399,1.1375714,14.8472681,0.0,-11.4874420166,15.7336044312,-3.35288858414,0.0026867967099,-0.26929217577,-0.282294869423,4.34999990463,-312.792785645,-24.0599689484,39.4921913147,11.335311777882,2.867748260500001,-1.6300840378000014,16.21444749831,-3.0406033992799983,16.0
2018-09-11 21:34:22.150,-0.0829907611782,-0.351842017131,-0.804128518154,0.0547700449824,-0.359313964844,-0.327437758446,-0.588399,1.1375714,14.8472681,0.0,-11.4874420166,15.7336044312,-3.35288858414,0.0026867967099,-0.26929217577,-0.282294869423,4.34999990463,-312.792785645,-24.0599689484,39.4921913147,11.335311777882,2.8977470398000023,-1.955584526099999,15.765186786609998,-2.9083068370799983,16.0
2018-09-11 21:34:22.200,-0.0829907611782,-0.351842017131,-0.804128518154,0.0547700449824,-0.359313964844,-0.327437758446,-0.588399,1.1375714,14.8472681,0.0,-9.56435966492,17.240228653,-2.73677778244,0.0547700449824,-0.359313964844,-0.327437758446,4.61000013351,-296.063049316,-22.5831413269,40.4921913147,11.905311763279,2.9177474975000024,-2.060078620899999,15.618502140050001,-2.858297586439998,16.0
2018-09-11 21:34:22.250,-0.0829907611782,-0.351842017131,-0.804128518154,0.0547700449824,-0.359313964844,-0.327437758446,-0.588399,1.1375714,14.8472681,0.0,-9.56435966492,17.240228653,-2.73677778244,0.0547700449824,-0.359313964844,-0.327437758446,4.84999990463,-329.814147949,-21.1654415131,41.4921913147,11.895311772816001,2.9377479553000043,-2.518107414200001,14.938635349279998,-2.613547801969998,16.0
2018-09-11 21:34:22.300,-0.0829907611782,-0.351842017131,-0.804128518154,0.0547700449824,-0.359313964844,-0.327437758446,-0.588399,1.1375714,14.8472681,0.0,-9.56435966492,17.240228653,-2.73677778244,0.0547700449824,-0.359313964844,-0.327437758446,4.84999990463,-329.814147949,-21.1654415131,41.4921913147,12.365311741821,2.947750091500005,-2.743235588100001,14.567637920380001,-2.4748249053999984,16.0
2018-09-11 21:34:22.350,-0.0829907611782,-0.351842017131,-0.804128518154,0.0547700449824,-0.359313964844,-0.327437758446,-0.588399,1.1375714,14.8472681,0.0,-9.56435966492,17.240228653,-2.73677778244,0.0547700449824,-0.359313964844,-0.327437758446,5.05999994278,-329.814147949,-19.7987861633,41.4921913147,12.74531173705,2.7577476501000007,-3.1927194594999992,13.80083417893,-2.1905419826499983,16.0
2018-09-11 21:34:22.400,-0.0829907611782,-0.351842017131,-0.804128518154,0.0547700449824,-0.359313964844,-0.327437758446,-0.588399,1.1375714,14.8472681,0.0,-9.56435966492,17.240228653,-2.73677778244,0.0547700449824,-0.359313964844,-0.327437758446,5.05999994278,-329.814147949,-19.7987861633,41.4921913147,12.74531173705,2.7577476501000007,-3.1927194594999992,13.80083417893,-2.1905419826499983,16.0
2018-09-11 21:34:22.450,-0.0829907611782,-0.351842017131,-0.804128518154,0.0547700449824,-0.359313964844,-0.327437758446,-0.588399,1.1375714,14.8472681,0.0,-9.56435966492,17.240228653,-2.73677778244,0.0547700449824,-0.359313964844,-0.327437758446,5.05999994278,-329.814147949,-19.7987861633,41.4921913147,12.75531172752,2.8177490234000047,-3.5074930191000018,13.222773075109998,-1.9996417760799983,16.0
2018-09-11 21:34:22.500,-0.137770312276,-0.326596496015,-0.748825848798,0.0551290623844,-0.423153936863,-0.172109693289,-0.2353596,0.4903325,16.89685795,0.0,-7.09620189667,18.6472854614,-1.86054766178,0.0547700449824,-0.359313964844,-0.327437758446,5.23999977112,-367.294128418,-18.5150032043,28.8251399994,10.81580030918,1.4944915770999998,-3.7989435196,12.607821464539999,-1.7867311239199983,16.0
2018-09-11 21:34:22.550,-0.137770312276,-0.326596496015,-0.748825848798,0.0551290623844,-0.423153936863,-0.172109693289,-0.2353596,0.4903325,16.89685795,0.0,-7.09620189667,18.6472854614,-1.86054766178,0.0547700449824,-0.359313964844,-0.327437758446,5.23999977112,-367.294128418,-18.5150032043,28.8251399994,10.81580030918,1.4944915770999998,-3.9786157607999986,12.212227344519999,-1.6390413045899983,16.0
2018-09-11 21:34:22.600,-0.137770312276,-0.326596496015,-0.748825848798,0.0551290623844,-0.423153936863,-0.172109693289,-0.2353596,0.4903325,16.89685795,0.0,-7.09620189667,18.6472854614,-1.86054766178,0.0547700449824,-0.359313964844,-0.327437758446,5.38000011444,-367.294128418,-17.3178806305,28.8251399994,11.01580023766,-0.5155067443999997,-4.277670860300001,11.47343730927,-1.3779059648499983,16.0
2018-09-11 21:34:22.650,-0.137770312276,-0.326596496015,-0.748825848798,0.0551290623844,-0.423153936863,-0.172109693289,-0.2353596,0.4903325,16.89685795,0.0,-7.09620189667,18.6472854614,-1.86054766178,0.0547700449824,-0.359313964844,-0.327437758446,5.38000011444,-367.294128418,-17.3178806305,28.8251399994,11.01580023766,-0.5155067443999997,-4.277670860300001,11.47343730927,-1.3779059648499983,16.0
2018-09-11 21:34:22.700,-0.137770312276,-0.326596496015,-0.748825848798,0.0551290623844,-0.423153936863,-0.172109693289,-0.2353596,0.4903325,16.89685795,0.0,-4.9952712059,19.4705810547,-1.05772840977,0.0551290623844,-0.423153936863,-0.172109693289,5.48999977112,-419.877624512,-16.1759109497,29.8251399994,11.14580023289,-2.5355072022000016,-4.469792366000002,10.90162038803,-1.1346813440299983,16.0
2018-09-11 21:34:22.750,-0.137770312276,-0.326596496015,-0.748825848798,0.0551290623844,-0.423153936863,-0.172109693289,-0.2353596,0.4903325,16.89685795,0.0,-4.9952712059,19.4705810547,-1.05772840977,0.0551290623844,-0.423153936863,-0.172109693289,5.48999977112,-419.877624512,-16.1759109497,29.8251399994,11.10580027104,-2.495506286600005,-4.6317853927999995,10.34247684479,-0.9240816235539983,16.0
2018-09-11 21:34:22.800,-0.161182214792,-0.285928932754,-0.724886212102,-0.0876678526402,-0.280586898327,-0.301611840725,-0.50013915,0.81395195,14.48442205,0.0,-4.9952712059,19.4705810547,-1.05772840977,0.0551290623844,-0.423153936863,-0.172109693289,5.55999994278,-419.877624512,-15.1325349808,29.8251399994,11.155800223349999,-4.785507202200002,-4.708804130500001,10.02742576599,-0.8769204020499982,16.0
2018-09-11 21:34:22.850,-0.161182214792,-0.285928932754,-0.724886212102,-0.0876678526402,-0.280586898327,-0.301611840725,-0.50013915,0.81395195,14.48442205,0.0,-4.9952712059,19.4705810547,-1.05772840977,0.0551290623844,-0.423153936863,-0.172109693289,5.55999994278,-419.877624512,-15.1325349808,22.4627456665,8.43895685673,-1.9458732605000009,-4.8275308609,9.53080630303,-0.7288885712619982,16.0
2018-09-11 21:34:22.900,-0.161182214792,-0.285928932754,-0.724886212102,-0.0876678526402,-0.280586898327,-0.301611840725,-0.50013915,0.81395195,14.48442205,0.0,-4.9952712059,19.4705810547,-1.05772840977,0.0551290623844,-0.423153936863,-0.172109693289,5.61999988556,-419.877624512,-14.132557869,23.4627456665,8.54895687104,-4.055873870799999,-4.9178171158,9.00694990158,-0.5278087258339982,16.0
2018-09-11 21:34:22.950,-0.161182214792,-0.285928932754,-0.724886212102,-0.0876678526402,-0.280586898327,-0.301611840725,-0.50013915,0.81395195,14.48442205,0.0,-2.77860713005,19.9241218567,-0.369600594044,-0.0876678526402,-0.280586898327,-0.301611840725,5.61999988556,-419.877624512,-14.132557869,23.4627456665,8.54895687104,-4.055873870799999,-4.941796302800002,8.82850360871,-0.46765261888499815,16.0
2018-09-11 21:34:23.000,-0.161182214792,-0.285928932754,-0.724886212102,-0.0876678526402,-0.280586898327,-0.301611840725,-0.50013915,0.81395195,14.48442205,0.0,-2.77860713005,19.9241218567,-0.369600594044,-0.0876678526402,-0.280586898327,-0.301611840725,5.65000009537,-448.025695801,-13.2470836639,23.4627456665,8.51895689965,-6.535873413100003,-5.0042581558000006,8.18379330635,-0.3014065921309982,16.0
2018-09-11 21:34:23.050,-0.161182214792,-0.285928932754,-0.724886212102,-0.0876678526402,-0.280586898327,-0.301611840725,-0.50013915,0.81395195,14.48442205,0.0,-2.77860713005,19.9241218567,-0.369600594044,-0.0876678526402,-0.280586898327,-0.301611840725,5.65000009537,-448.025695801,-13.2470836639,23.4627456665,8.51895689965,-6.535873413100003,-5.0042581558000006,8.18379330635,-0.3014065921309982,16.0
2018-09-11 21:34:23.100,-0.161182214792,-0.285928932754,-0.724886212102,-0.0876678526402,-0.280586898327,-0.301611840725,-0.50013915,0.81395195,14.48442205,0.0,-2.77860713005,19.9241218567,-0.369600594044,-0.0876678526402,-0.280586898327,-0.301611840725,5.65000009537,-449.149719238,-12.4089221954,24.4627456665,8.53895688057,-8.865873336800004,-5.024491310100002,7.5597475767199995,-0.16766881942699816,16.0
2018-09-11 21:34:23.150,-0.161182214792,-0.285928932754,-0.724886212102,-0.0876678526402,-0.280586898327,-0.301611840725,-0.50013915,0.81395195,14.48442205,0.0,-1.31104564667,19.9716053009,-0.0423199236393,-0.0876678526402,-0.280586898327,-0.301611840725,5.65000009537,-449.149719238,-12.4089221954,24.4627456665,8.528956890109999,-11.875873565700001,-5.0300054549999995,7.200963616369999,-0.07525297999379817,16.0
2018-09-11 21:34:23.200,-0.161182214792,-0.285928932754,-0.724886212102,-0.0876678526402,-0.280586898327,-0.301611840725,-0.50013915,0.81395195,14.48442205,0.0,-1.31104564667,19.9716053009,-0.0423199236393,-0.0876678526402,-0.280586898327,-0.301611840725,5.63999986649,-449.149719238,-11.665561676,24.4627456665,8.458956956869999,-11.865873336800004,-5.015917778,6.341306567195,0.09311319887640183,16.0
2018-09-11 21:34:23.250,-0.161182214792,-0.285928932754,-0.724886212102,-0.0876678526402,-0.280586898327,-0.301611840725,-0.50013915,0.81395195,14.48442205,0.0,-1.31104564667,19.9716053009,-0.0423199236393,-0.0876678526402,-0.280586898327,-0.301611840725,5.63999986649,-449.149719238,-11.665561676,24.4627456665,8.458956956869999,-11.865873336800004,-5.015917778,6.341306567195,0.09311319887640183,16.0
2018-09-11 21:34:23.300,-0.189504703363,-0.23686119541,-0.663017329716,0.0443602949381,-0.272635996342,-0.139424487948,-0.65704555,-0.02941995,14.3373223,0.0,-1.31104564667,19.9716053009,-0.0423199236393,-0.0876678526402,-0.280586898327,-0.301611840725,5.61999988556,-451.630401611,-10.9774045944,24.4627456665,8.39895689488,-14.925872802700002,-4.959849357600001,5.6942084059149,0.23187124729200184,16.0
2018-09-11 21:34:23.350,-0.189504703363,-0.23686119541,-0.663017329716,0.0443602949381,-0.272635996342,-0.139424487948,-0.65704555,-0.02941995,14.3373223,0.0,0.491614788771,19.8520965576,0.337650597095,0.0443602949381,-0.272635996342,-0.139424487948,5.61999988556,-451.630401611,-10.9774045944,11.505383908749,6.11184227467,-12.160202026400004,-4.9248857498,5.381780833009,0.2990546226500018,16.0
2018-09-11 21:34:23.400,-0.189504703363,-0.23686119541,-0.663017329716,0.0443602949381,-0.272635996342,-0.139424487948,-0.65704555,-0.02941995,14.3373223,0.0,0.491614788771,19.8520965576,0.337650597095,0.0443602949381,-0.272635996342,-0.139424487948,5.58999967575,-451.630401611,-10.3880281448,12.505383908749,6.02184224129,-15.300201416000004,-4.852303504900002,4.781742870811,0.4371193051340018,16.0
2018-09-11 21:34:23.450,-0.189504703363,-0.23686119541,-0.663017329716,0.0443602949381,-0.272635996342,-0.139424487948,-0.65704555,-0.02941995,14.3373223,0.0,0.491614788771,19.8520965576,0.337650597095,0.0443602949381,-0.272635996342,-0.139424487948,5.58999967575,-451.630401611,-10.3880281448,12.505383908749,6.02184224129,-15.300201416000004,-4.852303504900002,4.781742870811,0.4371193051340018,16.0
2018-09-11 21:34:23.500,-0.189504703363,-0.23686119541,-0.663017329716,0.0443602949381,-0.272635996342,-0.139424487948,-0.65704555,-0.02941995,14.3373223,0.0,0.491614788771,19.8520965576,0.337650597095,0.0443602949381,-0.272635996342,-0.139424487948,5.53999996185,-455.64364624,-9.84602069855,12.505383908749,5.91184234619,-18.280200958300004,-4.771004676799999,4.377284288409999,0.5163642764090017,16.0
2018-09-11 21:34:23.550,-0.189504703363,-0.23686119541,-0.663017329716,0.0443602949381,-0.272635996342,-0.139424487948,-0.65704555,-0.02941995,14.3373223,0.0,0.491614788771,19.8520965576,0.337650597095,0.0443602949381,-0.272635996342,-0.139424487948,5.53999996185,-455.64364624,-9.84602069855,12.505383908749,5.92184233666,-18.270200729400003,-4.680758476300001,3.9865592718199996,0.5613200664520018,16.0
2018-09-11 21:34:23.600,-0.211184728098,-0.220171239551,-0.641935116532,0.17138427496,-0.144198730588,-0.176192566752,-0.6080123,0.6472389,11.56204035,0.0,2.07360482216,19.5404815674,0.480552554131,0.17138427496,-0.144198730588,-0.176192566752,5.48999977112,-455.64364624,-9.38302326202,8.471971035,3.8836621046,-21.566087722800003,-4.6249094009,3.7528978586199995,0.5160735249520018,16.0
2018-09-11 21:34:23.650,-0.211184728098,-0.220171239551,-0.641935116532,0.17138427496,-0.144198730588,-0.176192566752,-0.6080123,0.6472389,11.56204035,0.0,2.07360482216,19.5404815674,0.480552554131,0.17138427496,-0.144198730588,-0.176192566752,5.48999977112,-455.64364624,-9.38302326202,8.471971035,3.8836621046,-21.566087722800003,-4.5682458877,3.5314378738399994,0.4506069421770018,16.0
2018-09-11 21:34:23.700,-0.211184728098,-0.220171239551,-0.641935116532,0.17138427496,-0.144198730588,-0.176192566752,-0.6080123,0.6472389,11.56204035,0.0,2.07360482216,19.5404815674,0.480552554131,0.17138427496,-0.144198730588,-0.176192566752,5.48999977112,-455.64364624,-9.38302326202,8.471971035,3.8836621046,-21.566087722800003,-4.5682458877,3.5314378738399994,0.4506069421770018,16.0
2018-09-11 21:34:23.750,-0.211184728098,-0.220171239551,-0.641935116532,0.17138427496,-0.144198730588,-0.176192566752,-0.6080123,0.6472389,11.56204035,0.0,2.07360482216,19.5404815674,0.480552554131,0.17138427496,-0.144198730588,-0.176192566752,5.40999984741,-414.470489502,-8.60317993164,8.471971035,3.8236621618299997,-27.136087417590005,-4.294579505900002,2.5933895111099994,0.5016986727710018,16.0
2018-09-11 21:34:23.800,-0.211184728098,-0.220171239551,-0.641935116532,0.17138427496,-0.144198730588,-0.176192566752,-0.6080123,0.6472389,11.56204035,0.0,2.07360482216,19.5404815674,0.480552554131,0.17138427496,-0.144198730588,-0.176192566752,5.40999984741,-414.470489502,-8.60317993164,8.471971035,3.8236621618299997,-27.136087417590005,-4.294579505900002,2.5933895111099994,0.5016986727710018,16.0
2018-09-11 21:34:23.850,-0.211184728098,-0.220171239551,-0.641935116532,0.17138427496,-0.144198730588,-0.176192566752,-0.6080123,0.6472389,11.56204035,0.0,3.4756128788,19.1259746552,0.668612241745,0.17138427496,-0.144198730588,-0.176192566752,5.40999984741,-414.470489502,-8.60317993164,8.471971035,3.78366208076,-27.136087417590005,-4.182221412700001,2.2414009571099998,0.6686122417450018,16.0
2018-09-11 21:34:23.900,-0.183210952866,-0.153061089254,-0.622920078908,-0.522475719452,-0.184101387858,-0.238156035542,-0.32361945,1.1964113,14.32751565,0.0,3.4756128788,19.1259746552,0.668612241745,0.17138427496,-0.144198730588,-0.176192566752,5.35999965668,-405.655670166,-8.29030990601,2.7999410629000003,1.2785133980184,-22.33366870885,-4.003970146199999,1.8145644664799994,0.8703625202180018,16.0
2018-09-11 21:34:23.950,-0.183210952866,-0.153061089254,-0.622920078908,-0.522475719452,-0.184101387858,-0.238156035542,-0.32361945,1.1964113,14.32751565,0.0,3.4756128788,19.1259746552,0.668612241745,0.17138427496,-0.144198730588,-0.176192566752,5.28999996185,-405.655670166,-8.04065799713,2.7999410629000003,0.9985134266284001,-25.08366870885,-4.003970146199999,1.8145644664799994,0.8703625202180018,16.0
2018-09-11 21:34:24.000,-0.183210952866,-0.153061089254,-0.622920078908,-0.522475719452,-0.184101387858,-0.238156035542,-0.32361945,1.1964113,14.32751565,0.0,3.4756128788,19.1259746552,0.668612241745,0.17138427496,-0.144198730588,-0.176192566752,5.28999996185,-405.655670166,-8.04065799713,2.7999410629000003,0.9785133861004001,-25.08366870885,-3.7997732162,1.3856964111399996,0.9579955339430017,16.0
2018-09-11 21:34:24.050,-0.183210952866,-0.153061089254,-0.622920078908,-0.522475719452,-0.184101387858,-0.238156035542,-0.32361945,1.1964113,14.32751565,0.0,3.4756128788,19.1259746552,0.668612241745,0.17138427496,-0.144198730588,-0.176192566752,5.28999996185,-405.655670166,-8.04065799713,2.7999410629000003,0.9785133861004001,-25.08366870885,-3.7997732162,1.3856964111399996,0.9579955339430017,16.0
2018-09-11 21:34:24.100,-0.183210952866,-0.153061089254,-0.622920078908,-0.522475719452,-0.184101387858,-0.238156035542,-0.32361945,1.1964113,14.32751565,0.0,4.60765314102,18.566493988,0.974952757359,-0.522475719452,-0.184101387858,-0.238156035542,5.19999980927,-389.026062012,-7.82656669617,2.7999410629000003,0.8085134290154,-27.243668675467998,-3.6227407455000016,1.1093606948899994,0.9749527573590018,16.0
2018-09-11 21:34:24.150,-0.183210952866,-0.153061089254,-0.622920078908,-0.522475719452,-0.184101387858,-0.238156035542,-0.32361945,1.1964113,14.32751565,0.0,4.60765314102,18.566493988,0.974952757359,-0.522475719452,-0.184101387858,-0.238156035542,5.19999980927,-389.026062012,-7.82656669617,2.7999410629000003,0.8085134290154,-27.243668675467998,-3.5779161452999997,1.0347566604599994,1.0088971853300017,16.0
2018-09-11 21:34:24.200,-0.183210952866,-0.153061089254,-0.622920078908,-0.522475719452,-0.184101387858,-0.238156035542,-0.32361945,1.1964113,14.32751565,0.0,4.60765314102,18.566493988,0.974952757359,-0.522475719452,-0.184101387858,-0.238156035542,5.09999990463,-389.026062012,-7.65598726273,2.7999410629000003,0.4685134254394,-29.3736686707,-3.399607658399999,0.7416648864799997,1.1945586204500018,16.0
2018-09-11 21:34:24.250,-0.183210952866,-0.153061089254,-0.622920078908,-0.522475719452,-0.184101387858,-0.238156035542,-0.32361945,1.1964113,14.32751565,0.0,4.60765314102,18.566493988,0.974952757359,-0.522475719452,-0.184101387858,-0.238156035542,5.09999990463,-389.026062012,-7.65598726273,2.7999410629000003,0.4685134254394,-29.3736686707,-3.3584527969000018,0.6760764121999996,1.2254687547700018,16.0
2018-09-11 21:34:24.300,-0.130310927118,-0.0942959198998,-0.591589789164,-0.305907994509,-0.126171141863,-0.18058077991,-0.53936575,0.36284605,11.95430635,0.0,4.60765314102,18.566493988,0.974952757359,-0.522475719452,-0.184101387858,-0.238156035542,4.98000001907,-371.54598999,-7.51306915283,2.7999410629000003,0.15851343795640002,-31.1236686707,-3.221800804100001,0.4944472312999997,1.2761577367800019,16.0
2018-09-11 21:34:24.350,-0.130310927118,-0.0942959198998,-0.591589789164,-0.305907994509,-0.126171141863,-0.18058077991,-0.53936575,0.36284605,11.95430635,0.0,5.50669145584,17.9317264557,1.41466546059,-0.305907994509,-0.126171141863,-0.18058077991,4.98000001907,-371.54598999,-7.51306915283,-3.3953380584999984,-0.147242799402,-22.0101470947,-3.079247474699999,0.31969738006999915,1.3540886640500018,16.0
2018-09-11 21:34:24.400,-0.130310927118,-0.0942959198998,-0.591589789164,-0.305907994509,-0.126171141863,-0.18058077991,-0.53936575,0.36284605,11.95430635,0.0,5.50669145584,17.9317264557,1.41466546059,-0.305907994509,-0.126171141863,-0.18058077991,4.85999965668,-371.54598999,-7.41366386414,-3.3953380584999984,-0.467242792249,-23.670146942109998,-2.8965520859,0.10247278213999955,1.5062032938000018,16.0
2018-09-11 21:34:24.450,-0.130310927118,-0.0942959198998,-0.591589789164,-0.305907994509,-0.126171141863,-0.18058077991,-0.53936575,0.36284605,11.95430635,0.0,5.50669145584,17.9317264557,1.41466546059,-0.305907994509,-0.126171141863,-0.18058077991,4.85999965668,-371.54598999,-7.41366386414,-3.3953380584999984,-0.467242792249,-23.670146942109998,-2.8965520859,0.10247278213999955,1.5062032938000018,16.0
2018-09-11 21:34:24.500,-0.130310927118,-0.0942959198998,-0.591589789164,-0.305907994509,-0.126171141863,-0.18058077991,-0.53936575,0.36284605,11.95430635,0.0,5.50669145584,17.9317264557,1.41466546059,-0.305907994509,-0.126171141863,-0.18058077991,4.71000003815,-348.171051025,-7.33004951477,-3.3953380584999984,-0.967242747546,-25.230146884889997,-2.6984186171999998,-0.08718490600000006,1.7430374622300018,16.0
2018-09-11 21:34:24.550,-0.130310927118,-0.0942959198998,-0.591589789164,-0.305907994509,-0.126171141863,-0.18058077991,-0.53936575,0.36284605,11.95430635,0.0,5.50669145584,17.9317264557,1.41466546059,-0.305907994509,-0.126171141863,-0.18058077991,4.71000003815,-348.171051025,-7.33004951477,-3.3953380584999984,-0.967242747546,-25.230146884889997,-2.599839210499999,-0.1663284301700001,1.8303240537600018,16.0
2018-09-11 21:34:24.600,-0.130310927118,-0.0942959198998,-0.591589789164,-0.305907994509,-0.126171141863,-0.18058077991,-0.53936575,0.36284605,11.95430635,0.0,5.99406576157,17.4041500092,1.96038663387,-0.305907994509,-0.126171141863,-0.18058077991,4.53999996185,-348.171051025,-7.28211212158,-3.3953380584999984,-1.517242819071,-26.600147247289996,-2.460396766699999,-0.27705192566000036,1.9603866338700018,16.0
2018-09-11 21:34:24.650,-0.130310927118,-0.0942959198998,-0.591589789164,-0.305907994509,-0.126171141863,-0.18058077991,-0.53936575,0.36284605,11.95430635,0.0,5.99406576157,17.4041500092,1.96038663387,-0.305907994509,-0.126171141863,-0.18058077991,4.53999996185,-348.171051025,-7.28211212158,-3.3953380584999984,-1.517242819071,-26.59014701841,-2.3642911910999995,-0.34636592865000004,2.059615850450002,16.0
2018-09-11 21:34:24.700,-0.115190551043,-0.0430058719356,-0.575253290981,0.0488208010793,-0.0576440356672,-0.0530462898314,-0.50013915,0.588399,12.6309652,0.0,5.99406576157,17.4041500092,1.96038663387,-0.305907994509,-0.126171141863,-0.18058077991,4.33999967575,-348.171051025,-7.24598884583,-3.3953380584999984,-2.097242742781,-27.75014686582,-2.2149171829000007,-0.43290853500000015,2.1571702957200016,16.0
2018-09-11 21:34:24.750,-0.115190551043,-0.0430058719356,-0.575253290981,0.0488208010793,-0.0576440356672,-0.0530462898314,-0.50013915,0.588399,12.6309652,0.0,5.99406576157,17.4041500092,1.96038663387,-0.305907994509,-0.126171141863,-0.18058077991,4.33999967575,-348.171051025,-7.24598884583,-6.580652236900001,-5.410384655,-22.90545177462,-2.1123552322000005,-0.48544931411000025,2.1962244510700017,16.0
2018-09-11 21:34:24.800,-0.115190551043,-0.0430058719356,-0.575253290981,0.0488208010793,-0.0576440356672,-0.0530462898314,-0.50013915,0.588399,12.6309652,0.0,5.99406576157,17.4041500092,1.96038663387,-0.305907994509,-0.126171141863,-0.18058077991,4.11000013351,-336.889831543,-7.23366785049,-6.580652236900001,-6.00038456917,-23.9754514694,-1.9770536423000014,-0.5521321296700004,2.221433877940002,16.0
2018-09-11 21:34:24.850,-0.115190551043,-0.0430058719356,-0.575253290981,0.0488208010793,-0.0576440356672,-0.0530462898314,-0.50013915,0.588399,12.6309652,0.0,6.31720352173,16.7920360565,2.2366001606,0.0488208010793,-0.0576440356672,-0.0530462898314,4.11000013351,-336.889831543,-7.23366785049,-6.580652236900001,-6.00038456917,-23.9754514694,-1.8947153090999986,-0.5826916694600008,2.2314848899800017,16.0
2018-09-11 21:34:24.900,-0.115190551043,-0.0430058719356,-0.575253290981,0.0488208010793,-0.0576440356672,-0.0530462898314,-0.50013915,0.588399,12.6309652,0.0,6.31720352173,16.7920360565,2.2366001606,0.0488208010793,-0.0576440356672,-0.0530462898314,3.88999986649,-313.520812988,-7.24117708206,-6.580652236900001,-6.52038455009,-24.8054513931,-1.7577981948999994,-0.6296653747500001,2.251332998280002,16.0
2018-09-11 21:34:24.950,-0.115190551043,-0.0430058719356,-0.575253290981,0.0488208010793,-0.0576440356672,-0.0530462898314,-0.50013915,0.588399,12.6309652,0.0,6.31720352173,16.7920360565,2.2366001606,0.0488208010793,-0.0576440356672,-0.0530462898314,3.65999984741,-313.520812988,-7.26453447342,-6.580652236900001,-7.06038451195,-25.5054521561,-1.6760072708000013,-0.6579465866100005,2.258299827580002,16.0
2018-09-11 21:34:25.000,-0.115190551043,-0.0430058719356,-0.575253290981,0.0488208010793,-0.0576440356672,-0.0530462898314,-0.50013915,0.588399,12.6309652,0.0,6.31720352173,16.7920360565,2.2366001606,0.0488208010793,-0.0576440356672,-0.0530462898314,3.65999984741,-313.520812988,-7.26453447342,-6.580652236900001,-7.06038451195,-25.5054521561,-1.542511939999999,-0.6677560806200002,2.2098820209500016,16.0
2018-09-11 21:34:25.050,-0.115190551043,-0.0430058719356,-0.575253290981,0.0488208010793,-0.0576440356672,-0.0530462898314,-0.50013915,0.588399,12.6309652,0.0,6.31720352173,16.7920360565,2.2366001606,0.0488208010793,-0.0576440356672,-0.0530462898314,3.65999984741,-313.520812988,-7.26453447342,-6.580652236900001,-7.06038451195,-25.5054521561,-1.542511939999999,-0.6677560806200002,2.2098820209500016,16.0
2018-09-11 21:34:25.100,-0.115190551043,-0.0430058719356,-0.575253290981,0.0488208010793,-0.0576440356672,-0.0530462898314,-0.50013915,0.588399,12.6309652,0.0,6.36736059189,16.3664703369,2.12785458565,0.0488208010793,-0.0576440356672,-0.0530462898314,3.4399998188,-282.285888672,-7.28783035278,-6.580652236900001,-7.52038455009,-25.7954521179,-1.4512815475000007,-0.6577258110000006,2.149466753010002,16.0
2018-09-11 21:34:25.150,-0.0314971024705,0.0005710516857,-0.562647328953,-0.590046584606,0.0661891624331,-0.118009291589,-0.4903325,0.6472389,8.03164635,0.0,6.36736059189,16.3664703369,2.12785458565,0.0488208010793,-0.0576440356672,-0.0530462898314,3.4399998188,-282.285888672,-7.28783035278,-6.580652236900001,-7.53038454056,-25.7954521179,-1.396273613,-0.6384987831100002,2.0864164829300016,16.0
2018-09-11 21:34:25.200,-0.0314971024705,0.0005710516857,-0.562647328953,-0.590046584606,0.0661891624331,-0.118009291589,-0.4903325,0.6472389,8.03164635,0.0,6.36736059189,16.3664703369,2.12785458565,0.0488208010793,-0.0576440356672,-0.0530462898314,3.24000000954,-282.285888672,-7.31522750854,-8.536779403699999,-6.34528207778,-15.15806603427,-1.2907209396000017,-0.5739674568100002,1.8297685384800018,16.0
2018-09-11 21:34:25.250,-0.0314971024705,0.0005710516857,-0.562647328953,-0.590046584606,0.0661891624331,-0.118009291589,-0.4903325,0.6472389,8.03164635,0.0,6.36736059189,16.3664703369,2.12785458565,0.0488208010793,-0.0576440356672,-0.0530462898314,3.24000000954,-282.285888672,-7.31522750854,-8.536779403699999,-6.34528207778,-15.15806603427,-1.2907209396000017,-0.5739674568100002,1.8297685384800018,16.0
2018-09-11 21:34:25.300,-0.0314971024705,0.0005710516857,-0.562647328953,-0.590046584606,0.0661891624331,-0.118009291589,-0.4903325,0.6472389,8.03164635,0.0,6.36736059189,16.3664703369,2.12785458565,0.0488208010793,-0.0576440356672,-0.0530462898314,3.04999995232,-282.285888672,-7.33068847656,-8.536779403699999,-6.615282058710001,-14.968065500269999,-1.2160196304,-0.49068737030000076,1.7361561060000017,16.0
2018-09-11 21:34:25.350,-0.0314971024705,0.0005710516857,-0.562647328953,-0.590046584606,0.0661891624331,-0.118009291589,-0.4903325,0.6472389,8.03164635,0.0,6.15643453598,16.1270599365,1.75031244755,-0.590046584606,0.0661891624331,-0.118009291589,3.04999995232,-282.285888672,-7.33068847656,-8.536779403699999,-6.615282058710001,-14.968065500269999,-1.198988914500001,-0.46710634231000014,1.7423173189200019,16.0
2018-09-11 21:34:25.400,-0.0314971024705,0.0005710516857,-0.562647328953,-0.590046584606,0.0661891624331,-0.118009291589,-0.4903325,0.6472389,8.03164635,0.0,6.15643453598,16.1270599365,1.75031244755,-0.590046584606,0.0661891624331,-0.118009291589,2.88999986649,-252.894775391,-7.33837556839,-8.536779403699999,-6.98528242111,-14.57806611057,-1.1348237990999994,-0.3363337516800007,1.7343302965200018,16.0
2018-09-11 21:34:25.450,0.0340071916569,0.0263279033049,-0.548420335558,-0.193115249276,0.119484230876,-0.0763428807259,-0.3726527,0.14709975,9.05153795,0.0,6.15643453598,16.1270599365,1.75031244755,-0.590046584606,0.0661891624331,-0.118009291589,2.88999986649,-252.894775391,-7.33837556839,-8.536779403699999,-6.98528242111,-14.57806611057,-1.1348237990999994,-0.3363337516800007,1.7343302965200018,16.0
2018-09-11 21:34:25.500,0.0340071916569,0.0263279033049,-0.548420335558,-0.193115249276,0.119484230876,-0.0763428807259,-0.3726527,0.14709975,9.05153795,0.0,6.15643453598,16.1270599365,1.75031244755,-0.590046584606,0.0661891624331,-0.118009291589,2.72000002861,-252.894775391,-7.33810758591,-10.396560668900001,-5.612291038033,-6.264987468719999,-1.1022272110000007,-0.2718358039800002,1.6562279462800018,16.0
2018-09-11 21:34:25.550,0.0340071916569,0.0263279033049,-0.548420335558,-0.193115249276,0.119484230876,-0.0763428807259,-0.3726527,0.14709975,9.05153795,0.0,6.15643453598,16.1270599365,1.75031244755,-0.590046584606,0.0661891624331,-0.118009291589,2.57999992371,-232.683563232,-7.32608795166,-10.396560668900001,-5.862291038033,-5.824987888320001,-1.0697107315000007,-0.2041082382200008,1.5888288021100019,16.0
2018-09-11 21:34:25.600,0.0340071916569,0.0263279033049,-0.548420335558,-0.193115249276,0.119484230876,-0.0763428807259,-0.3726527,0.14709975,9.05153795,0.0,5.85366153717,15.9909086227,1.55699241161,-0.193115249276,0.119484230876,-0.0763428807259,2.57999992371,-232.683563232,-7.32608795166,-10.396560668900001,-5.862291038033,-5.824987888320001,-1.0520734787000006,-0.15958499908000068,1.5699845552400018,16.0
2018-09-11 21:34:25.650,0.0340071916569,0.0263279033049,-0.548420335558,-0.193115249276,0.119484230876,-0.0763428807259,-0.3726527,0.14709975,9.05153795,0.0,5.85366153717,15.9909086227,1.55699241161,-0.193115249276,0.119484230876,-0.0763428807259,2.57999992371,-232.683563232,-7.32608795166,-10.396560668900001,-5.862291038033,-5.824987888320001,-1.0296621323000004,-0.09217357635000045,1.5169849395800017,16.0
2018-09-11 21:34:25.700,0.0340071916569,0.0263279033049,-0.548420335558,-0.193115249276,0.119484230876,-0.0763428807259,-0.3726527,0.14709975,9.05153795,0.0,5.85366153717,15.9909086227,1.55699241161,-0.193115249276,0.119484230876,-0.0763428807259,2.44000005722,-203.596679688,-7.29821681976,-10.396560668900001,-6.1222907900829995,-5.33498811722,-0.9929323195999995,-0.02588224411000084,1.3671427965200018,16.0
2018-09-11 21:34:25.750,0.0340071916569,0.0263279033049,-0.548420335558,-0.193115249276,0.119484230876,-0.0763428807259,-0.3726527,0.14709975,9.05153795,0.0,5.85366153717,15.9909086227,1.55699241161,-0.193115249276,0.119484230876,-0.0763428807259,2.44000005722,-203.596679688,-7.29821681976,-10.396560668900001,-6.1222907900829995,-5.33498811722,-0.9757194518999999,0.026326179509999825,1.2747678756700018,16.0
2018-09-11 21:34:25.800,0.0340071916569,0.0263279033049,-0.548420335558,-0.193115249276,0.119484230876,-0.0763428807259,-0.3726527,0.14709975,9.05153795,0.0,5.85366153717,15.9909086227,1.55699241161,-0.193115249276,0.119484230876,-0.0763428807259,2.30999994278,-203.596679688,-7.26251029968,-10.396560668900001,-6.252290904523001,-4.80498743057,-0.9519681930000008,0.10224056243999957,1.1508492231400018,16.0
2018-09-11 21:34:25.850,0.0340071916569,0.0263279033049,-0.548420335558,-0.193115249276,0.119484230876,-0.0763428807259,-0.3726527,0.14709975,9.05153795,0.0,5.58560371399,15.8926763535,1.12285780907,-0.193115249276,0.119484230876,-0.0763428807259,2.30999994278,-203.596679688,-7.26251029968,-10.396560668900001,-6.252290904523001,-4.80498743057,-0.9519681930000008,0.10224056243999957,1.1508492231400018,16.0
2018-09-11 21:34:25.900,0.0576435961001,0.0263118404085,-0.55956550429,-0.0528369769454,0.0487581863999,0.110606454313,-0.5099458,0.18632635,8.63965865,0.0,5.58560371399,15.8926763535,1.12285780907,-0.193115249276,0.119484230876,-0.0763428807259,2.21000003815,-189.290039062,-7.21493148804,-10.396560668900001,-6.392290771002999,-4.16498804093,-0.9185543060000008,0.2405023574899996,0.9933444261550017,16.0
2018-09-11 21:34:25.950,0.0576435961001,0.0263118404085,-0.55956550429,-0.0528369769454,0.0487581863999,0.110606454313,-0.5099458,0.18632635,8.63965865,0.0,5.58560371399,15.8926763535,1.12285780907,-0.193115249276,0.119484230876,-0.0763428807259,2.21000003815,-189.290039062,-7.21493148804,-10.396560668900001,-6.392290771002999,-4.16498804093,-0.9185543060000008,0.2405023574899996,0.9933444261550017,16.0
2018-09-11 21:34:26.000,0.0576435961001,0.0263118404085,-0.55956550429,-0.0528369769454,0.0487581863999,0.110606454313,-0.5099458,0.18632635,8.63965865,0.0,5.58560371399,15.8926763535,1.12285780907,-0.193115249276,0.119484230876,-0.0763428807259,2.11999988556,-189.290039062,-7.15945863724,-8.868066787699998,-4.925289154050001,-1.2141013145399997,-0.8989238739000012,0.3747277259899997,0.8498934507370017,16.0
2018-09-11 21:34:26.050,0.0576435961001,0.0263118404085,-0.55956550429,-0.0528369769454,0.0487581863999,0.110606454313,-0.5099458,0.18632635,8.63965865,0.0,5.28886222839,15.8417625427,0.789445817471,-0.0528369769454,0.0487581863999,0.110606454313,2.11999988556,-189.290039062,-7.15945863724,-8.868066787699998,-4.925289154050001,-1.2141013145399997,-0.8980093002,0.42815160751999937,0.7894458174710017,16.0
2018-09-11 21:34:26.100,0.0576435961001,0.0263118404085,-0.55956550429,-0.0528369769454,0.0487581863999,0.110606454313,-0.5099458,0.18632635,8.63965865,0.0,5.28886222839,15.8417625427,0.789445817471,-0.0528369769454,0.0487581863999,0.110606454313,2.03999996185,-189.290039062,-7.09608983994,-8.868066787699998,-5.005289554599999,-0.5141010284399998,-0.8887233733999995,0.5053548812899997,0.6586853265760018,16.0
2018-09-11 21:34:26.150,0.0576435961001,0.0263118404085,-0.55956550429,-0.0528369769454,0.0487581863999,0.110606454313,-0.5099458,0.18632635,8.63965865,0.0,5.28886222839,15.8417625427,0.789445817471,-0.0528369769454,0.0487581863999,0.110606454313,1.97999989986,-177.313995361,-7.01301336288,-8.868066787699998,-5.01528930664,0.2258987426800001,-0.8850383758000007,0.5338039398199994,0.6148139834400018,16.0
2018-09-11 21:34:26.200,0.0576435961001,0.0263118404085,-0.55956550429,-0.0528369769454,0.0487581863999,0.110606454313,-0.5099458,0.18632635,8.63965865,0.0,5.28886222839,15.8417625427,0.789445817471,-0.0528369769454,0.0487581863999,0.110606454313,1.97999989986,-177.313995361,-7.01301336288,-8.868066787699998,-5.01528930664,0.2258987426800001,-0.8835763931000002,0.6117095947299998,0.5096715092660018,16.0
2018-09-11 21:34:26.250,0.0576435961001,0.0263118404085,-0.55956550429,-0.0528369769454,0.0487581863999,0.110606454313,-0.5099458,0.18632635,8.63965865,0.0,5.28886222839,15.8417625427,0.789445817471,-0.0528369769454,0.0487581863999,0.110606454313,1.97999989986,-177.313995361,-7.01301336288,-8.868066787699998,-5.01528930664,0.2258987426800001,-0.8835763931000002,0.6117095947299998,0.5096715092660018,16.0
2018-09-11 21:34:26.300,0.0576435961001,0.0263118404085,-0.55956550429,-0.0528369769454,0.0487581863999,0.110606454313,-0.5099458,0.18632635,8.63965865,0.0,4.94917345047,15.8257408142,0.293973445892,-0.0528369769454,0.0487581863999,0.110606454313,1.93999993801,-160.266693115,-6.92993688583,-8.868066787699998,-5.03528928757,1.00589895249,-0.8819875716999999,0.7678403854399996,0.2939734458920018,16.0
2018-09-11 21:34:26.350,0.0576435961001,0.0263118404085,-0.55956550429,-0.0528369769454,0.0487581863999,0.110606454313,-0.5099458,0.18632635,8.63965865,0.0,4.94917345047,15.8257408142,0.293973445892,-0.0528369769454,0.0487581863999,0.110606454313,1.93999993801,-160.266693115,-6.92993688583,-8.868066787699998,-5.03528928757,1.00589895249,-0.8838481903000002,0.7967538833599992,0.2654722034930018,16.0
