%time,field.orientation.x,field.orientation.y,field.orientation.z,field.angular_velocity.x,field.angular_velocity.y,field.angular_velocity.z,field.linear_acceleration.x,field.linear_acceleration.y,field.linear_acceleration.z,field.data,field.twist.linear.x,field.twist.linear.y,field.twist.linear.z,field.twist.angular.x,field.twist.angular.y,field.twist.angular.z,field.alt_error,field.aspd_error,field.xtrack_error,delta_yaw,delta_pitch,delta_roll,delta_x,delta_y,delta_z,delta_roll_airspeed
2018-09-11 19:19:06.600,,,,,,,,,,0.0,,,,,,,-0.170000001788,-672.772216797,-40.4758415222,184.332277298,-1.74447250366,15.953357696599998,-5.060607910200002,9.029691974120212,0.846265673637002,15.0
2018-09-11 19:19:06.650,,,,,,,,,,0.0,,,,,,,-0.170000001788,-672.772216797,-40.4758415222,178.8819484711,-2.2462033033299997,15.4402980805,-5.105998992899998,8.936819354490213,0.852194070816002,15.0
2018-09-11 19:19:06.700,-0.131939872748,-0.218393784398,-0.809134860834,0.218985006213,-0.0891739279032,-0.149727910757,0.28439285,0.61781895,11.13054775,0.0,,,,,,,-0.269999980927,-656.864929199,-38.2473297119,178.8819484711,-2.47620332241,15.4402980805,-5.105998992899998,8.936819354490213,0.852194070816002,15.0
2018-09-11 19:19:06.750,-0.131939872748,-0.218393784398,-0.809134860834,0.218985006213,-0.0891739279032,-0.149727910757,0.28439285,0.61781895,11.13054775,0.0,,,,,,,-0.269999980927,-656.864929199,-38.2473297119,178.8819484711,-2.46620333194,15.4402980805,-5.2366676331000015,8.482094088990213,0.818362295628002,15.0
2018-09-11 19:19:06.800,-0.131939872748,-0.218393784398,-0.809134860834,0.218985006213,-0.0891739279032,-0.149727910757,0.28439285,0.61781895,11.13054775,0.0,,,,,,,-0.379999995232,-656.864929199,55.7144546509,67.8819484711,-4.66620314121,15.4402980805,-5.3149681091000005,8.065437594850213,0.826148033142002,16.0
2018-09-11 19:19:06.850,-0.131939872748,-0.218393784398,-0.809134860834,0.218985006213,-0.0891739279032,-0.149727910757,0.28439285,0.61781895,11.13054775,0.0,-8.27314949036,21.2801818848,0.82424479723,0.218985006213,-0.0891739279032,-0.149727910757,-0.379999995232,-656.864929199,55.7144546509,67.8819484711,-4.65620338916,15.4402980805,-5.3296661376999985,7.962504188020212,0.822294354439002,16.0
2018-09-11 19:19:06.900,-0.131939872748,-0.218393784398,-0.809134860834,0.218985006213,-0.0891739279032,-0.149727910757,0.28439285,0.61781895,11.13054775,0.0,-8.27314949036,21.2801818848,0.82424479723,0.218985006213,-0.0891739279032,-0.149727910757,-0.489999979734,-555.630493164,56.5174980164,67.8819484711,-6.86620295047,15.4402980805,-5.368183135999999,7.485031405880212,0.787526071072002,16.0
2018-09-11 19:19:06.950,-0.131939872748,-0.218393784398,-0.809134860834,0.218985006213,-0.0891739279032,-0.149727910757,0.28439285,0.61781895,11.13054775,0.0,-8.27314949036,21.2801818848,0.82424479723,0.218985006213,-0.0891739279032,-0.149727910757,-0.489999979734,-555.630493164,56.5174980164,67.8819484711,-6.86620295047,15.4402980805,-5.368183135999999,7.485031405880212,0.787526071072002,16.0
2018-09-11 19:19:07.000,-0.131939872748,-0.218393784398,-0.809134860834,0.218985006213,-0.0891739279032,-0.149727910757,0.28439285,0.61781895,11.13054775,0.0,-8.27314949036,21.2801818848,0.82424479723,0.218985006213,-0.0891739279032,-0.149727910757,-0.599999964237,-555.630493164,57.2360153198,67.8819484711,-9.04620277877,15.4402980805,-5.368183135999999,7.485031405880212,0.787526071072002,16.0
2018-09-11 19:19:07.050,-0.174785328317,-0.263896128312,-0.767121684913,0.253227561712,-0.0510744377971,-0.23456761241,-1.3925443,0.6472389,11.56204035,0.0,-6.74784994125,21.4172897339,0.761269569397,0.218985006213,-0.0891739279032,-0.149727910757,-0.709999978542,-525.65802002,57.9038085938,62.4419307709,-10.72121000286,8.100093841499998,-5.4201164246,6.481231490570212,0.726399779320002,16.0
2018-09-11 19:19:07.100,-0.174785328317,-0.263896128312,-0.767121684913,0.253227561712,-0.0510744377971,-0.23456761241,-1.3925443,0.6472389,11.56204035,0.0,-6.74784994125,21.4172897339,0.761269569397,0.218985006213,-0.0891739279032,-0.149727910757,-0.709999978542,-525.65802002,57.9038085938,62.4419307709,-10.70121049876,8.090091705299997,-5.414194107099998,6.250738898710212,0.665327429771002,16.0
2018-09-11 19:19:07.150,-0.174785328317,-0.263896128312,-0.767121684913,0.253227561712,-0.0510744377971,-0.23456761241,-1.3925443,0.6472389,11.56204035,0.0,-6.74784994125,21.4172897339,0.761269569397,0.218985006213,-0.0891739279032,-0.149727910757,-0.709999978542,-525.65802002,57.9038085938,62.4419307709,-10.69121026996,8.090091705299997,-5.4030666351,6.021397391750212,0.582816720009002,16.0
2018-09-11 19:19:07.200,-0.174785328317,-0.263896128312,-0.767121684913,0.253227561712,-0.0510744377971,-0.23456761241,-1.3925443,0.6472389,11.56204035,0.0,-5.68854856491,21.3972606659,0.450775980949,0.253227561712,-0.0510744377971,-0.23456761241,-0.819999992847,-525.65802002,58.503944397,62.4419307709,-12.75120973586,8.080093383799998,-5.3998622894000015,5.791710177860212,0.49944940209400196,16.0
2018-09-11 19:19:07.250,-0.174785328317,-0.263896128312,-0.767121684913,0.253227561712,-0.0510744377971,-0.23456761241,-1.3925443,0.6472389,11.56204035,0.0,-5.68854856491,21.3972606659,0.450775980949,0.253227561712,-0.0510744377971,-0.23456761241,-0.819999992847,-525.65802002,58.503944397,62.4419307709,-12.75120973586,8.080093383799998,-5.3998622894000015,5.791710177860212,0.49944940209400196,16.0
2018-09-11 19:19:07.300,-0.174785328317,-0.263896128312,-0.767121684913,0.253227561712,-0.0510744377971,-0.23456761241,-1.3925443,0.6472389,11.56204035,0.0,-5.68854856491,21.3972606659,0.450775980949,0.253227561712,-0.0510744377971,-0.23456761241,-0.909999966621,-508.838470459,59.0449447632,62.4419307709,-14.651210308060001,8.050094604499996,-5.3628616333,5.230423251590212,0.24928461015200198,16.0
2018-09-11 19:19:07.350,-0.174785328317,-0.263896128312,-0.767121684913,0.253227561712,-0.0510744377971,-0.23456761241,-1.3925443,0.6472389,11.56204035,0.0,-5.68854856491,21.3972606659,0.450775980949,0.253227561712,-0.0510744377971,-0.23456761241,-0.909999966621,-508.838470459,59.0449447632,62.4419307709,-14.63120985026,8.040092468200001,-5.3409614563000005,5.025455752810212,0.12264813482800195,16.0
2018-09-11 19:19:07.400,-0.174785328317,-0.263896128312,-0.767121684913,0.253227561712,-0.0510744377971,-0.23456761241,-1.3925443,0.6472389,11.56204035,0.0,-5.68854856491,21.3972606659,0.450775980949,0.253227561712,-0.0510744377971,-0.23456761241,-0.979999959469,-508.838470459,59.5267448425,62.4419307709,-16.40121030806,8.0200920105,-5.305122375500002,4.738516608670213,-0.08242811262609805,16.0
2018-09-11 19:19:07.450,-0.174785328317,-0.263896128312,-0.767121684913,0.253227561712,-0.0510744377971,-0.23456761241,-1.3925443,0.6472389,11.56204035,0.0,-4.3319849968,21.2536201477,-0.3520142138,0.253227561712,-0.0510744377971,-0.23456761241,-0.979999959469,-508.838470459,59.5267448425,62.4419307709,-16.39121007916,8.000091552699999,-5.283388137799999,4.542404452760212,-0.22007524967199804,16.0
2018-09-11 19:19:07.500,-0.174785328317,-0.263896128312,-0.767121684913,0.253227561712,-0.0510744377971,-0.23456761241,-1.3925443,0.6472389,11.56204035,0.0,-4.3319849968,21.2536201477,-0.3520142138,0.253227561712,-0.0510744377971,-0.23456761241,-1.01999998093,-479.767608643,59.9663047791,62.4419307709,-16.94120931626,7.960094451899998,-5.2244911194,4.1197417177702125,-0.49149703979499804,16.0
2018-09-11 19:19:07.550,-0.174785328317,-0.263896128312,-0.767121684913,0.253227561712,-0.0510744377971,-0.23456761241,-1.3925443,0.6472389,11.56204035,0.0,-4.3319849968,21.2536201477,-0.3520142138,0.253227561712,-0.0510744377971,-0.23456761241,-1.01999998093,-479.767608643,59.9663047791,62.4419307709,-16.85120916366,7.940093994100003,-5.2053585051999995,4.022156516510212,-0.559639692306998,16.0
2018-09-11 19:19:07.600,-0.191090705847,-0.313206773448,-0.716368831114,0.114782117307,0.0248251874,-0.246895775199,-1.85345685,0.53936575,8.0022264,0.0,-4.3319849968,21.2536201477,-0.3520142138,0.253227561712,-0.0510744377971,-0.23456761241,-1.01999998093,-479.767608643,60.3466911316,56.9230051041,-12.62759256363,2.0184669495000023,-5.1682357788,3.710832396940212,-0.772837460040998,16.0
2018-09-11 19:19:07.650,-0.191090705847,-0.313206773448,-0.716368831114,0.114782117307,0.0248251874,-0.246895775199,-1.85345685,0.53936575,8.0022264,0.0,-4.3319849968,21.2536201477,-0.3520142138,0.253227561712,-0.0510744377971,-0.23456761241,-1.01999998093,-479.767608643,60.3466911316,56.9230051041,-12.55759286883,1.9884643554999997,-5.1352634429999995,3.5198007025302123,-0.926824212073998,16.0
2018-09-11 19:19:07.700,-0.191090705847,-0.313206773448,-0.716368831114,0.114782117307,0.0248251874,-0.246895775199,-1.85345685,0.53936575,8.0022264,0.0,-3.13834381104,21.0580291748,-1.25982320309,0.114782117307,0.0248251874,-0.246895775199,-1.0,-443.149169922,60.6847839355,56.9230051041,-12.467592716229998,1.928466796899997,-5.0580291748000015,3.138349811040212,-1.259823203089998,16.0
2018-09-11 19:19:07.750,-0.191090705847,-0.313206773448,-0.716368831114,0.114782117307,0.0248251874,-0.246895775199,-1.85345685,0.53936575,8.0022264,0.0,-3.13834381104,21.0580291748,-1.25982320309,0.114782117307,0.0248251874,-0.246895775199,-1.0,-443.149169922,60.6847839355,56.9230051041,-12.417591571829998,1.8984642029000014,-5.034431457499998,3.0493042864402122,-1.351791501049998,16.0
2018-09-11 19:19:07.800,-0.191090705847,-0.313206773448,-0.716368831114,0.114782117307,0.0248251874,-0.246895775199,-1.85345685,0.53936575,8.0022264,0.0,-3.13834381104,21.0580291748,-1.25982320309,0.114782117307,0.0248251874,-0.246895775199,-0.930000007153,-443.149169922,60.9721832275,56.9230051041,-12.38759279253,1.8584671021000005,-4.9759368896,2.7724903025202123,-1.601132035259998,16.0
2018-09-11 19:19:07.850,-0.191090705847,-0.313206773448,-0.716368831114,0.114782117307,0.0248251874,-0.246895775199,-1.85345685,0.53936575,8.0022264,0.0,-3.13834381104,21.0580291748,-1.25982320309,0.114782117307,0.0248251874,-0.246895775199,-0.930000007153,-443.149169922,60.9721832275,56.9230051041,-12.32759141923,1.3684654236,-4.938112258899999,2.5895140566402124,-1.753935337069998,16.0
2018-09-11 19:19:07.900,-0.187140262098,-0.331604645359,-0.686126903249,0.0344711765647,-0.000961646437645,-0.241212874651,-2.0005566,0.7453054,7.07059465,0.0,-3.13834381104,21.0580291748,-1.25982320309,0.114782117307,0.0248251874,-0.246895775199,-0.819999992847,-432.160766602,61.2172889709,56.9230051041,-12.297592639929999,1.3084640503000031,-4.8612346649,2.331981698470212,-2.0102822780599983,16.0
2018-09-11 19:19:07.950,-0.187140262098,-0.331604645359,-0.686126903249,0.0344711765647,-0.000961646437645,-0.241212874651,-2.0005566,0.7453054,7.07059465,0.0,-3.13834381104,21.0580291748,-1.25982320309,0.114782117307,0.0248251874,-0.246895775199,-0.819999992847,-432.160766602,61.2172889709,53.40550518036,-9.05357646945,-0.04764175420000072,-4.820512771600001,2.155317346050212,-2.185547351839998,16.0
2018-09-11 19:19:08.000,-0.187140262098,-0.331604645359,-0.686126903249,0.0344711765647,-0.000961646437645,-0.241212874651,-2.0005566,0.7453054,7.07059465,0.0,-1.98813438416,20.7750377655,-2.33875417709,0.0344711765647,-0.000961646437645,-0.241212874651,-0.669999957085,-432.160766602,61.4201583862,53.40550518036,-9.07357501985,0.052360534700000017,-4.755235672000001,1.9026430048502123,-2.428808689119998,16.0
2018-09-11 19:19:08.050,-0.187140262098,-0.331604645359,-0.686126903249,0.0344711765647,-0.000961646437645,-0.241212874651,-2.0005566,0.7453054,7.07059465,0.0,-1.98813438416,20.7750377655,-2.33875417709,0.0344711765647,-0.000961646437645,-0.241212874651,-0.669999957085,-432.160766602,61.4201583862,53.40550518036,-9.07357501985,0.052360534700000017,-4.7128067017,1.7382439770302123,-2.6029448509199984,16.0
2018-09-11 19:19:08.100,-0.187140262098,-0.331604645359,-0.686126903249,0.0344711765647,-0.000961646437645,-0.241212874651,-2.0005566,0.7453054,7.07059465,0.0,-1.98813438416,20.7750377655,-2.33875417709,0.0344711765647,-0.000961646437645,-0.241212874651,-0.669999957085,-432.160766602,61.4201583862,53.40550518036,-9.07357501985,0.052360534700000017,-4.7128067017,1.7382439770302123,-2.6029448509199984,16.0
2018-09-11 19:19:08.150,-0.187140262098,-0.331604645359,-0.686126903249,0.0344711765647,-0.000961646437645,-0.241212874651,-2.0005566,0.7453054,7.07059465,0.0,-1.98813438416,20.7750377655,-2.33875417709,0.0344711765647,-0.000961646437645,-0.241212874651,-0.479999989271,-408.431640625,61.5807151794,53.40550518036,-9.163575172449999,-0.14764022829999845,-4.570003509500001,1.2352494396702123,-3.1013684272799984,16.0
2018-09-11 19:19:08.200,-0.187140262098,-0.331604645359,-0.686126903249,0.0344711765647,-0.000961646437645,-0.241212874651,-2.0005566,0.7453054,7.07059465,0.0,-1.98813438416,20.7750377655,-2.33875417709,0.0344711765647,-0.000961646437645,-0.241212874651,-0.479999989271,-408.431640625,61.5807151794,53.40550518036,-9.163575172449999,-0.14764022829999845,-4.570003509500001,1.2352494396702123,-3.1013684272799984,16.0
2018-09-11 19:19:08.250,-0.187140262098,-0.331604645359,-0.686126903249,0.0344711765647,-0.000961646437645,-0.241212874651,-2.0005566,0.7453054,7.07059465,0.0,-0.9067081213,20.4884853363,-3.41319990158,0.0344711765647,-0.000961646437645,-0.241212874651,-0.25,-408.431640625,61.7075080872,53.40550518036,-9.30357646945,-0.3276405335000021,-4.488485336299998,0.9067141213002122,-3.4131999015799983,16.0
2018-09-11 19:19:08.300,-0.187140262098,-0.331604645359,-0.686126903249,0.0344711765647,-0.000961646437645,-0.241212874651,-2.0005566,0.7453054,7.07059465,0.0,-0.9067081213,20.4884853363,-3.41319990158,0.0344711765647,-0.000961646437645,-0.241212874651,0.019999999553,-384.885986328,61.8004951477,53.40550518036,-9.483574867249999,-0.5076408385999969,-4.395570755000001,0.5398075379912122,-3.7199146747599983,16.0
2018-09-11 19:19:08.350,-0.187140262098,-0.331604645359,-0.686126903249,0.0344711765647,-0.000961646437645,-0.241212874651,-2.0005566,0.7453054,7.07059465,0.0,-0.9067081213,20.4884853363,-3.41319990158,0.0344711765647,-0.000961646437645,-0.241212874651,0.019999999553,-384.885986328,61.8004951477,53.40550518036,-9.483574867249999,-0.5076408385999969,-4.3575286865,0.36875493307721224,-3.853238582609998,16.0
2018-09-11 19:19:08.400,-0.162507637994,-0.337583281832,-0.634271258288,-0.0357661470771,-0.0581469982862,-0.301366478205,-2.2751428,0.3334261,7.79628675,0.0,-0.9067081213,20.4884853363,-3.41319990158,0.0344711765647,-0.000961646437645,-0.241212874651,0.329999983311,-384.885986328,61.842716217,53.40550518036,-9.593575477649999,-0.6176414489999971,-4.3180828094,0.19002069016121223,-3.9791445732099984,16.0
2018-09-11 19:19:08.450,-0.162507637994,-0.337583281832,-0.634271258288,-0.0357661470771,-0.0581469982862,-0.301366478205,-2.2751428,0.3334261,7.79628675,0.0,0.110728122294,20.2676563263,-4.15678787231,-0.0357661470771,-0.0581469982862,-0.301366478205,0.329999983311,-384.885986328,61.842716217,45.92525017262,-4.0363960265999985,1.3519058227999992,-4.286052703900001,-0.00935907247366777,-4.092420577999998,16.0
2018-09-11 19:19:08.500,-0.162507637994,-0.337583281832,-0.634271258288,-0.0357661470771,-0.0581469982862,-0.301366478205,-2.2751428,0.3334261,7.79628675,0.0,0.110728122294,20.2676563263,-4.15678787231,-0.0357661470771,-0.0581469982862,-0.301366478205,0.680000007153,-364.683532715,61.8511695862,45.92525017262,-4.076396942100001,1.2319068908999995,-4.228580474899999,-0.3119003675397878,-4.284462928769998,16.0
2018-09-11 19:19:08.550,-0.162507637994,-0.337583281832,-0.634271258288,-0.0357661470771,-0.0581469982862,-0.301366478205,-2.2751428,0.3334261,7.79628675,0.0,0.110728122294,20.2676563263,-4.15678787231,-0.0357661470771,-0.0581469982862,-0.301366478205,0.680000007153,-364.683532715,61.8511695862,45.92525017262,-4.086397170999998,1.1319046021000005,-4.166984558100001,-0.6227563820297878,-4.462535858149998,16.0
2018-09-11 19:19:08.600,-0.162507637994,-0.337583281832,-0.634271258288,-0.0357661470771,-0.0581469982862,-0.301366478205,-2.2751428,0.3334261,7.79628675,0.0,0.110728122294,20.2676563263,-4.15678787231,-0.0357661470771,-0.0581469982862,-0.301366478205,1.04999995232,-364.683532715,61.8089065552,45.92525017262,-4.056396484299999,1.061904907299997,-4.111053466800001,-0.9254206023637878,-4.639856338499998,16.0
2018-09-11 19:19:08.650,-0.162507637994,-0.337583281832,-0.634271258288,-0.0357661470771,-0.0581469982862,-0.301366478205,-2.2751428,0.3334261,7.79628675,0.0,0.110728122294,20.2676563263,-4.15678787231,-0.0357661470771,-0.0581469982862,-0.301366478205,1.04999995232,-364.683532715,61.8089065552,45.92525017262,-4.016397476199998,0.991905212399999,-4.094371795699999,-1.0312704644597879,-4.689915180209998,16.0
2018-09-11 19:19:08.700,-0.162507637994,-0.337583281832,-0.634271258288,-0.0357661470771,-0.0581469982862,-0.301366478205,-2.2751428,0.3334261,7.79628675,0.0,0.110728122294,20.2676563263,-4.15678787231,-0.0357661470771,-0.0581469982862,-0.301366478205,1.04999995232,-364.683532715,61.8089065552,45.92525017262,-4.016397476199998,0.991905212399999,-4.094371795699999,-1.0312704644597879,-4.689915180209998,16.0
2018-09-11 19:19:08.750,-0.162507637994,-0.337583281832,-0.634271258288,-0.0357661470771,-0.0581469982862,-0.301366478205,-2.2751428,0.3334261,7.79628675,0.0,1.65969061852,19.9724674225,-5.01182413101,-0.0357661470771,-0.0581469982862,-0.301366478205,1.45999991894,-358.978271484,61.7158851624,45.92525017262,-4.056396484299999,0.8619041442999986,-3.9898166655999994,-1.5488806567597877,-4.964587211609998,16.0
2018-09-11 19:19:08.800,-0.162507637994,-0.337583281832,-0.634271258288,-0.0357661470771,-0.0581469982862,-0.301366478205,-2.2751428,0.3334261,7.79628675,0.0,1.65969061852,19.9724674225,-5.01182413101,-0.0357661470771,-0.0581469982862,-0.301366478205,1.88999998569,-358.978271484,61.5637321472,45.92525017262,-4.116395950299999,0.7919044495000023,-3.9187030792,-1.9876432023497879,-5.139988422389998,16.0
2018-09-11 19:19:08.850,-0.161437689687,-0.342018785249,-0.588638995954,0.032108604908,-0.0843193382025,-0.199954628944,-2.38301595,0.08825985,9.11037785,0.0,1.65969061852,19.9724674225,-5.01182413101,-0.0357661470771,-0.0581469982862,-0.301366478205,1.88999998569,-358.978271484,61.5637321472,39.60980415344,-1.2424888611,1.2330818176000022,-3.9031362533999996,-2.0583865977872,-5.175885200499998,16.0
2018-09-11 19:19:08.900,-0.161437689687,-0.342018785249,-0.588638995954,0.032108604908,-0.0843193382025,-0.199954628944,-2.38301595,0.08825985,9.11037785,0.0,1.65969061852,19.9724674225,-5.01182413101,-0.0357661470771,-0.0581469982862,-0.301366478205,2.33999991417,-345.33404541,61.2882537842,40.60980415344,-1.282489776600002,1.1430816649999969,-3.8244161605999984,-2.5142670012972,-5.325853347779998,16.0
2018-09-11 19:19:08.950,-0.161437689687,-0.342018785249,-0.588638995954,0.032108604908,-0.0843193382025,-0.199954628944,-2.38301595,0.08825985,9.11037785,0.0,2.67606806755,19.8031978607,-5.36110544205,0.032108604908,-0.0843193382025,-0.199954628944,2.33999991417,-345.33404541,61.2882537842,40.60980415344,-1.3024902344000004,1.1130828857000026,-3.7851133347,-2.7423587180671998,-5.394254684449998,16.0
2018-09-11 19:19:09.000,-0.161437689687,-0.342018785249,-0.588638995954,0.032108604908,-0.0843193382025,-0.199954628944,-2.38301595,0.08825985,9.11037785,0.0,2.67606806755,19.8031978607,-5.36110544205,0.032108604908,-0.0843193382025,-0.199954628944,2.80999994278,-345.33404541,61.0314331055,40.60980415344,-1.3624897002999994,1.0630836485999993,-3.7117147445999983,-3.1957235671572,-5.515823841089998,16.0
2018-09-11 19:19:09.050,-0.161437689687,-0.342018785249,-0.588638995954,0.032108604908,-0.0843193382025,-0.199954628944,-2.38301595,0.08825985,9.11037785,0.0,2.67606806755,19.8031978607,-5.36110544205,0.032108604908,-0.0843193382025,-0.199954628944,2.80999994278,-345.33404541,61.0314331055,40.60980415344,-1.3624897002999994,1.0630836485999993,-3.7117147445999983,-3.1957235671572,-5.515823841089998,16.0
2018-09-11 19:19:09.100,-0.161437689687,-0.342018785249,-0.588638995954,0.032108604908,-0.0843193382025,-0.199954628944,-2.38301595,0.08825985,9.11037785,0.0,2.67606806755,19.8031978607,-5.36110544205,0.032108604908,-0.0843193382025,-0.199954628944,3.28999996185,-350.433532715,60.5517082214,40.60980415344,-1.5424900054999995,0.9530830383000009,-3.623752593999999,-3.5653932839679996,-5.614633560179998,16.0
2018-09-11 19:19:09.150,-0.161437689687,-0.342018785249,-0.588638995954,0.032108604908,-0.0843193382025,-0.199954628944,-2.38301595,0.08825985,9.11037785,0.0,4.10928726196,19.5651130676,-5.64368104935,0.032108604908,-0.0843193382025,-0.199954628944,3.28999996185,-350.433532715,60.5517082214,40.60980415344,-1.5824890137000018,0.9330825804999989,-3.6022033690999997,-3.695479467508,-5.625349998469998,16.0
2018-09-11 19:19:09.200,-0.161437689687,-0.342018785249,-0.588638995954,0.032108604908,-0.0843193382025,-0.199954628944,-2.38301595,0.08825985,9.11037785,0.0,4.10928726196,19.5651130676,-5.64368104935,0.032108604908,-0.0843193382025,-0.199954628944,3.28999996185,-350.433532715,60.5517082214,40.60980415344,-1.5824890137000018,0.9330825804999989,-3.6022033690999997,-3.695479467508,-5.625349998469998,16.0
2018-09-11 19:19:09.250,-0.157641589408,-0.332411385147,-0.548917801605,-0.073066174984,-0.10548492521,-0.268207103014,-2.50069575,0.32361945,10.9049948,0.0,4.10928726196,19.5651130676,-5.64368104935,0.032108604908,-0.0843193382025,-0.199954628944,3.78999996185,-350.433532715,60.1820030212,40.60980415344,-1.8324890137000018,0.8230819702000005,-3.5034999846999995,-4.2982762604980005,-5.703553676609999,16.0
2018-09-11 19:19:09.300,-0.157641589408,-0.332411385147,-0.548917801605,-0.073066174984,-0.10548492521,-0.268207103014,-2.50069575,0.32361945,10.9049948,0.0,4.10928726196,19.5651130676,-5.64368104935,0.032108604908,-0.0843193382025,-0.199954628944,4.2999997139,-353.722198486,59.1122741699,35.2472343445,-0.37836456300000165,2.7621994018999985,-3.3919067383000012,-4.2853465080260005,-5.890461921689998,16.0
2018-09-11 19:19:09.350,-0.157641589408,-0.332411385147,-0.548917801605,-0.073066174984,-0.10548492521,-0.268207103014,-2.50069575,0.32361945,10.9049948,0.0,4.10928726196,19.5651130676,-5.64368104935,0.032108604908,-0.0843193382025,-0.199954628944,4.2999997139,-353.722198486,59.1122741699,35.2472343445,-0.408365249700001,2.7221984863999964,-3.3275184630999988,-4.4686536788960005,-5.991262912749998,16.0
2018-09-11 19:19:09.400,-0.157641589408,-0.332411385147,-0.548917801605,-0.073066174984,-0.10548492521,-0.268207103014,-2.50069575,0.32361945,10.9049948,0.0,5.21193122864,19.2564811707,-6.08922338486,-0.073066174984,-0.10548492521,-0.268207103014,4.81999969482,-353.722198486,58.6797142029,35.2472343445,-0.4783649445000009,1.7621994018999985,-3.2660751342999994,-4.657922267916,-6.089223384859999,16.0
2018-09-11 19:19:09.450,-0.157641589408,-0.332411385147,-0.548917801605,-0.073066174984,-0.10548492521,-0.268207103014,-2.50069575,0.32361945,10.9049948,0.0,5.21193122864,19.2564811707,-6.08922338486,-0.073066174984,-0.10548492521,-0.268207103014,4.81999969482,-353.722198486,58.6797142029,35.2472343445,-0.5383644103999998,1.692199707099995,-3.1684894561999997,-4.982397556305999,-6.189132213589998,16.0
2018-09-11 19:19:09.500,-0.153646583051,-0.328510621358,-0.522308151155,0.0162909459323,-0.109476178885,-0.28635174036,-2.5889556,-0.53936575,9.93413645,0.0,5.21193122864,19.2564811707,-6.08922338486,-0.073066174984,-0.10548492521,-0.268207103014,5.36999988556,-367.222015381,58.2045288086,31.2671489716,0.6685237884999999,1.7500877379999977,-3.125014305099999,-4.76202511787,-6.237842559809998,16.0
2018-09-11 19:19:09.550,-0.153646583051,-0.328510621358,-0.522308151155,0.0162909459323,-0.109476178885,-0.28635174036,-2.5889556,-0.53936575,9.93413645,0.0,5.21193122864,19.2564811707,-6.08922338486,-0.073066174984,-0.10548492521,-0.268207103014,5.36999988556,-367.222015381,58.2045288086,31.2671489716,0.6185226440999969,1.7100906371999969,-3.0256643294999996,-5.1140525341,-6.304788112639998,16.0
2018-09-11 19:19:09.600,-0.153646583051,-0.328510621358,-0.522308151155,0.0162909459323,-0.109476178885,-0.28635174036,-2.5889556,-0.53936575,9.93413645,0.0,5.21193122864,19.2564811707,-6.08922338486,-0.073066174984,-0.10548492521,-0.268207103014,5.94000005722,-367.222015381,56.9477081299,33.2671489716,0.5785236358999981,1.610088348399998,-2.9254617691,-5.47451329231,-6.350962638849998,16.0
2018-09-11 19:19:09.650,-0.153646583051,-0.328510621358,-0.522308151155,0.0162909459323,-0.109476178885,-0.28635174036,-2.5889556,-0.53936575,9.93413645,0.0,6.85112953186,18.7862091064,-6.38770484924,0.0162909459323,-0.109476178885,-0.28635174036,5.94000005722,-367.222015381,56.9477081299,33.2671489716,0.5885238647999991,1.610088348399998,-2.8559656143000005,-5.72229027748,-6.373523712159998,16.0
2018-09-11 19:19:09.700,-0.153646583051,-0.328510621358,-0.522308151155,0.0162909459323,-0.109476178885,-0.28635174036,-2.5889556,-0.53936575,9.93413645,0.0,6.85112953186,18.7862091064,-6.38770484924,0.0162909459323,-0.109476178885,-0.28635174036,6.50999975204,-366.865539551,56.4145393372,33.2671489716,0.6185226440999969,0.18008804320000138,-2.7821817397999986,-5.95161032676,-6.412488937379998,16.0
2018-09-11 19:19:09.750,-0.153646583051,-0.328510621358,-0.522308151155,0.0162909459323,-0.109476178885,-0.28635174036,-2.5889556,-0.53936575,9.93413645,0.0,6.85112953186,18.7862091064,-6.38770484924,0.0162909459323,-0.109476178885,-0.28635174036,6.50999975204,-366.865539551,56.4145393372,33.2671489716,0.6285228729999979,0.18008804320000138,-2.7999229430999986,-5.17395234108,-6.4571437835699985,16.0
2018-09-11 19:19:09.800,-0.163736747404,-0.322428646285,-0.486936750177,0.0611682236195,-0.130935683846,-0.175543144345,-2.52030905,-0.3726527,10.26756255,0.0,6.85112953186,18.7862091064,-6.38770484924,0.0162909459323,-0.109476178885,-0.28635174036,7.08999967575,-366.865539551,54.0141105652,37.2671489716,0.6285228729999979,1.7600898741999984,-2.689964294400001,-5.51541399956,-6.511664390559998,15.9899997711
2018-09-11 19:19:09.850,-0.163736747404,-0.322428646285,-0.486936750177,0.0611682236195,-0.130935683846,-0.175543144345,-2.52030905,-0.3726527,10.26756255,0.0,6.85112953186,18.7862091064,-6.38770484924,0.0162909459323,-0.109476178885,-0.28635174036,7.08999967575,-366.865539551,54.0141105652,32.1371994019,1.0257549285999978,2.1146087647000016,-2.6133041381,-5.756269693369999,-6.5350184440599985,15.9899997711
2018-09-11 19:19:09.900,-0.163736747404,-0.322428646285,-0.486936750177,0.0611682236195,-0.130935683846,-0.175543144345,-2.52030905,-0.3726527,10.26756255,0.0,8.23652267456,18.3205623627,-6.57302999496,0.0611682236195,-0.130935683846,-0.175543144345,7.69000005722,-383.416564941,53.4888038635,32.1371994019,1.0257549285999978,0.7746086121000033,-2.4873180389000016,-6.1114928722399995,-6.568057537079998,15.9899997711
2018-09-11 19:19:09.950,-0.163736747404,-0.322428646285,-0.486936750177,0.0611682236195,-0.130935683846,-0.175543144345,-2.52030905,-0.3726527,10.26756255,0.0,8.23652267456,18.3205623627,-6.57302999496,0.0611682236195,-0.130935683846,-0.175543144345,8.30000019073,-383.416564941,52.878238678,32.1371994019,1.1557559966999982,-0.6853904723999946,-2.4066085815000005,-6.34517359733,-6.577882766719998,15.9899997711
2018-09-11 19:19:10.000,-0.163736747404,-0.322428646285,-0.486936750177,0.0611682236195,-0.130935683846,-0.175543144345,-2.52030905,-0.3726527,10.26756255,0.0,8.23652267456,18.3205623627,-6.57302999496,0.0611682236195,-0.130935683846,-0.175543144345,8.30000019073,-383.416564941,52.878238678,32.1371994019,1.235755920399999,-0.6653900145999998,-2.5113515854,-5.3450460434,-6.588101863859999,15.9899997711
2018-09-11 19:19:10.050,-0.163736747404,-0.322428646285,-0.486936750177,0.0611682236195,-0.130935683846,-0.175543144345,-2.52030905,-0.3726527,10.26756255,0.0,8.23652267456,18.3205623627,-6.57302999496,0.0611682236195,-0.130935683846,-0.175543144345,8.30000019073,-383.416564941,52.878238678,32.1371994019,1.235755920399999,-0.6653900145999998,-2.3768472671999987,-5.724177360540001,-6.579095363619998,15.9899997711
2018-09-11 19:19:10.100,-0.180113977121,-0.315151400426,-0.457751812686,-0.0561519339681,-0.130819573998,-0.178517907858,-2.5889556,1.04931155,11.95430635,0.0,8.23652267456,18.3205623627,-6.57302999496,0.0611682236195,-0.130935683846,-0.175543144345,8.89999961853,-390.109619141,49.5189971924,37.1371994019,1.1857547759999996,2.0646095276000054,-2.2281923295000006,-6.0747461319,-6.607785701749998,15.9899997711
2018-09-11 19:19:10.150,-0.180113977121,-0.315151400426,-0.457751812686,-0.0561519339681,-0.130819573998,-0.178517907858,-2.5889556,1.04931155,11.95430635,0.0,9.79141139984,17.7199687958,-6.63825416565,-0.0561519339681,-0.130819573998,-0.178517907858,8.89999961853,-390.109619141,49.5189971924,32.9484558105,0.6932582855000007,1.6759376526000054,-2.1281862258999986,-6.310639381410001,-6.625717639919999,15.9899997711
2018-09-11 19:19:10.200,-0.180113977121,-0.315151400426,-0.457751812686,-0.0561519339681,-0.130819573998,-0.178517907858,-2.5889556,1.04931155,11.95430635,0.0,9.79141139984,17.7199687958,-6.63825416565,-0.0561519339681,-0.130819573998,-0.178517907858,9.51999950409,-390.109619141,48.9535217285,32.9484558105,0.6332588195999982,0.27593994140000433,-2.0308809281,-6.51988983155,-6.661419391629998,15.9899997711
2018-09-11 19:19:10.250,-0.180113977121,-0.315151400426,-0.457751812686,-0.0561519339681,-0.130819573998,-0.178517907858,-2.5889556,1.04931155,11.95430635,0.0,9.79141139984,17.7199687958,-6.63825416565,-0.0561519339681,-0.130819573998,-0.178517907858,9.51999950409,-390.109619141,48.9535217285,32.9484558105,0.6532592772999983,0.2859382630000056,-1.9343156814999993,-6.689919471750001,-6.731571197509998,15.9899997711
2018-09-11 19:19:10.300,-0.180113977121,-0.315151400426,-0.457751812686,-0.0561519339681,-0.130819573998,-0.178517907858,-2.5889556,1.04931155,11.95430635,0.0,9.79141139984,17.7199687958,-6.63825416565,-0.0561519339681,-0.130819573998,-0.178517907858,10.1499996185,-414.327819824,44.5418167114,35.9484558105,0.6232585906999972,1.9759368897000016,-2.1549901962,-5.40537738802,-6.9118514060999985,16.0
2018-09-11 19:19:10.350,-0.180113977121,-0.315151400426,-0.457751812686,-0.0561519339681,-0.130819573998,-0.178517907858,-2.5889556,1.04931155,11.95430635,0.0,9.79141139984,17.7199687958,-6.63825416565,-0.0561519339681,-0.130819573998,-0.178517907858,10.1499996185,-414.327819824,44.5418167114,35.9484558105,0.6032581328999989,1.9759368897000016,-2.1018533706000007,-5.490042686420001,-6.958992481229998,16.0
2018-09-11 19:19:10.400,-0.180113977121,-0.315151400426,-0.457751812686,-0.0561519339681,-0.130819573998,-0.178517907858,-2.5889556,1.04931155,11.95430635,0.0,9.79141139984,17.7199687958,-6.63825416565,-0.0561519339681,-0.130819573998,-0.178517907858,10.7899999619,-413.327789307,44.0814933777,35.9484558105,0.49325942990000016,0.5159378052000037,-1.9012269973000002,-5.80006313322,-7.101220130919998,16.0
2018-09-11 19:19:10.450,-0.180113977121,-0.315151400426,-0.457751812686,-0.0561519339681,-0.130819573998,-0.178517907858,-2.5889556,1.04931155,11.95430635,0.0,10.8339805603,17.0633239746,-7.13680505753,-0.0561519339681,-0.130819573998,-0.178517907858,10.7899999619,-413.327789307,44.0814933777,35.9484558105,0.4532585143999981,0.5059394837000042,-1.7940473556,-5.960093498220001,-7.169596672059998,16.0
2018-09-11 19:19:10.500,-0.180113977121,-0.315151400426,-0.457751812686,-0.0561519339681,-0.130819573998,-0.178517907858,-2.5889556,1.04931155,11.95430635,0.0,10.8339805603,17.0633239746,-7.13680505753,-0.0561519339681,-0.130819573998,-0.178517907858,11.4499998093,-416.90045166,43.5809707642,34.9484558105,0.35325813289999886,-1.1940612792999943,-2.4790964127000006,-4.13021898271,-7.228668212889998,16.0
2018-09-11 19:19:10.550,-0.18385158607,-0.2984808534,-0.416695951869,-0.0652900636196,-0.159446462989,-0.217786818743,-2.7850886,1.44157755,10.4931155,0.0,10.8339805603,17.0633239746,-7.13680505753,-0.0561519339681,-0.130819573998,-0.178517907858,11.4499998093,-416.90045166,43.5809707642,34.9484558105,0.3032588958999973,-1.204063415499995,-2.4196634293,-4.23306703571,-7.2358617782599985,16.0
2018-09-11 19:19:10.600,-0.18385158607,-0.2984808534,-0.416695951869,-0.0652900636196,-0.159446462989,-0.217786818743,-2.7850886,1.44157755,10.4931155,0.0,10.8339805603,17.0633239746,-7.13680505753,-0.0561519339681,-0.130819573998,-0.178517907858,12.1399993896,-416.90045166,37.0701026917,29.5968742371,0.18269538879999914,0.005874633799997753,-2.2583837509,-4.528209209409999,-7.241795539859998,16.0
2018-09-11 19:19:10.650,-0.18385158607,-0.2984808534,-0.416695951869,-0.0652900636196,-0.159446462989,-0.217786818743,-2.7850886,1.44157755,10.4931155,0.0,11.8921442032,16.4513969421,-7.221118927,-0.0652900636196,-0.159446462989,-0.217786818743,12.1399993896,-416.90045166,37.0701026917,29.5968742371,0.03269577020000014,-0.014125823999997067,-2.1479616165,-4.738523960109999,-7.228739738459998,16.0
2018-09-11 19:19:10.700,-0.18385158607,-0.2984808534,-0.416695951869,-0.0652900636196,-0.159446462989,-0.217786818743,-2.7850886,1.44157755,10.4931155,0.0,11.8921442032,16.4513969421,-7.221118927,-0.0652900636196,-0.159446462989,-0.217786818743,12.8199996948,-420.910461426,36.746635437,29.5968742371,-0.2573051452999984,-2.0041236878000035,-1.9090299607000016,-5.16636323931,-7.181453227999998,16.0
2018-09-11 19:19:10.750,-0.18385158607,-0.2984808534,-0.416695951869,-0.0652900636196,-0.159446462989,-0.217786818743,-2.7850886,1.44157755,10.4931155,0.0,11.8921442032,16.4513969421,-7.221118927,-0.0652900636196,-0.159446462989,-0.217786818743,12.8199996948,-420.910461426,36.746635437,29.5968742371,-0.2573051452999984,-2.0041236878000035,-1.9090299607000016,-5.16636323931,-7.181453227999998,16.0
2018-09-11 19:19:10.800,-0.18385158607,-0.2984808534,-0.416695951869,-0.0652900636196,-0.159446462989,-0.217786818743,-2.7850886,1.44157755,10.4931155,0.0,11.8921442032,16.4513969421,-7.221118927,-0.0652900636196,-0.159446462989,-0.217786818743,13.5199995041,-420.910461426,36.3602371216,28.5968742371,-0.46730422979999986,-4.304126739499999,-1.6188850403000004,-5.64556360241,-7.171221256259998,16.0
2018-09-11 19:19:10.850,-0.18385158607,-0.2984808534,-0.416695951869,-0.0652900636196,-0.159446462989,-0.217786818743,-2.7850886,1.44157755,10.4931155,0.0,11.8921442032,16.4513969421,-7.221118927,-0.0652900636196,-0.159446462989,-0.217786818743,14.1899995804,-449.5184021,35.9189605713,27.5968742371,-0.5673046112000009,-6.5741252899,-1.6188850403000004,-5.64556360241,-7.171221256259998,16.0
2018-09-11 19:19:10.900,-0.18385158607,-0.2984808534,-0.416695951869,-0.0652900636196,-0.159446462989,-0.217786818743,-2.7850886,1.44157755,10.4931155,0.0,13.0462751389,15.7467823029,-7.18874788284,-0.0652900636196,-0.159446462989,-0.217786818743,14.1899995804,-449.5184021,35.9189605713,27.5968742371,-0.637304306099999,-6.5841255188000005,-1.3260784149000013,-6.08437776561,-7.192187786099998,16.0
2018-09-11 19:19:10.950,-0.18385158607,-0.2984808534,-0.416695951869,-0.0652900636196,-0.159446462989,-0.217786818743,-2.7850886,1.44157755,10.4931155,0.0,13.0462751389,15.7467823029,-7.18874788284,-0.0652900636196,-0.159446462989,-0.217786818743,14.1899995804,-449.5184021,35.9189605713,27.5968742371,-0.637304306099999,-6.5841255188000005,-1.3260784149000013,-6.08437776561,-7.192187786099998,16.0
2018-09-11 19:19:11.000,-0.165517196375,-0.276979323695,-0.373134714259,-0.069050014019,-0.119300238788,-0.17129214108,-2.745862,0.55897905,10.54214875,0.0,13.0462751389,15.7467823029,-7.18874788284,-0.0652900636196,-0.159446462989,-0.217786818743,14.8800001144,-449.5184021,35.4321594238,27.5968742371,-0.7673053741999993,-8.994125366199999,-1.6896820069,-5.34466075896,-7.1991567611699985,16.0
2018-09-11 19:19:11.050,-0.165517196375,-0.276979323695,-0.373134714259,-0.069050014019,-0.119300238788,-0.17129214108,-2.745862,0.55897905,10.54214875,0.0,13.0462751389,15.7467823029,-7.18874788284,-0.0652900636196,-0.159446462989,-0.217786818743,14.8800001144,-449.5184021,35.4321594238,20.5175552368,-0.27133369449999734,-4.5348072052,-1.406074524000001,-5.75594520566,-7.206785202029998,16.0
2018-09-11 19:19:11.100,-0.165517196375,-0.276979323695,-0.373134714259,-0.069050014019,-0.119300238788,-0.17129214108,-2.745862,0.55897905,10.54214875,0.0,13.9694023132,15.1201076508,-7.20021533966,-0.069050014019,-0.119300238788,-0.17129214108,15.5699996948,-467.541137695,31.98046875,20.5175552368,-0.4113330841000007,-5.574806213400002,-1.2917947769999998,-5.92093944546,-7.200215339659998,16.0
2018-09-11 19:19:11.150,-0.165517196375,-0.276979323695,-0.373134714259,-0.069050014019,-0.119300238788,-0.17129214108,-2.745862,0.55897905,10.54214875,0.0,13.9694023132,15.1201076508,-7.20021533966,-0.069050014019,-0.119300238788,-0.17129214108,15.5699996948,-467.541137695,31.98046875,20.5175552368,-0.47133255009999786,-5.574806213400002,-1.2358388901000001,-6.00034427646,-7.198229789729998,16.0
2018-09-11 19:19:11.200,-0.165517196375,-0.276979323695,-0.373134714259,-0.069050014019,-0.119300238788,-0.17129214108,-2.745862,0.55897905,10.54214875,0.0,13.9694023132,15.1201076508,-7.20021533966,-0.069050014019,-0.119300238788,-0.17129214108,15.5699996948,-467.541137695,31.98046875,20.5175552368,-0.47133255009999786,-5.574806213400002,-1.2358388901000001,-6.00034427646,-7.198229789729998,16.0
2018-09-11 19:19:11.250,-0.165517196375,-0.276979323695,-0.373134714259,-0.069050014019,-0.119300238788,-0.17129214108,-2.745862,0.55897905,10.54214875,0.0,13.9694023132,15.1201076508,-7.20021533966,-0.069050014019,-0.119300238788,-0.17129214108,16.2600002289,-467.541137695,31.5326919556,20.5175552368,0.42866706850000114,-8.004806518600002,-1.8970947265000007,-4.96855068208,-7.1826844215399985,16.0
2018-09-11 19:19:11.300,-0.165517196375,-0.276979323695,-0.373134714259,-0.069050014019,-0.119300238788,-0.17129214108,-2.745862,0.55897905,10.54214875,0.0,13.9694023132,15.1201076508,-7.20021533966,-0.069050014019,-0.119300238788,-0.17129214108,16.2600002289,-467.541137695,31.5326919556,20.5175552368,0.42866706850000114,-8.004806518600002,-1.8970947265000007,-4.96855068208,-7.1826844215399985,16.0
2018-09-11 19:19:11.350,-0.165517196375,-0.276979323695,-0.373134714259,-0.069050014019,-0.119300238788,-0.17129214108,-2.745862,0.55897905,10.54214875,0.0,14.9307165146,14.4294261932,-7.12568998337,-0.069050014019,-0.119300238788,-0.17129214108,16.9599990845,-476.910980225,26.3770618439,21.5175552368,2.678667068500001,-8.174806594900001,-1.6306371688999999,-5.322312355080001,-7.1493067741399985,15.9899997711
2018-09-11 19:19:11.400,-0.165517196375,-0.276979323695,-0.373134714259,-0.069050014019,-0.119300238788,-0.17129214108,-2.745862,0.55897905,10.54214875,0.0,14.9307165146,14.4294261932,-7.12568998337,-0.069050014019,-0.119300238788,-0.17129214108,17.6399993896,-477.911010742,26.0553722382,21.5175552368,4.888668060300002,-10.314805984500001,-1.4373149872000006,-5.598146438580001,-7.096593379969998,15.9899997711
2018-09-11 19:19:11.450,-0.134525313259,-0.249645700874,-0.346051467926,-0.251408398151,-0.103001661599,-0.156987294555,-2.7066354,0.04903325,10.81673495,0.0,14.9307165146,14.4294261932,-7.12568998337,-0.069050014019,-0.119300238788,-0.17129214108,17.6399993896,-477.911010742,26.0553722382,16.1783676147,4.567041397099999,-4.536546707199999,-1.3384790419999995,-5.73322200778,-7.0584626197799984,15.9899997711
2018-09-11 19:19:11.500,-0.134525313259,-0.249645700874,-0.346051467926,-0.251408398151,-0.103001661599,-0.156987294555,-2.7066354,0.04903325,10.81673495,0.0,14.9307165146,14.4294261932,-7.12568998337,-0.069050014019,-0.119300238788,-0.17129214108,18.3400001526,-498.217590332,25.6791706085,15.1783676147,6.757040977499999,-6.786546707199999,-1.5864715575999995,-5.407690048260001,-7.0282492637599985,15.9899997711
2018-09-11 19:19:11.550,-0.134525313259,-0.249645700874,-0.346051467926,-0.251408398151,-0.103001661599,-0.156987294555,-2.7066354,0.04903325,10.81673495,0.0,14.9307165146,14.4294261932,-7.12568998337,-0.069050014019,-0.119300238788,-0.17129214108,18.3400001526,-498.217590332,25.6791706085,15.1783676147,6.737040519799999,-6.786546707199999,-1.4897727965999987,-5.53996849056,-7.010826587679999,15.9899997711
2018-09-11 19:19:11.600,-0.134525313259,-0.249645700874,-0.346051467926,-0.251408398151,-0.103001661599,-0.156987294555,-2.7066354,0.04903325,10.81673495,0.0,15.7015695572,13.8674554825,-6.95243120193,-0.251408398151,-0.103001661599,-0.156987294555,19.0,-498.217590332,23.7670211792,15.1783676147,8.8570404053,-8.046545028699999,-1.3493165968999996,-5.72670936586,-6.968644142149998,16.0
2018-09-11 19:19:11.650,-0.134525313259,-0.249645700874,-0.346051467926,-0.251408398151,-0.103001661599,-0.156987294555,-2.7066354,0.04903325,10.81673495,0.0,15.7015695572,13.8674554825,-6.95243120193,-0.251408398151,-0.103001661599,-0.156987294555,19.0,-498.217590332,23.7670211792,15.1783676147,8.8470411301,-8.026546478299998,-1.2732601164999995,-5.840898513760001,-6.933361053469998,16.0
2018-09-11 19:19:11.700,-0.134525313259,-0.249645700874,-0.346051467926,-0.251408398151,-0.103001661599,-0.156987294555,-2.7066354,0.04903325,10.81673495,0.0,15.7015695572,13.8674554825,-6.95243120193,-0.251408398151,-0.103001661599,-0.156987294555,19.6700000763,-516.166870117,23.3952350616,15.1783676147,10.93704032902,-10.1165466309,-1.454841613800001,-5.6636457443,-6.838248729709998,16.0
2018-09-11 19:19:11.750,-0.134525313259,-0.249645700874,-0.346051467926,-0.251408398151,-0.103001661599,-0.156987294555,-2.7066354,0.04903325,10.81673495,0.0,15.7015695572,13.8674554825,-6.95243120193,-0.251408398151,-0.103001661599,-0.156987294555,19.6700000763,-516.166870117,23.3952350616,15.1783676147,10.93704032902,-10.1165466309,-1.454841613800001,-5.6636457443,-6.838248729709998,16.0
2018-09-11 19:19:11.800,-0.105738700259,-0.222727173581,-0.32371229689,-0.155133202672,-0.171985402703,-0.136384889483,-2.30456275,0.32361945,12.05237285,0.0,15.7015695572,13.8674554825,-6.95243120193,-0.251408398151,-0.103001661599,-0.156987294555,20.3299999237,-516.166870117,21.5349025726,10.730270385700003,12.04247283938,-6.0103111267,-1.2901887894000001,-5.9268751144,-6.7126870155299985,16.0
2018-09-11 19:19:11.850,-0.105738700259,-0.222727173581,-0.32371229689,-0.155133202672,-0.171985402703,-0.136384889483,-2.30456275,0.32361945,12.05237285,0.0,15.7015695572,13.8674554825,-6.95243120193,-0.251408398151,-0.103001661599,-0.156987294555,20.3299999237,-516.166870117,21.5349025726,10.730270385700003,12.04247283938,-6.0103111267,-1.2901887894000001,-5.9268751144,-6.7126870155299985,16.0
2018-09-11 19:19:11.900,-0.105738700259,-0.222727173581,-0.32371229689,-0.155133202672,-0.171985402703,-0.136384889483,-2.30456275,0.32361945,12.05237285,0.0,16.5791721344,13.3224163055,-6.48854923248,-0.155133202672,-0.171985402703,-0.136384889483,20.9799995422,-525.651733398,21.1618556976,10.730270385700003,13.962472915680001,-8.3103113174,-1.0852012635000001,-6.293349265999998,-6.432119846339998,16.0
2018-09-11 19:19:11.950,-0.105738700259,-0.222727173581,-0.32371229689,-0.155133202672,-0.171985402703,-0.136384889483,-2.30456275,0.32361945,12.05237285,0.0,16.5791721344,13.3224163055,-6.48854923248,-0.155133202672,-0.171985402703,-0.136384889483,20.9799995422,-525.651733398,21.1618556976,10.730270385700003,13.952472686790001,-8.270311355599999,-1.0094738007000004,-6.443051338199998,-6.284886360169998,16.0
2018-09-11 19:19:12.000,-0.105738700259,-0.222727173581,-0.32371229689,-0.155133202672,-0.171985402703,-0.136384889483,-2.30456275,0.32361945,12.05237285,0.0,16.5791721344,13.3224163055,-6.48854923248,-0.155133202672,-0.171985402703,-0.136384889483,21.5900001526,-525.651733398,20.7615070343,9.730270385700003,15.672472476990002,-10.8303117752,-0.8890838623000015,-6.6796789169,-6.035619735719998,16.0
2018-09-11 19:19:12.050,-0.105738700259,-0.222727173581,-0.32371229689,-0.155133202672,-0.171985402703,-0.136384889483,-2.30456275,0.32361945,12.05237285,0.0,16.5791721344,13.3224163055,-6.48854923248,-0.155133202672,-0.171985402703,-0.136384889483,21.5900001526,-525.651733398,20.7615070343,9.730270385700003,15.66247272494,-10.800311088599999,-1.986104965200001,-5.5962600708,-5.8638820648199985,16.0
2018-09-11 19:19:12.100,-0.105738700259,-0.222727173581,-0.32371229689,-0.155133202672,-0.171985402703,-0.136384889483,-2.30456275,0.32361945,12.05237285,0.0,16.5791721344,13.3224163055,-6.48854923248,-0.155133202672,-0.171985402703,-0.136384889483,22.1700000763,-560.147277832,16.096944809,11.730270385700003,17.23247265818,-8.9403114319,-1.8736114502000003,-5.813058853099999,-5.562126636509999,16.0
2018-09-11 19:19:12.150,-0.105738700259,-0.222727173581,-0.32371229689,-0.155133202672,-0.171985402703,-0.136384889483,-2.30456275,0.32361945,12.05237285,0.0,17.5414924622,12.8311510086,-5.3662314415,-0.155133202672,-0.171985402703,-0.136384889483,22.1700000763,-560.147277832,16.096944809,11.730270385700003,17.22247266772,-8.9203109741,-1.8025026320999995,-5.949731826800001,-5.366231441499998,16.0
2018-09-11 19:19:12.200,-0.0904217704996,-0.160131749912,-0.305934029241,-0.11466576159,-0.294749766588,-0.0718559101224,-1.6671305,0.5687857,15.28856735,0.0,17.5414924622,12.8311510086,-5.3662314415,-0.155133202672,-0.171985402703,-0.136384889483,22.7099990845,-560.147277832,15.8357849121,11.730270385700003,18.622472643880002,-11.120311737049999,-1.6946763992000005,-6.164997100800001,-5.044263839719998,16.0
2018-09-11 19:19:12.250,-0.0904217704996,-0.160131749912,-0.305934029241,-0.11466576159,-0.294749766588,-0.0718559101224,-1.6671305,0.5687857,15.28856735,0.0,17.5414924622,12.8311510086,-5.3662314415,-0.155133202672,-0.171985402703,-0.136384889483,23.1800003052,-597.125061035,15.5423641205,7.2584228516000024,14.183253593698,-8.27494049073,-1.6946763992000005,-6.164997100800001,-5.044263839719998,16.0
2018-09-11 19:19:12.300,-0.0904217704996,-0.160131749912,-0.305934029241,-0.11466576159,-0.294749766588,-0.0718559101224,-1.6671305,0.5687857,15.28856735,0.0,17.5414924622,12.8311510086,-5.3662314415,-0.155133202672,-0.171985402703,-0.136384889483,23.1800003052,-597.125061035,15.5423641205,7.2584228516000024,14.1732535920589,-8.25494050981,-1.5549564361000012,-6.4170055389,-4.601074218749998,16.0
2018-09-11 19:19:12.350,-0.0904217704996,-0.160131749912,-0.305934029241,-0.11466576159,-0.294749766588,-0.0718559101224,-1.6671305,0.5687857,15.28856735,0.0,18.2450523376,12.4430274963,-4.16741657257,-0.11466576159,-0.294749766588,-0.0718559101224,23.1800003052,-597.125061035,15.5423641205,7.2584228516000024,14.1732535920589,-8.244940280929999,-1.4538555145000007,-6.590250015199999,-4.277896881099998,16.0
2018-09-11 19:19:12.400,-0.0904217704996,-0.160131749912,-0.305934029241,-0.11466576159,-0.294749766588,-0.0718559101224,-1.6671305,0.5687857,15.28856735,0.0,18.2450523376,12.4430274963,-4.16741657257,-0.11466576159,-0.294749766588,-0.0718559101224,23.6000003815,-597.125061035,15.2198095322,6.2584228516000024,15.26325356956,-10.37494039537,-1.3147382735999997,-6.810546875,-3.8461737632799986,16.0
2018-09-11 19:19:12.450,-0.0904217704996,-0.160131749912,-0.305934029241,-0.11466576159,-0.294749766588,-0.0718559101224,-1.6671305,0.5687857,15.28856735,0.0,18.2450523376,12.4430274963,-4.16741657257,-0.11466576159,-0.294749766588,-0.0718559101224,23.6000003815,-597.125061035,15.2198095322,6.2584228516000024,15.25325357909,-10.36494064332,-2.0964298247999995,-6.152392387400001,-3.605749368669999,16.0
2018-09-11 19:19:12.500,-0.0904217704996,-0.160131749912,-0.305934029241,-0.11466576159,-0.294749766588,-0.0718559101224,-1.6671305,0.5687857,15.28856735,0.0,18.2450523376,12.4430274963,-4.16741657257,-0.11466576159,-0.294749766588,-0.0718559101224,23.9799995422,-631.751037598,12.2653865814,8.258422851600002,16.21325349803,-8.584940433509999,-2.0083093643000005,-6.298174858099999,-3.200100898739999,16.0
2018-09-11 19:19:12.550,-0.073094731005,-0.105570101377,-0.294688218602,-0.269434243441,-0.267995655537,-0.0634206086397,-0.87279185,0.77472535,16.8870513,0.0,18.2450523376,12.4430274963,-4.16741657257,-0.11466576159,-0.294749766588,-0.0718559101224,23.9799995422,-631.751037598,12.2653865814,8.258422851600002,16.21325349803,-8.57494068147,-1.9613065719999998,-6.3726186752,-2.9324889182999985,16.0
2018-09-11 19:19:12.600,-0.073094731005,-0.105570101377,-0.294688218602,-0.269434243441,-0.267995655537,-0.0634206086397,-0.87279185,0.77472535,16.8870513,0.0,18.2450523376,12.4430274963,-4.16741657257,-0.11466576159,-0.294749766588,-0.0718559101224,24.2799987793,-631.751037598,12.0363903046,5.5010604857999965,11.82434248925,-5.91216707232,-1.9613065719999998,-6.3726186752,-2.9324889182999985,16.0
2018-09-11 19:19:12.650,-0.073094731005,-0.105570101377,-0.294688218602,-0.269434243441,-0.267995655537,-0.0634206086397,-0.87279185,0.77472535,16.8870513,0.0,18.8626747131,12.0532026291,-2.43689632416,-0.269434243441,-0.267995655537,-0.0634206086397,24.2799987793,-631.751037598,12.0363903046,5.5010604857999965,11.82434248925,-5.91216707232,-1.8442668915000002,-6.560605049099999,-2.2598810195899985,16.0
2018-09-11 19:19:12.700,-0.073094731005,-0.105570101377,-0.294688218602,-0.269434243441,-0.267995655537,-0.0634206086397,-0.87279185,0.77472535,16.8870513,0.0,18.8626747131,12.0532026291,-2.43689632416,-0.269434243441,-0.267995655537,-0.0634206086397,24.5100002289,-628.363037109,11.7912549973,4.5010604857999965,12.24434256554,-7.54216718676,-1.7808904648000006,-6.6573438644,-1.7523703575099987,16.0
2018-09-11 19:19:12.750,-0.073094731005,-0.105570101377,-0.294688218602,-0.269434243441,-0.267995655537,-0.0634206086397,-0.87279185,0.77472535,16.8870513,0.0,18.8626747131,12.0532026291,-2.43689632416,-0.269434243441,-0.267995655537,-0.0634206086397,24.6599998474,-628.363037109,10.3568792343,5.5010604857999965,12.45434236527,-6.74216699603,-2.1151275634900006,-6.4058084487999984,-1.1179666519199989,16.0
2018-09-11 19:19:12.800,-0.073094731005,-0.105570101377,-0.294688218602,-0.269434243441,-0.267995655537,-0.0634206086397,-0.87279185,0.77472535,16.8870513,0.0,18.8626747131,12.0532026291,-2.43689632416,-0.269434243441,-0.267995655537,-0.0634206086397,24.6599998474,-628.363037109,10.3568792343,5.5010604857999965,12.45434236527,-6.73216724398,-2.0832834243900002,-6.430953025800001,-0.8518365025519988,16.0
2018-09-11 19:19:12.850,-0.073094731005,-0.105570101377,-0.294688218602,-0.269434243441,-0.267995655537,-0.0634206086397,-0.87279185,0.77472535,16.8870513,0.0,19.1505851746,11.7738265991,-0.583796560764,-0.269434243441,-0.267995655537,-0.0634206086397,24.6599998474,-628.363037109,10.3568792343,5.5010604857999965,12.45434236527,-6.73216724398,-2.0359840392899997,-6.455136299199999,-0.5837965607639988,16.0
2018-09-11 19:19:12.900,-0.0510566933755,-0.0485151385752,-0.284619070107,-0.178739205003,-0.227627068758,-0.0428349524736,-0.65704555,0.5295591,16.40652545,0.0,19.1505851746,11.7738265991,-0.583796560764,-0.269434243441,-0.267995655537,-0.0634206086397,24.7399997711,-648.305297852,10.1562070847,5.5010604857999965,12.60434246064,-7.69216728213,-1.9899139403900001,-6.465037345900001,-0.3227258920669988,16.0
2018-09-11 19:19:12.950,-0.0510566933755,-0.0485151385752,-0.284619070107,-0.178739205003,-0.227627068758,-0.0428349524736,-0.65704555,0.5295591,16.40652545,0.0,19.1505851746,11.7738265991,-0.583796560764,-0.269434243441,-0.267995655537,-0.0634206086397,24.7399997711,-648.305297852,10.1562070847,3.3870353698999978,7.22235012054,-3.1794614791899996,-1.947916030890001,-6.4596643448,-0.0725472867488988,16.0
2018-09-11 19:19:13.000,-0.0510566933755,-0.0485151385752,-0.284619070107,-0.178739205003,-0.227627068758,-0.0428349524736,-0.65704555,0.5295591,16.40652545,0.0,19.1505851746,11.7738265991,-0.583796560764,-0.269434243441,-0.267995655537,-0.0634206086397,24.7399997711,-648.305297852,7.70637845993,5.387035369899998,7.212350130080001,0.6205387115500001,-2.8457221984600007,-5.788607597399999,0.14866299927200108,16.0
2018-09-11 19:19:13.050,-0.0510566933755,-0.0485151385752,-0.284619070107,-0.178739205003,-0.227627068758,-0.0428349524736,-0.65704555,0.5295591,16.40652545,0.0,19.1505851746,11.7738265991,-0.583796560764,-0.269434243441,-0.267995655537,-0.0634206086397,24.6999988556,-646.46875,7.64796924591,5.387035369899998,7.142350196840001,0.31053876876999986,-2.796404838560001,-5.7747144698999975,0.48391368985200106,16.0
2018-09-11 19:19:13.100,-0.0510566933755,-0.0485151385752,-0.284619070107,-0.178739205003,-0.227627068758,-0.0428349524736,-0.65704555,0.5295591,16.40652545,0.0,19.0833358765,11.5600376129,0.80082899332,-0.178739205003,-0.227627068758,-0.0428349524736,24.6999988556,-646.46875,7.64796924591,5.387035369899998,7.142350196840001,0.31053876876999986,-2.744635581960001,-5.7308568955000005,0.8008289933200011,16.0
2018-09-11 19:19:13.150,-0.0510566933755,-0.0485151385752,-0.284619070107,-0.178739205003,-0.227627068758,-0.0428349524736,-0.65704555,0.5295591,16.40652545,0.0,19.0833358765,11.5600376129,0.80082899332,-0.178739205003,-0.227627068758,-0.0428349524736,24.6000003815,-646.46875,7.60348033905,5.387035369899998,6.93235015869,0.15053844452000043,-3.6553716659900006,-5.0643854141,1.1638890504800008,16.0
2018-09-11 19:19:13.200,-0.0510566933755,-0.0485151385752,-0.284619070107,-0.178739205003,-0.227627068758,-0.0428349524736,-0.65704555,0.5295591,16.40652545,0.0,19.0833358765,11.5600376129,0.80082899332,-0.178739205003,-0.227627068758,-0.0428349524736,24.6000003815,-646.46875,7.60348033905,5.387035369899998,6.93235015869,0.15053844452000043,-3.6553716659900006,-5.0643854141,1.1638890504800008,16.0
2018-09-11 19:19:13.250,-0.0510566933755,-0.0485151385752,-0.284619070107,-0.178739205003,-0.227627068758,-0.0428349524736,-0.65704555,0.5295591,16.40652545,0.0,19.0833358765,11.5600376129,0.80082899332,-0.178739205003,-0.227627068758,-0.0428349524736,24.6000003815,-646.46875,7.60348033905,5.387035369899998,6.92235016823,0.15053844452000043,-3.5956325530899997,-5.0214166641,1.413223028180001,16.0
2018-09-11 19:19:13.300,-0.0510566933755,-0.0485151385752,-0.284619070107,-0.178739205003,-0.227627068758,-0.0428349524736,-0.65704555,0.5295591,16.40652545,0.0,19.0833358765,11.5600376129,0.80082899332,-0.178739205003,-0.227627068758,-0.0428349524736,24.4599990845,-633.246826172,5.50099229813,8.387035369899998,6.69235014915,4.64053821564,-3.5956325530899997,-5.0214166641,1.413223028180001,16.0
2018-09-11 19:19:13.350,-0.0510566933755,-0.0485151385752,-0.284619070107,-0.178739205003,-0.227627068758,-0.0428349524736,-0.65704555,0.5295591,16.40652545,0.0,18.8136234283,11.3167209625,2.02423858643,-0.178739205003,-0.227627068758,-0.0428349524736,24.4599990845,-633.246826172,5.50099229813,8.387035369899998,6.69235014915,4.64053821564,-3.5102500915899997,-4.924231529200002,1.838901281360001,15.9899997711
2018-09-11 19:19:13.400,-0.0434006043357,-0.00390033623679,-0.274310978515,0.0283153802156,-0.146298080683,-0.0128513984382,-0.55897905,0.4707192,14.121576,0.0,18.8136234283,11.3167209625,2.02423858643,-0.178739205003,-0.227627068758,-0.0428349524736,24.2799987793,-634.246826172,5.603099823,6.8329353333,1.6350756287550001,6.973091602279999,-3.40202426909,-4.800171852100002,2.250191926960001,15.9899997711
2018-09-11 19:19:13.450,-0.0434006043357,-0.00390033623679,-0.274310978515,0.0283153802156,-0.146298080683,-0.0128513984382,-0.55897905,0.4707192,14.121576,0.0,18.8136234283,11.3167209625,2.02423858643,-0.178739205003,-0.227627068758,-0.0428349524736,24.2799987793,-634.246826172,5.603099823,6.8329353333,1.6350756287550001,6.973091602279999,-3.40202426909,-4.800171852100002,2.250191926960001,15.9899997711
2018-09-11 19:19:13.500,-0.0434006043357,-0.00390033623679,-0.274310978515,0.0283153802156,-0.146298080683,-0.0128513984382,-0.55897905,0.4707192,14.121576,0.0,18.8136234283,11.3167209625,2.02423858643,-0.178739205003,-0.227627068758,-0.0428349524736,24.0599994659,-606.693054199,2.61419630051,9.8329353333,1.225075542925,13.35309171678,-4.77153491975,-3.904803276100001,2.5972974300400007,16.0
2018-09-11 19:19:13.550,-0.0434006043357,-0.00390033623679,-0.274310978515,0.0283153802156,-0.146298080683,-0.0128513984382,-0.55897905,0.4707192,14.121576,0.0,18.8136234283,11.3167209625,2.02423858643,-0.178739205003,-0.227627068758,-0.0428349524736,23.8099994659,-605.693054199,2.9280591011,10.8329353333,1.225075542925,13.343091487879999,-4.69542694095,-3.8185148238999993,2.696677207950001,16.0
2018-09-11 19:19:13.600,-0.0434006043357,-0.00390033623679,-0.274310978515,0.0283153802156,-0.146298080683,-0.0128513984382,-0.55897905,0.4707192,14.121576,0.0,18.4926013947,10.9822626114,2.72919821739,0.0283153802156,-0.146298080683,-0.0128513984382,23.8099994659,-605.693054199,2.9280591011,10.8329353333,0.7250756621350001,13.463090419779999,-4.625779151950001,-3.7706670761000005,2.755408525470001,16.0
2018-09-11 19:19:13.650,-0.0434006043357,-0.00390033623679,-0.274310978515,0.0283153802156,-0.146298080683,-0.0128513984382,-0.55897905,0.4707192,14.121576,0.0,18.4926013947,10.9822626114,2.72919821739,0.0283153802156,-0.146298080683,-0.0128513984382,23.8099994659,-605.693054199,2.9280591011,10.8329353333,0.7250756621350001,13.463090419779999,-4.625779151950001,-3.7706670761000005,2.755408525470001,16.0
2018-09-11 19:19:13.700,-0.0434006043357,-0.00390033623679,-0.274310978515,0.0283153802156,-0.146298080683,-0.0128513984382,-0.55897905,0.4707192,14.121576,0.0,18.4926013947,10.9822626114,2.72919821739,0.0283153802156,-0.146298080683,-0.0128513984382,23.5599994659,-579.56427002,3.23818564415,10.8329353333,0.32507568597500014,13.483090877479999,-5.568869590719999,-3.2217960358000006,2.8624291420000003,16.0
2018-09-11 19:19:13.750,-0.0434006043357,-0.00390033623679,-0.274310978515,0.0283153802156,-0.146298080683,-0.0128513984382,-0.55897905,0.4707192,14.121576,0.0,18.4926013947,10.9822626114,2.72919821739,0.0283153802156,-0.146298080683,-0.0128513984382,23.5599994659,-579.56427002,3.23818564415,10.8329353333,0.32507568597500014,13.47309064868,-5.4953727722200005,-3.167589187699999,2.9281985759700007,16.0
2018-09-11 19:19:13.800,-0.0853077417208,0.00951402230793,-0.276553973866,0.211060419679,-0.065634213388,0.00470556877553,-0.6472389,0.44129925,11.8268199,0.0,18.4926013947,10.9822626114,2.72919821739,0.0283153802156,-0.146298080683,-0.0128513984382,23.2799987793,-579.56427002,1.61109411716,13.8329353333,-0.15492433309499998,17.50309133528,-5.3838710785199995,-3.0833339692000017,3.0196695327800005,16.0
2018-09-11 19:19:13.850,-0.0853077417208,0.00951402230793,-0.276553973866,0.211060419679,-0.065634213388,0.00470556877553,-0.6472389,0.44129925,11.8268199,0.0,18.1346931458,10.5983095169,3.05699276924,0.211060419679,-0.065634213388,0.00470556877553,23.2799987793,-579.56427002,1.61109411716,13.932533264200003,-2.96966075897,13.296970367420002,-5.35422420502,-3.054853439400002,3.0392260551500003,16.0
2018-09-11 19:19:13.900,-0.0853077417208,0.00951402230793,-0.276553973866,0.211060419679,-0.065634213388,0.00470556877553,-0.6472389,0.44129925,11.8268199,0.0,18.1346931458,10.5983095169,3.05699276924,0.211060419679,-0.065634213388,0.00470556877553,23.0100002289,-585.377319336,2.04613685608,13.932533264200003,-3.449660748241,13.33696937562,-5.238185882620001,-2.9771289826,3.1045515537300004,16.0
2018-09-11 19:19:13.950,-0.0853077417208,0.00951402230793,-0.276553973866,0.211060419679,-0.065634213388,0.00470556877553,-0.6472389,0.44129925,11.8268199,0.0,18.1346931458,10.5983095169,3.05699276924,0.211060419679,-0.065634213388,0.00470556877553,23.0100002289,-585.377319336,2.04613685608,13.932533264200003,-3.439660727976,13.32696914672,-6.679828405359999,-2.427022933900002,3.1661281585700003,16.0
