%time,field.orientation.x,field.orientation.y,field.orientation.z,field.angular_velocity.x,field.angular_velocity.y,field.angular_velocity.z,field.linear_acceleration.x,field.linear_acceleration.y,field.linear_acceleration.z,field.twist.linear.x,field.twist.linear.y,field.twist.linear.z,field.twist.angular.x,field.twist.angular.y,field.twist.angular.z,field.alt_error,field.aspd_error,field.xtrack_error,delta_yaw,delta_pitch,delta_roll,delta_x,delta_y,delta_z,delta_roll_airspeed
2018-10-05 19:58:52.850,,,,,,,,,,,,,,,,,,,,,,14.26063704491,21.08067614818656,1.777175903320002,15.0
2018-10-05 19:58:52.900,,,,,,,,,,-21.039560318,1.77391338348,1.73416233063,0.0246033445001,0.00799588207155,0.056900639087,,,,,,,14.14855289459,20.96429545668656,1.670626878740002,15.0
2018-10-05 19:58:52.950,,,,,,,,,,-21.039560318,1.77391338348,1.73416233063,0.0246033445001,0.00799588207155,0.056900639087,-0.75,-624.376708984,-35.5512886047,186.46420288090002,-6.52070689201,39.99109414219,14.14855289459,20.96429545668656,1.670626878740002,15.0
2018-10-05 19:58:53.000,,,,,,,,,,-21.039560318,1.77391338348,1.73416233063,0.0246033445001,0.00799588207155,0.056900639087,-0.930000007153,-596.890991211,-33.4295539856,186.46420288090002,-6.50070691109,39.99109414219,14.04167830944,20.88619334478656,1.625024557110002,15.0
2018-10-05 19:58:53.050,,,,,,,,,,-21.039560318,1.77391338348,1.73416233063,0.0246033445001,0.00799588207155,0.056900639087,-0.930000007153,-596.890991211,-33.4295539856,186.46420288090002,-6.89070677757,41.481095820689994,13.91052532196,20.80914981148656,1.551971316340002,15.0
2018-10-05 19:58:53.100,,,,,,,,,,-20.7075595856,2.30420303345,1.45261645317,0.0246033445001,0.00799588207155,0.056900639087,-1.11000001431,-596.890991211,-31.2890281677,187.46420288090002,-7.23070693016,42.36109307409,1.95895195007,5.285966873199998,1.4526164531700005,15.0
2018-10-05 19:58:53.150,,,,,,,,,,-20.7075595856,2.30420303345,1.45261645317,0.0246033445001,0.00799588207155,0.056900639087,-1.11000001431,-596.890991211,-31.2890281677,187.46420288090002,-7.23070693016,42.36109307409,1.95895195007,5.285966873199998,1.4526164531700005,15.0
2018-10-05 19:58:53.200,-0.0033300561261,-0.194247331357,-0.980912707879,0.703463375568,0.0272439178079,-0.0594772174954,-1.1571847,0.26477955,8.8063717,-20.7075595856,2.30420303345,1.45261645317,0.0246033445001,0.00799588207155,0.056900639087,-1.27999997139,-572.345336914,-39.8568572998,-20.1529922485,-8.236716270448,-66.0582885742,-5.84193754196,4.953107833900001,1.3060339689299996,15.9899997711
2018-10-05 19:58:53.250,-0.0033300561261,-0.194247331357,-0.980912707879,0.703463375568,0.0272439178079,-0.0594772174954,-1.1571847,0.26477955,8.8063717,-20.7075595856,2.30420303345,1.45261645317,0.0246033445001,0.00799588207155,0.056900639087,-1.27999997139,-572.345336914,-39.8568572998,-20.1529922485,-8.206716060638,-66.0582885742,-5.973781347279999,4.902465820400002,1.2278164625199997,15.9899997711
2018-10-05 19:58:53.300,-0.0033300561261,-0.194247331357,-0.980912707879,0.703463375568,0.0272439178079,-0.0594772174954,-1.1571847,0.26477955,8.8063717,-20.7075595856,2.30420303345,1.45261645317,0.0246033445001,0.00799588207155,0.056900639087,-1.42999994755,-473.345367432,-40.5574455261,-20.1529922485,-10.436716556548,-67.0382881164,-6.303476810459999,4.7778491974,1.0192567110099995,15.9899997711
2018-10-05 19:58:53.350,-0.0033300561261,-0.194247331357,-0.980912707879,0.703463375568,0.0272439178079,-0.0594772174954,-1.1571847,0.26477955,8.8063717,-20.4102401733,3.06900691986,0.990734875202,0.703463375568,0.0272439178079,-0.0594772174954,-1.42999994755,-473.345367432,-40.5574455261,-20.1529922485,-10.436716556548,-67.0382881164,-6.303476810459999,4.7778491974,1.0192567110099995,15.9899997711
2018-10-05 19:58:53.400,-0.0033300561261,-0.194247331357,-0.980912707879,0.703463375568,0.0272439178079,-0.0594772174954,-1.1571847,0.26477955,8.8063717,-20.4102401733,3.06900691986,0.990734875202,0.703463375568,0.0272439178079,-0.0594772174954,-1.57999992371,-447.687530518,-41.2872314453,-20.1529922485,-12.676716327708,-67.3882865906,-6.58057308197,4.644346237200002,0.9117105603219996,15.9899997711
2018-10-05 19:58:53.450,-0.0033300561261,-0.194247331357,-0.980912707879,0.703463375568,0.0272439178079,-0.0594772174954,-1.1571847,0.26477955,8.8063717,-20.4102401733,3.06900691986,0.990734875202,0.703463375568,0.0272439178079,-0.0594772174954,-1.57999992371,-447.687530518,-41.2872314453,-20.1529922485,-12.716716289508,-67.3882865906,-6.6546962261200004,4.5895538331,0.9051991105079995,15.9899997711
2018-10-05 19:58:53.500,-0.0033300561261,-0.194247331357,-0.980912707879,0.703463375568,0.0272439178079,-0.0594772174954,-1.1571847,0.26477955,8.8063717,-20.4102401733,3.06900691986,0.990734875202,0.703463375568,0.0272439178079,-0.0594772174954,-1.7199999094,-447.687530518,-42.0462226868,-20.1529922485,-14.956716060608,-67.3882865906,-6.6546962261200004,4.5895538331,0.9051991105079995,15.9899997711
2018-10-05 19:58:53.550,0.00112183329582,-0.0597555440629,-0.998097442331,-1.57262086868,0.133600324392,0.091336093843,-1.2552512,1.06892485,9.7870367,-20.4102401733,3.06900691986,0.990734875202,0.703463375568,0.0272439178079,-0.0594772174954,-1.7199999094,-447.687530518,-42.0462226868,-20.1529922485,-14.956716060608,-67.3882865906,-6.70333862305,4.507123947200002,0.8926019072529996,15.9899997711
2018-10-05 19:58:53.600,0.00112183329582,-0.0597555440629,-0.998097442331,-1.57262086868,0.133600324392,0.091336093843,-1.2552512,1.06892485,9.7870367,-20.0829124451,3.39464616776,0.873789906502,-1.57262086868,0.133600324392,0.091336093843,-1.7199999094,-447.687530518,-42.0462226868,-19.259330749499995,-14.3854287750898,-51.84272527698,-6.7013835907,4.450704574600001,0.8836144208909995,15.9899997711
2018-10-05 19:58:53.650,0.00112183329582,-0.0597555440629,-0.998097442331,-1.57262086868,0.133600324392,0.091336093843,-1.2552512,1.06892485,9.7870367,-20.0829124451,3.39464616776,0.873789906502,-1.57262086868,0.133600324392,0.091336093843,-1.86000001431,-416.751098633,-42.8126144409,-20.259330749499995,-16.5954278595898,-51.84272527698,-6.65140390396,4.369928360000001,0.8439407348629996,15.9899997711
2018-10-05 19:58:53.700,0.00112183329582,-0.0597555440629,-0.998097442331,-1.57262086868,0.133600324392,0.091336093843,-1.2552512,1.06892485,9.7870367,-20.0829124451,3.39464616776,0.873789906502,-1.57262086868,0.133600324392,0.091336093843,-2.0,-416.751098633,-43.5537452698,-20.259330749499995,-18.675427783289802,-51.822724819179996,-6.52504611016,4.273674011300001,0.6690911650659995,15.9899997711
2018-10-05 19:58:53.750,0.00112183329582,-0.0597555440629,-0.998097442331,-1.57262086868,0.133600324392,0.091336093843,-1.2552512,1.06892485,9.7870367,-20.0829124451,3.39464616776,0.873789906502,-1.57262086868,0.133600324392,0.091336093843,-2.0,-416.751098633,-43.5537452698,-20.259330749499995,-18.675427783289802,-51.822724819179996,-6.52504611016,4.273674011300001,0.6690911650659995,15.9899997711
2018-10-05 19:58:53.800,0.00112183329582,-0.0597555440629,-0.998097442331,-1.57262086868,0.133600324392,0.091336093843,-1.2552512,1.06892485,9.7870367,-19.7863826752,2.97104215622,0.244153827429,-1.57262086868,0.133600324392,0.091336093843,-2.11999988556,-388.768768311,-44.2822380066,-20.259330749499995,-20.505427706989803,-51.76272726058,-6.31092524529,4.1552886962999995,0.3244388401509996,15.9899997711
2018-10-05 19:58:53.850,0.00112183329582,-0.0597555440629,-0.998097442331,-1.57262086868,0.133600324392,0.091336093843,-1.2552512,1.06892485,9.7870367,-19.7863826752,2.97104215622,0.244153827429,-1.57262086868,0.133600324392,0.091336093843,-2.11999988556,-388.768768311,-44.2822380066,-20.259330749499995,-20.505427706989803,-51.76272726058,-6.31092524529,4.1552886962999995,0.3244388401509996,15.9899997711
2018-10-05 19:58:53.900,0.00112183329582,-0.0597555440629,-0.998097442331,-1.57262086868,0.133600324392,0.091336093843,-1.2552512,1.06892485,9.7870367,-19.7863826752,2.97104215622,0.244153827429,-1.57262086868,0.133600324392,0.091336093843,-2.20000004768,-388.768768311,-44.9636802673,-20.259330749499995,-22.0954278595898,-51.682725429579996,-6.0915093422,4.037281036400001,-0.13800001144400043,15.9899997711
2018-10-05 19:58:53.950,0.00112183329582,-0.0597555440629,-0.998097442331,-1.57262086868,0.133600324392,0.091336093843,-1.2552512,1.06892485,9.7870367,-19.7863826752,2.97104215622,0.244153827429,-1.57262086868,0.133600324392,0.091336093843,-2.20000004768,-388.768768311,-44.9636802673,-20.259330749499995,-22.0754293091898,-51.63272619248,-5.96182274819,3.968580246,-0.4557006061080004,15.9899997711
2018-10-05 19:58:54.000,0.0492389350235,0.189807252356,-0.980574669457,-0.765294015408,0.237358912826,-0.0453238710761,-1.53964405,0.16671305,5.30539765,-19.7863826752,2.97104215622,0.244153827429,-1.57262086868,0.133600324392,0.091336093843,-2.24000000954,-363.714782715,-45.6198539734,-23.545951843300003,-17.395976066609997,-22.6528663635,-5.87046480179,3.923086166399999,-0.6765162348750005,15.9899997711
2018-10-05 19:58:54.050,0.0492389350235,0.189807252356,-0.980574669457,-0.765294015408,0.237358912826,-0.0453238710761,-1.53964405,0.16671305,5.30539765,-19.7863826752,2.97104215622,0.244153827429,-1.57262086868,0.133600324392,0.091336093843,-2.24000000954,-363.714782715,-45.6198539734,-23.545951843300003,-17.395976066609997,-22.6528663635,-5.87046480179,3.923086166399999,-0.6765162348750005,15.9899997711
2018-10-05 19:58:54.100,0.0492389350235,0.189807252356,-0.980574669457,-0.765294015408,0.237358912826,-0.0453238710761,-1.53964405,0.16671305,5.30539765,-19.7863826752,2.97104215622,0.244153827429,-1.57262086868,0.133600324392,0.091336093843,-2.21000003815,-363.714782715,-46.2307014465,-23.545951843300003,-16.65597629551,-22.012866973799998,-5.6425049304999995,3.812410354700001,-1.2351371049900004,15.9899997711
2018-10-05 19:58:54.150,0.0492389350235,0.189807252356,-0.980574669457,-0.765294015408,0.237358912826,-0.0453238710761,-1.53964405,0.16671305,5.30539765,-19.4218730927,2.27025532722,-1.48257231712,-0.765294015408,0.237358912826,-0.0453238710761,-2.21000003815,-363.714782715,-46.2307014465,-23.545951843300003,-16.65597629551,-22.012866973799998,-5.6425049304999995,3.812410354700001,-1.2351371049900004,15.9899997711
2018-10-05 19:58:54.200,0.0492389350235,0.189807252356,-0.980574669457,-0.765294015408,0.237358912826,-0.0453238710761,-1.53964405,0.16671305,5.30539765,-19.4218730927,2.27025532722,-1.48257231712,-0.765294015408,0.237358912826,-0.0453238710761,-2.12999987602,-337.677368164,-46.8162956238,-23.545951843300003,-16.145976066609997,-21.3928642273,-5.42667388916,3.695451736499999,-1.8525655269600005,15.9899997711
2018-10-05 19:58:54.250,0.0492389350235,0.189807252356,-0.980574669457,-0.765294015408,0.237358912826,-0.0453238710761,-1.53964405,0.16671305,5.30539765,-19.4218730927,2.27025532722,-1.48257231712,-0.765294015408,0.237358912826,-0.0453238710761,-2.12999987602,-337.677368164,-46.8162956238,-23.545951843300003,-15.895976066609999,-21.3128662109,-5.28901553154,3.632123947200002,-2.2088739872000005,15.9899997711
2018-10-05 19:58:54.300,0.0492389350235,0.189807252356,-0.980574669457,-0.765294015408,0.237358912826,-0.0453238710761,-1.53964405,0.16671305,5.30539765,-19.4218730927,2.27025532722,-1.48257231712,-0.765294015408,0.237358912826,-0.0453238710761,-2.12999987602,-337.677368164,-46.8162956238,-23.545951843300003,-15.895976066609999,-21.3128662109,-5.28901553154,3.632123947200002,-2.2088739872000005,15.9899997711
2018-10-05 19:58:54.350,0.0492389350235,0.189807252356,-0.980574669457,-0.765294015408,0.237358912826,-0.0453238710761,-1.53964405,0.16671305,5.30539765,-19.4218730927,2.27025532722,-1.48257231712,-0.765294015408,0.237358912826,-0.0453238710761,-1.97999989986,-337.677368164,-47.3674621582,-23.545951843300003,-15.50597667691,-20.612865448000004,-5.0165219307,3.5295124054,-2.7518243789700003,15.9899997711
2018-10-05 19:58:54.400,0.0492389350235,0.189807252356,-0.980574669457,-0.765294015408,0.237358912826,-0.0453238710761,-1.53964405,0.16671305,5.30539765,-19.1705970764,1.65540921688,-2.85365700722,-0.765294015408,0.237358912826,-0.0453238710761,-1.76999998093,-320.523254395,-47.90599823,-24.545951843300003,-15.40597629551,-19.8928642273,-5.0165219307,3.5295124054,-2.7518243789700003,15.9899997711
2018-10-05 19:58:54.450,0.0914185364924,0.280247364061,-0.954956893999,-0.148808836937,0.0702935233712,0.284881293774,-1.75539035,0.06864655,6.1978028,-19.1705970764,1.65540921688,-2.85365700722,-0.765294015408,0.237358912826,-0.0453238710761,-1.76999998093,-320.523254395,-47.90599823,-24.545951843300003,-9.811046600300001,-9.088745117199998,-4.806928634649999,3.4748249054,-3.0318329334300005,15.9899997711
2018-10-05 19:58:54.500,0.0914185364924,0.280247364061,-0.954956893999,-0.148808836937,0.0702935233712,0.284881293774,-1.75539035,0.06864655,6.1978028,-19.1705970764,1.65540921688,-2.85365700722,-0.765294015408,0.237358912826,-0.0453238710761,-1.76999998093,-320.523254395,-47.90599823,-23.1911697388,-9.811046600300001,-9.088745117199998,-4.66292011738,3.4411296845,-3.2024478912400003,15.9899997711
2018-10-05 19:58:54.550,0.0914185364924,0.280247364061,-0.954956893999,-0.148808836937,0.0702935233712,0.284881293774,-1.75539035,0.06864655,6.1978028,-19.1705970764,1.65540921688,-2.85365700722,-0.765294015408,0.237358912826,-0.0453238710761,-1.50999999046,-320.523254395,-48.4101104736,-23.1911697388,-9.7810459137,-8.108745575,-4.42067396641,3.3972759247000024,-3.4271829128300006,15.9899997711
2018-10-05 19:58:54.600,0.0914185364924,0.280247364061,-0.954956893999,-0.148808836937,0.0702935233712,0.284881293774,-1.75539035,0.06864655,6.1978028,-19.0080471039,0.864809989929,-3.63321137428,-0.148808836937,0.0702935233712,0.284881293774,-1.22000002861,-299.289886475,-48.8671684265,-23.1911697388,-9.741046905500001,-6.928745269800004,-4.160228967669,3.3510932923000016,-3.6332113742800005,15.9899997711
2018-10-05 19:58:54.650,0.0914185364924,0.280247364061,-0.954956893999,-0.148808836937,0.0702935233712,0.284881293774,-1.75539035,0.06864655,6.1978028,-19.0080471039,0.864809989929,-3.63321137428,-0.148808836937,0.0702935233712,0.284881293774,-1.22000002861,-299.289886475,-48.8671684265,-23.1911697388,-9.681047439599999,-6.768745422400002,-4.160228967669,3.3510932923000016,-3.6332113742800005,15.9899997711
2018-10-05 19:58:54.700,0.0914185364924,0.280247364061,-0.954956893999,-0.148808836937,0.0702935233712,0.284881293774,-1.75539035,0.06864655,6.1978028,-19.0080471039,0.864809989929,-3.63321137428,-0.148808836937,0.0702935233712,0.284881293774,-1.22000002861,-299.289886475,-48.8671684265,-23.1911697388,-9.681047439599999,-6.768745422400002,-3.830941259864,3.289514541699999,-3.9384303093000006,15.9899997711
2018-10-05 19:58:54.750,0.0914185364924,0.280247364061,-0.954956893999,-0.148808836937,0.0702935233712,0.284881293774,-1.75539035,0.06864655,6.1978028,-19.0080471039,0.864809989929,-3.63321137428,-0.148808836937,0.0702935233712,0.284881293774,-0.879999995232,-299.289886475,-49.2806549072,-23.1911697388,-9.621046066299998,-5.538745880100002,-3.4843573421269998,3.2225608826000016,-4.24276065826,15.9899997711
2018-10-05 19:58:54.800,0.112219460361,0.293563073996,-0.945532762664,-0.146745949984,-0.00204239273444,0.287878811359,-1.83384355,0.24516625,7.63938035,-19.0080471039,0.864809989929,-3.63321137428,-0.148808836937,0.0702935233712,0.284881293774,-0.519999980927,-286.528381348,-49.6597175598,-18.379158020000006,-5.520195961000001,-3.1136703491999995,-3.1977270692613,3.1820945740000024,-4.43682336807,15.9899997711
2018-10-05 19:58:54.850,0.112219460361,0.293563073996,-0.945532762664,-0.146745949984,-0.00204239273444,0.287878811359,-1.83384355,0.24516625,7.63938035,-18.8248100281,-0.194653302431,-4.4996676445,-0.146745949984,-0.00204239273444,0.287878811359,-0.519999980927,-286.528381348,-49.6597175598,-18.379158020000006,-5.520195961000001,-3.1136703491999995,-3.1977270692613,3.1820945740000024,-4.43682336807,15.9899997711
2018-10-05 19:58:54.900,0.112219460361,0.293563073996,-0.945532762664,-0.146745949984,-0.00204239273444,0.287878811359,-1.83384355,0.24516625,7.63938035,-18.8248100281,-0.194653302431,-4.4996676445,-0.146745949984,-0.00204239273444,0.287878811359,-0.119999997318,-286.528381348,-49.9734268188,-19.379158020000006,-5.450196266099999,-1.583667755199997,-2.698975145819,3.1089153290000002,-4.7464838028,15.9899997711
2018-10-05 19:58:54.950,0.112219460361,0.293563073996,-0.945532762664,-0.146745949984,-0.00204239273444,0.287878811359,-1.83384355,0.24516625,7.63938035,-18.8248100281,-0.194653302431,-4.4996676445,-0.146745949984,-0.00204239273444,0.287878811359,-0.119999997318,-286.528381348,-49.9734268188,-19.379158020000006,-5.450196266099999,-1.583667755199997,-2.698975145819,3.1089153290000002,-4.7464838028,15.9899997711
2018-10-05 19:58:55.000,0.112219460361,0.293563073996,-0.945532762664,-0.146745949984,-0.00204239273444,0.287878811359,-1.83384355,0.24516625,7.63938035,-18.8248100281,-0.194653302431,-4.4996676445,-0.146745949984,-0.00204239273444,0.287878811359,0.299999982119,-274.490936279,-50.2509689331,-19.379158020000006,-5.3901968002,0.016330719000002603,-2.298877477648,3.0411109925,-5.00021505356,15.9899997711
2018-10-05 19:58:55.050,0.112219460361,0.293563073996,-0.945532762664,-0.146745949984,-0.00204239273444,0.287878811359,-1.83384355,0.24516625,7.63938035,-18.8248100281,-0.194653302431,-4.4996676445,-0.146745949984,-0.00204239273444,0.287878811359,0.299999982119,-274.490936279,-50.2509689331,-19.379158020000006,-5.3901968002,0.07633209229999949,-2.01134049893,2.9939079285000023,-5.19253444672,15.9899997711
2018-10-05 19:58:55.100,0.112219460361,0.293563073996,-0.945532762664,-0.146745949984,-0.00204239273444,0.287878811359,-1.83384355,0.24516625,7.63938035,-18.6152763367,-1.47675287724,-5.31400346756,-0.146745949984,-0.00204239273444,0.287878811359,0.759999990463,-274.490936279,-50.4505157471,-19.379158020000006,-5.3901968002,1.6063308716000009,-1.7206382751499998,2.9411907196,-5.37442731857,15.9899997711
2018-10-05 19:58:55.150,0.112219460361,0.293563073996,-0.945532762664,-0.146745949984,-0.00204239273444,0.287878811359,-1.83384355,0.24516625,7.63938035,-18.6152763367,-1.47675287724,-5.31400346756,-0.146745949984,-0.00204239273444,0.287878811359,0.759999990463,-274.490936279,-50.4505157471,-19.379158020000006,-5.3901968002,1.6063308716000009,-1.7206382751499998,2.9411907196,-5.37442731857,15.9899997711
2018-10-05 19:58:55.200,0.112219460361,0.293563073996,-0.945532762664,-0.146745949984,-0.00204239273444,0.287878811359,-1.83384355,0.24516625,7.63938035,-18.6152763367,-1.47675287724,-5.31400346756,-0.146745949984,-0.00204239273444,0.287878811359,1.25,-275.540344238,-50.6282806396,-19.379158020000006,-5.420195579499998,3.2263317108000003,-1.3343424797099999,2.8748550415,-5.62811422348,15.9899997711
2018-10-05 19:58:55.250,0.120708297057,0.302472428915,-0.935359461727,0.0324261784554,-0.0549999512732,0.238695949316,-1.95152335,0.12748645,8.1199062,-18.6152763367,-1.47675287724,-5.31400346756,-0.146745949984,-0.00204239273444,0.287878811359,1.25,-275.540344238,-50.6282806396,-19.379158020000006,-5.460196495,3.266330718999999,-1.13544249535,2.8375663758,-5.74075698853,15.9899997711
2018-10-05 19:58:55.300,0.120708297057,0.302472428915,-0.935359461727,0.0324261784554,-0.0549999512732,0.238695949316,-1.95152335,0.12748645,8.1199062,-18.6152763367,-1.47675287724,-5.31400346756,-0.146745949984,-0.00204239273444,0.287878811359,1.76999998093,-275.540344238,-50.7372016907,-13.774360657000003,-2.793512344299998,5.284692764300001,-0.63603615761,2.7631683350000014,-5.97153091431,15.9899997711
2018-10-05 19:58:55.350,0.120708297057,0.302472428915,-0.935359461727,0.0324261784554,-0.0549999512732,0.238695949316,-1.95152335,0.12748645,8.1199062,-18.4042778015,-2.7640402317,-6.00771856308,0.0324261784554,-0.0549999512732,0.238695949316,1.76999998093,-275.540344238,-50.7372016907,-13.774360657000003,-2.953512191799998,5.3446922302,-0.4231767654399996,2.733022689900002,-6.04739427567,15.9899997711
2018-10-05 19:58:55.400,0.120708297057,0.302472428915,-0.935359461727,0.0324261784554,-0.0549999512732,0.238695949316,-1.95152335,0.12748645,8.1199062,-18.4042778015,-2.7640402317,-6.00771856308,0.0324261784554,-0.0549999512732,0.238695949316,2.31999993324,-281.697662354,-50.8008117676,-13.774360657000003,-3.0035133361999975,7.114692688000002,-0.21150541305999981,2.705722808900001,-6.12986469269,15.9899997711
2018-10-05 19:58:55.450,0.120708297057,0.302472428915,-0.935359461727,0.0324261784554,-0.0549999512732,0.238695949316,-1.95152335,0.12748645,8.1199062,-18.4042778015,-2.7640402317,-6.00771856308,0.0324261784554,-0.0549999512732,0.238695949316,2.31999993324,-281.697662354,-50.8008117676,-13.774360657000003,-3.1535129546999983,7.1846923828000016,0.08226299286000005,2.6498584748000003,-6.27037477493,15.9899997711
2018-10-05 19:58:55.500,0.120708297057,0.302472428915,-0.935359461727,0.0324261784554,-0.0549999512732,0.238695949316,-1.95152335,0.12748645,8.1199062,-18.4042778015,-2.7640402317,-6.00771856308,0.0324261784554,-0.0549999512732,0.238695949316,2.31999993324,-281.697662354,-50.8008117676,-13.774360657000003,-3.1535129546999983,7.1846923828000016,0.08226299286000005,2.6498584748000003,-6.27037477493,15.9899997711
2018-10-05 19:58:55.550,0.120708297057,0.302472428915,-0.935359461727,0.0324261784554,-0.0549999512732,0.238695949316,-1.95152335,0.12748645,8.1199062,-18.4042778015,-2.7640402317,-6.00771856308,0.0324261784554,-0.0549999512732,0.238695949316,2.88999986649,-281.697662354,-50.8099517822,-13.774360657000003,-3.2635116577000005,9.0446910858,0.3448984622900002,2.5975151062000013,-6.41631889343,15.9899997711
2018-10-05 19:58:55.600,0.120708297057,0.302472428915,-0.935359461727,0.0324261784554,-0.0549999512732,0.238695949316,-1.95152335,0.12748645,8.1199062,-18.1921710968,-3.92801809311,-6.55949783325,0.0324261784554,-0.0549999512732,0.238695949316,3.49000000954,-281.697662354,-50.7846717834,-14.774360657000003,-2.453512191799998,10.7846927643,0.73162436485,2.515655517600001,-6.59686470032,15.9899997711
2018-10-05 19:58:55.650,0.120708297057,0.302472428915,-0.935359461727,0.0324261784554,-0.0549999512732,0.238695949316,-1.95152335,0.12748645,8.1199062,-18.1921710968,-3.92801809311,-6.55949783325,0.0324261784554,-0.0549999512732,0.238695949316,3.49000000954,-281.697662354,-50.7846717834,-14.774360657000003,-2.453512191799998,10.7846927643,0.73162436485,2.515655517600001,-6.59686470032,15.9899997711
2018-10-05 19:58:55.700,0.126997501581,0.277351430566,-0.930920308782,0.123005121946,-0.0798776745796,0.262220680714,-2.18688295,0.04903325,8.8848249,-18.1921710968,-3.92801809311,-6.55949783325,0.0324261784554,-0.0549999512732,0.238695949316,4.09999990463,-287.287902832,-50.685333252,-14.774360657000003,-0.553512573199999,12.764692306500002,1.1233375072500005,2.4294052124000007,-6.78275728226,15.9899997711
2018-10-05 19:58:55.750,0.126997501581,0.277351430566,-0.930920308782,0.123005121946,-0.0798776745796,0.262220680714,-2.18688295,0.04903325,8.8848249,-18.1921710968,-3.92801809311,-6.55949783325,0.0324261784554,-0.0549999512732,0.238695949316,4.09999990463,-287.287902832,-50.685333252,-7.113510132000002,1.776084899899999,8.5002441406,1.3147675991000005,2.3868885041000016,-6.8592171669,15.9899997711
2018-10-05 19:58:55.800,0.126997501581,0.277351430566,-0.930920308782,0.123005121946,-0.0798776745796,0.262220680714,-2.18688295,0.04903325,8.8848249,-18.1921710968,-3.92801809311,-6.55949783325,0.0324261784554,-0.0549999512732,0.238695949316,4.75,-295.596679688,-50.5550460815,-7.113510132000002,3.716085434,10.4402446747,1.7166407108300001,2.3116321564,-6.97506046295,15.9899997711
2018-10-05 19:58:55.850,0.126997501581,0.277351430566,-0.930920308782,0.123005121946,-0.0798776745796,0.262220680714,-2.18688295,0.04903325,8.8848249,-17.9518451691,-5.11950922012,-6.9992609024,0.123005121946,-0.0798776745796,0.262220680714,4.75,-295.596679688,-50.5550460815,-7.113510132000002,3.716085434,10.4402446747,1.7166407108300001,2.3116321564,-6.97506046295,15.9899997711
2018-10-05 19:58:55.900,0.126997501581,0.277351430566,-0.930920308782,0.123005121946,-0.0798776745796,0.262220680714,-2.18688295,0.04903325,8.8848249,-17.9518451691,-5.11950922012,-6.9992609024,0.123005121946,-0.0798776745796,0.262220680714,5.42999982834,-295.596679688,-50.3628845215,-7.113510132000002,5.6760854721000005,12.600244522099999,2.226552248,2.2236232757999996,-7.08474063873,15.9899997711
2018-10-05 19:58:55.950,0.128224922271,0.248795445693,-0.933284500291,0.265466034412,-0.133177906275,0.179363831878,-2.1770763,-0.02941995,11.07170785,-17.9518451691,-5.11950922012,-6.9992609024,0.123005121946,-0.0798776745796,0.262220680714,5.42999982834,-295.596679688,-50.3628845215,-7.113510132000002,5.6760854721000005,12.600244522099999,2.226552248,2.2236232757999996,-7.08474063873,15.9899997711
2018-10-05 19:58:56.000,0.128224922271,0.248795445693,-0.933284500291,0.265466034412,-0.133177906275,0.179363831878,-2.1770763,-0.02941995,11.07170785,-17.9518451691,-5.11950922012,-6.9992609024,0.123005121946,-0.0798776745796,0.262220680714,6.08999967575,-308.68951416,-50.1293487549,-3.6361694339999957,7.757728576699998,10.685373306299999,2.77374815941,2.1672077179,-7.03486680984,15.9899997711
2018-10-05 19:58:56.050,0.128224922271,0.248795445693,-0.933284500291,0.265466034412,-0.133177906275,0.179363831878,-2.1770763,-0.02941995,11.07170785,-17.9518451691,-5.11950922012,-6.9992609024,0.123005121946,-0.0798776745796,0.262220680714,6.08999967575,-308.68951416,-50.1293487549,-3.6361694339999957,7.747728347799999,10.6553735733,3.1122949123400003,2.1331825257000023,-6.96396827698,15.9899997711
2018-10-05 19:58:56.100,0.128224922271,0.248795445693,-0.933284500291,0.265466034412,-0.133177906275,0.179363831878,-2.1770763,-0.02941995,11.07170785,-17.787109375,-6.51149892807,-6.93103837967,0.265466034412,-0.133177906275,0.179363831878,6.77999973297,-308.68951416,-49.8374023438,-3.6361694339999957,9.5477285385,13.0453729629,3.3297922611200006,2.1158580780000005,-6.89646434784,15.9899997711
2018-10-05 19:58:56.150,0.128224922271,0.248795445693,-0.933284500291,0.265466034412,-0.133177906275,0.179363831878,-2.1770763,-0.02941995,11.07170785,-17.787109375,-6.51149892807,-6.93103837967,0.265466034412,-0.133177906275,0.179363831878,6.77999973297,-308.68951416,-49.8374023438,-3.6361694339999957,9.5477285385,13.0453729629,3.3297922611200006,2.1158580780000005,-6.89646434784,15.9899997711
2018-10-05 19:58:56.200,0.128224922271,0.248795445693,-0.933284500291,0.265466034412,-0.133177906275,0.179363831878,-2.1770763,-0.02941995,11.07170785,-17.787109375,-6.51149892807,-6.93103837967,0.265466034412,-0.133177906275,0.179363831878,7.42999982834,-337.825592041,-49.4966697693,-3.6361694339999957,11.247728347779999,15.3053731918,3.3297922611200006,2.1158580780000005,-6.89646434784,15.9899997711
2018-10-05 19:58:56.250,0.128224922271,0.248795445693,-0.933284500291,0.265466034412,-0.133177906275,0.179363831878,-2.1770763,-0.02941995,11.07170785,-17.787109375,-6.51149892807,-6.93103837967,0.265466034412,-0.133177906275,0.179363831878,7.42999982834,-337.825592041,-49.4966697693,-3.6361694339999957,11.247728347779999,15.3053731918,3.9796550273899998,2.069938659700002,-6.67033433914,15.9899997711
2018-10-05 19:58:56.300,0.128224922271,0.248795445693,-0.933284500291,0.265466034412,-0.133177906275,0.179363831878,-2.1770763,-0.02941995,11.07170785,-17.787109375,-6.51149892807,-6.93103837967,0.265466034412,-0.133177906275,0.179363831878,8.06999969482,-337.825592041,-49.0905723572,-3.6361694339999957,12.85772800445,17.59537315367,4.38188576698,2.057699203500002,-6.47488355637,15.9899997711
2018-10-05 19:58:56.350,0.128224922271,0.248795445693,-0.933284500291,0.265466034412,-0.133177906275,0.179363831878,-2.1770763,-0.02941995,11.07170785,-17.7113456726,-7.87152910233,-6.36071634293,0.265466034412,-0.133177906275,0.179363831878,8.06999969482,-337.825592041,-49.0905723572,-3.6361694339999957,12.85772800445,17.59537315367,4.38188576698,2.057699203500002,-6.47488355637,15.9899997711
2018-10-05 19:58:56.400,0.112467077741,0.176905293244,-0.943827538342,0.27847892046,-0.218692600727,0.121670559049,-1.89268345,-0.04903325,13.4154972,-17.7113456726,-7.87152910233,-6.36071634293,0.265466034412,-0.133177906275,0.179363831878,8.67000007629,-374.756622314,-48.6483230591,1.6549377439999944,11.42824602128,10.783205032389999,4.864594221110001,2.050291061400001,-6.18265628815,15.9899997711
2018-10-05 19:58:56.450,0.112467077741,0.176905293244,-0.943827538342,0.27847892046,-0.218692600727,0.121670559049,-1.89268345,-0.04903325,13.4154972,-17.7113456726,-7.87152910233,-6.36071634293,0.265466034412,-0.133177906275,0.179363831878,8.67000007629,-374.756622314,-48.6483230591,1.6549377439999944,11.42824602128,10.783205032389999,4.864594221110001,2.050291061400001,-6.18265628815,15.9899997711
2018-10-05 19:58:56.500,0.112467077741,0.176905293244,-0.943827538342,0.27847892046,-0.218692600727,0.121670559049,-1.89268345,-0.04903325,13.4154972,-17.7113456726,-7.87152910233,-6.36071634293,0.265466034412,-0.133177906275,0.179363831878,9.26000022888,-374.756622314,-48.1441802979,1.6549377439999944,12.87824630738,12.85320520406,5.35922598839,2.022441864100001,-5.89914798737,15.9899997711
2018-10-05 19:58:56.550,0.112467077741,0.176905293244,-0.943827538342,0.27847892046,-0.218692600727,0.121670559049,-1.89268345,-0.04903325,13.4154972,-17.7113456726,-7.87152910233,-6.36071634293,0.265466034412,-0.133177906275,0.179363831878,9.26000022888,-374.756622314,-48.1441802979,1.6549377439999944,12.87824630738,12.85320520406,5.35922598839,2.022441864100001,-5.89914798737,15.9899997711
2018-10-05 19:58:56.600,0.112467077741,0.176905293244,-0.943827538342,0.27847892046,-0.218692600727,0.121670559049,-1.89268345,-0.04903325,13.4154972,-17.6602115631,-8.80091667175,-5.83657598495,0.27847892046,-0.218692600727,0.121670559049,9.81999969482,-422.422210693,-47.6073684692,1.6549377439999944,14.388246059430001,14.573204994249998,5.72968077659,1.9768104554000008,-5.74139547348,15.9899997711
2018-10-05 19:58:56.650,0.112467077741,0.176905293244,-0.943827538342,0.27847892046,-0.218692600727,0.121670559049,-1.89268345,-0.04903325,13.4154972,-17.6602115631,-8.80091667175,-5.83657598495,0.27847892046,-0.218692600727,0.121670559049,9.81999969482,-422.422210693,-47.6073684692,1.6549377439999944,14.388246059430001,14.573204994249998,5.72968077659,1.9768104554000008,-5.74139547348,15.9899997711
2018-10-05 19:58:56.700,0.0904966317072,0.134977199336,-0.946117045988,0.250145822763,-0.280999064445,0.137663811445,-1.7063571,0.2745862,12.4348322,-17.6602115631,-8.80091667175,-5.83657598495,0.27847892046,-0.218692600727,0.121670559049,10.3699998856,-422.422210693,-47.0160827637,1.6549377439999944,15.81824612618,16.43320497875,5.9735381603199995,1.958585739200002,-5.53008174896,15.9899997711
2018-10-05 19:58:56.750,0.0904966317072,0.134977199336,-0.946117045988,0.250145822763,-0.280999064445,0.137663811445,-1.7063571,0.2745862,12.4348322,-17.6602115631,-8.80091667175,-5.83657598495,0.27847892046,-0.218692600727,0.121670559049,10.3699998856,-422.422210693,-47.0160827637,1.6549377439999944,15.81824612618,16.43320497875,5.9735381603199995,1.958585739200002,-5.53008174896,15.9899997711
2018-10-05 19:58:56.800,0.0904966317072,0.134977199336,-0.946117045988,0.250145822763,-0.280999064445,0.137663811445,-1.7063571,0.2745862,12.4348322,-17.6602115631,-8.80091667175,-5.83657598495,0.27847892046,-0.218692600727,0.121670559049,10.8899993896,-451.782592773,-46.4012794495,5.447975158999995,13.641431450842,13.80564630031,6.4181420803,1.9441413880000002,-4.96785783768,15.9899997711
2018-10-05 19:58:56.850,0.0904966317072,0.134977199336,-0.946117045988,0.250145822763,-0.280999064445,0.137663811445,-1.7063571,0.2745862,12.4348322,-17.5939216614,-9.94816398621,-4.63545084,0.250145822763,-0.280999064445,0.137663811445,11.3599996567,-451.782592773,-45.742893219,5.447975158999995,13.631431460379,13.80564630031,6.726845502860001,1.9337921142999992,-4.53643989563,15.9899997711
2018-10-05 19:58:56.900,0.0904966317072,0.134977199336,-0.946117045988,0.250145822763,-0.280999064445,0.137663811445,-1.7063571,0.2745862,12.4348322,-17.5939216614,-9.94816398621,-4.63545084,0.250145822763,-0.280999064445,0.137663811445,11.3599996567,-451.782592773,-45.742893219,5.447975158999995,14.641431421039998,15.735646247850001,6.919234991060001,1.9211959839000006,-4.22218799591,15.9899997711
2018-10-05 19:58:56.950,0.0904966317072,0.134977199336,-0.946117045988,0.250145822763,-0.280999064445,0.137663811445,-1.7063571,0.2745862,12.4348322,-17.5939216614,-9.94816398621,-4.63545084,0.250145822763,-0.280999064445,0.137663811445,11.3599996567,-451.782592773,-45.742893219,5.447975158999995,14.641431421039998,15.735646247850001,6.919234991060001,1.9211959839000006,-4.22218799591,15.9899997711
2018-10-05 19:58:57.000,0.0904966317072,0.134977199336,-0.946117045988,0.250145822763,-0.280999064445,0.137663811445,-1.7063571,0.2745862,12.4348322,-17.5939216614,-9.94816398621,-4.63545084,0.250145822763,-0.280999064445,0.137663811445,11.779999733,-486.12689209,-45.0500984192,5.447975158999995,15.601431369779998,17.25564622878,7.08530402186,1.9094123840999995,-3.9599733352700004,15.9899997711
2018-10-05 19:58:57.050,0.0904966317072,0.134977199336,-0.946117045988,0.250145822763,-0.280999064445,0.137663811445,-1.7063571,0.2745862,12.4348322,-17.5939216614,-9.94816398621,-4.63545084,0.250145822763,-0.280999064445,0.137663811445,11.779999733,-486.12689209,-45.0500984192,5.447975158999995,15.601431369779998,17.25564622878,7.17736124996,1.909896850600001,-3.7471148967700003,15.9899997711
2018-10-05 19:58:57.100,0.0904966317072,0.134977199336,-0.946117045988,0.250145822763,-0.280999064445,0.137663811445,-1.7063571,0.2745862,12.4348322,-17.5608615875,-10.6033849716,-3.41604447365,0.250145822763,-0.280999064445,0.137663811445,12.1499996185,-486.12689209,-44.3137207031,5.447975158999995,16.33143138885,18.51564598082,7.34153342246,1.9008903503999992,-3.3193991184200002,15.9899997711
2018-10-05 19:58:57.150,0.0558679473723,0.0580810284165,-0.95040374544,0.343979001045,-0.260476738214,0.129386633635,-1.2356379,-0.10787315,14.83746145,-17.5608615875,-10.6033849716,-3.41604447365,0.250145822763,-0.280999064445,0.137663811445,12.1499996185,-486.12689209,-44.3137207031,5.447975158999995,16.33143138885,18.51564598082,7.34153342246,1.9008903503999992,-3.3193991184200002,15.9899997711
2018-10-05 19:58:57.200,0.0558679473723,0.0580810284165,-0.95040374544,0.343979001045,-0.260476738214,0.129386633635,-1.2356379,-0.10787315,14.83746145,-17.5608615875,-10.6033849716,-3.41604447365,0.250145822763,-0.280999064445,0.137663811445,12.4799995422,-510.215179443,-43.5773468018,8.764877319000007,10.87086081504,11.74132442474,16.947625637050002,2.7614755629999994,-2.783185482029999,15.9899997711
2018-10-05 19:58:57.250,0.0558679473723,0.0580810284165,-0.95040374544,0.343979001045,-0.260476738214,0.129386633635,-1.2356379,-0.10787315,14.83746145,-17.5608615875,-10.6033849716,-3.41604447365,0.250145822763,-0.280999064445,0.137663811445,12.4799995422,-510.215179443,-43.5773468018,8.764877319000007,10.87086081504,11.761324405669999,17.02376699445,2.755108833299998,-2.3515479564699993,15.9899997711
2018-10-05 19:58:57.300,0.0558679473723,0.0580810284165,-0.95040374544,0.343979001045,-0.260476738214,0.129386633635,-1.2356379,-0.10787315,14.83746145,-17.5608615875,-10.6033849716,-3.41604447365,0.250145822763,-0.280999064445,0.137663811445,12.75,-510.215179443,-138.076400757,12.764877319000007,11.350860834119999,19.72132396699,17.06415987015,2.749947547899998,-2.0565524101299992,16.0
2018-10-05 19:58:57.350,0.0558679473723,0.0580810284165,-0.95040374544,0.343979001045,-0.260476738214,0.129386633635,-1.2356379,-0.10787315,14.83746145,-17.5158557892,-10.9342260361,-1.92007875443,0.343979001045,-0.260476738214,0.129386633635,12.75,-510.215179443,-138.076400757,12.764877319000007,11.350860834119999,19.72132396699,17.06415987015,2.749947547899998,-2.0565524101299992,16.0
2018-10-05 19:58:57.400,0.0558679473723,0.0580810284165,-0.95040374544,0.343979001045,-0.260476738214,0.129386633635,-1.2356379,-0.10787315,14.83746145,-17.5158557892,-10.9342260361,-1.92007875443,0.343979001045,-0.260476738214,0.129386633635,12.9600000381,-523.877685547,-136.342330933,13.764877319000007,11.6608607769,20.38132381439,17.14282178875,2.7089300155,-1.3963817357999992,16.0
2018-10-05 19:58:57.450,0.0558679473723,0.0580810284165,-0.95040374544,0.343979001045,-0.260476738214,0.129386633635,-1.2356379,-0.10787315,14.83746145,-17.5158557892,-10.9342260361,-1.92007875443,0.343979001045,-0.260476738214,0.129386633635,12.9600000381,-523.877685547,-136.342330933,13.764877319000007,11.6608607769,20.39132404329,17.17857217785,2.6757307051999977,-0.9558694362639992,16.0
2018-10-05 19:58:57.500,0.0558679473723,0.0580810284165,-0.95040374544,0.343979001045,-0.260476738214,0.129386633635,-1.2356379,-0.10787315,14.83746145,-17.5158557892,-10.9342260361,-1.92007875443,0.343979001045,-0.260476738214,0.129386633635,12.9600000381,-523.877685547,-136.342330933,13.764877319000007,11.6608607769,20.39132404329,17.17857217785,2.6757307051999977,-0.9558694362639992,16.0
2018-10-05 19:58:57.550,0.0234054694103,-0.0146795462596,-0.943570232191,0.13579069078,-0.217537209392,0.0685717612505,-0.87279185,0.4511059,17.74022985,-17.5158557892,-10.9342260361,-1.92007875443,0.343979001045,-0.260476738214,0.129386633635,13.1099996567,-523.877685547,-134.590942383,13.764877319000007,11.79086065292,20.99132347109,17.187713146249997,2.645829200699998,-0.4710821211339992,16.0
2018-10-05 19:58:57.600,0.0234054694103,-0.0146795462596,-0.943570232191,0.13579069078,-0.217537209392,0.0685717612505,-0.87279185,0.4511059,17.74022985,-17.3869686127,-11.0309238434,-0.0789023637772,0.13579069078,-0.217537209392,0.0685717612505,13.1899995804,-531.641174316,-132.849853516,17.597717284999987,5.58597171307,14.39539885522,17.171226978249997,2.603047370899999,0.03785818442700075,16.0
2018-10-05 19:58:57.650,0.0234054694103,-0.0146795462596,-0.943570232191,0.13579069078,-0.217537209392,0.0685717612505,-0.87279185,0.4511059,17.74022985,-17.3869686127,-11.0309238434,-0.0789023637772,0.13579069078,-0.217537209392,0.0685717612505,13.1899995804,-531.641174316,-132.849853516,17.597717284999987,5.59597170353,14.39539885522,17.13626527785,2.5675096512,0.37359136343000077,16.0
2018-10-05 19:58:57.700,0.0234054694103,-0.0146795462596,-0.943570232191,0.13579069078,-0.217537209392,0.0685717612505,-0.87279185,0.4511059,17.74022985,-17.3869686127,-11.0309238434,-0.0789023637772,0.13579069078,-0.217537209392,0.0685717612505,13.1999998093,-531.641174316,-131.111984253,17.597717284999987,5.4759718179700005,14.51539969442,17.08306932445,2.5306901932,0.6746135354040008,16.0
2018-10-05 19:58:57.750,0.0234054694103,-0.0146795462596,-0.943570232191,0.13579069078,-0.217537209392,0.0685717612505,-0.87279185,0.4511059,17.74022985,-17.3869686127,-11.0309238434,-0.0789023637772,0.13579069078,-0.217537209392,0.0685717612505,13.1999998093,-531.641174316,-131.111984253,17.597717284999987,5.4759718179700005,14.51539969442,17.08306932445,2.5306901932,0.6746135354040008,16.0
2018-10-05 19:58:57.800,0.0234054694103,-0.0146795462596,-0.943570232191,0.13579069078,-0.217537209392,0.0685717612505,-0.87279185,0.4511059,17.74022985,-17.2381324768,-10.8322372437,1.08513855934,0.13579069078,-0.217537209392,0.0685717612505,13.1599998474,-513.981262207,-129.390914917,17.597717284999987,5.3059717416800005,14.44539999962,17.00267553325,2.479083061199999,1.0036352872800007,16.0
2018-10-05 19:58:57.850,0.0234054694103,-0.0146795462596,-0.943570232191,0.13579069078,-0.217537209392,0.0685717612505,-0.87279185,0.4511059,17.74022985,-17.2381324768,-10.8322372437,1.08513855934,0.13579069078,-0.217537209392,0.0685717612505,13.1599998474,-513.981262207,-129.390914917,17.597717284999987,5.3059717416800005,14.44539999962,16.95322847365,2.4553594589000003,1.1669884920100007,16.0
2018-10-05 19:58:57.900,0.0234054694103,-0.0146795462596,-0.943570232191,0.13579069078,-0.217537209392,0.0685717612505,-0.87279185,0.4511059,17.74022985,-17.2381324768,-10.8322372437,1.08513855934,0.13579069078,-0.217537209392,0.0685717612505,13.0699996948,-513.981262207,-127.669815063,17.597717284999987,5.0659717321399995,14.235399007820002,16.89292764665,2.4365606308000007,1.3292721509900007,16.0
2018-10-05 19:58:57.950,0.0234054694103,-0.0146795462596,-0.943570232191,0.13579069078,-0.217537209392,0.0685717612505,-0.87279185,0.4511059,17.74022985,-17.2381324768,-10.8322372437,1.08513855934,0.13579069078,-0.217537209392,0.0685717612505,13.0699996948,-513.981262207,-127.669815063,17.597717284999987,5.0659717321399995,14.22539877892,16.787600994149997,2.409718513499998,1.5596815347700006,16.0
2018-10-05 19:58:58.000,0.0113647873914,-0.0761740070775,-0.94113923945,0.216982215643,-0.125083357096,-0.0556534938514,-0.93163175,0.5295591,14.24906245,-17.2381324768,-10.8322372437,1.08513855934,0.13579069078,-0.217537209392,0.0685717612505,12.9600000381,-483.46786499,-125.982818604,17.425689696999996,1.13250124455,7.57952117922,16.72312688825,2.386235237100001,1.6946307420700006,16.0
2018-10-05 19:58:58.050,0.0113647873914,-0.0761740070775,-0.94113923945,0.216982215643,-0.125083357096,-0.0556534938514,-0.93163175,0.5295591,14.24906245,-17.1256961823,-10.4112606049,2.01245546341,0.216982215643,-0.125083357096,-0.0556534938514,12.9600000381,-483.46786499,-125.982818604,17.425689696999996,1.13250124455,7.57952117922,16.60379076005,2.359454155,1.9309043884300006,16.0
2018-10-05 19:58:58.100,0.0113647873914,-0.0761740070775,-0.94113923945,0.216982215643,-0.125083357096,-0.0556534938514,-0.93163175,0.5295591,14.24906245,-17.1256961823,-10.4112606049,2.01245546341,0.216982215643,-0.125083357096,-0.0556534938514,12.8099994659,-483.46786499,-124.309341431,17.425689696999996,0.7225011587199999,6.999520301819999,16.47054433825,2.3402032851999994,2.137059211730001,16.0
2018-10-05 19:58:58.150,0.0113647873914,-0.0761740070775,-0.94113923945,0.216982215643,-0.125083357096,-0.0556534938514,-0.93163175,0.5295591,14.24906245,-17.1256961823,-10.4112606049,2.01245546341,0.216982215643,-0.125083357096,-0.0556534938514,12.8099994659,-483.46786499,-124.309341431,17.425689696999996,0.7225011587199999,6.999520301819999,16.380843639349997,2.3300237655,2.216549873350001,16.0
2018-10-05 19:58:58.200,0.0113647873914,-0.0761740070775,-0.94113923945,0.216982215643,-0.125083357096,-0.0556534938514,-0.93163175,0.5295591,14.24906245,-17.1256961823,-10.4112606049,2.01245546341,0.216982215643,-0.125083357096,-0.0556534938514,12.6300001144,-462.225921631,-122.669937134,18.425689696999996,0.32250118255999993,6.269520759619999,16.24620866775,2.3146390915,2.3144042491900008,16.0
2018-10-05 19:58:58.250,0.0103574405529,-0.109010030563,-0.942964816146,0.177760109305,-0.0737341344357,-0.0797198489308,-0.87279185,0.30400615,11.42474725,-17.1256961823,-10.4112606049,2.01245546341,0.216982215643,-0.125083357096,-0.0556534938514,12.6300001144,-462.225921631,-122.669937134,18.425689696999996,0.3325011730199998,6.269520759619999,16.10209417343,2.3077535628999986,2.3900141716000007,16.0
2018-10-05 19:58:58.300,0.0103574405529,-0.109010030563,-0.942964816146,0.177760109305,-0.0737341344357,-0.0797198489308,-0.87279185,0.30400615,11.42474725,-17.0750331879,-9.85812187195,2.43600058556,0.177760109305,-0.0737341344357,-0.0797198489308,12.4299993515,-462.225921631,-121.044067383,16.573173522999994,-1.19890511035,1.8697519301999996,16.0050740242,2.3029317856000002,2.436000585560001,16.0
2018-10-05 19:58:58.350,0.0103574405529,-0.109010030563,-0.942964816146,0.177760109305,-0.0737341344357,-0.0797198489308,-0.87279185,0.30400615,11.42474725,-17.0750331879,-9.85812187195,2.43600058556,0.177760109305,-0.0737341344357,-0.0797198489308,12.4299993515,-462.225921631,-121.044067383,16.573173522999994,-1.19890511035,1.8697519301999996,15.86252832413,2.2950468062999985,2.4704582691200008,16.0
2018-10-05 19:58:58.400,0.0103574405529,-0.109010030563,-0.942964816146,0.177760109305,-0.0737341344357,-0.0797198489308,-0.87279185,0.30400615,11.42474725,-17.0750331879,-9.85812187195,2.43600058556,0.177760109305,-0.0737341344357,-0.0797198489308,12.2399997711,-428.56539917,-119.445770264,16.573173522999994,-1.5489051341999998,0.9997510910000003,15.72741937637,2.282757759099999,2.480777740480001,16.0
2018-10-05 19:58:58.450,0.0103574405529,-0.109010030563,-0.942964816146,0.177760109305,-0.0737341344357,-0.0797198489308,-0.87279185,0.30400615,11.42474725,-17.0750331879,-9.85812187195,2.43600058556,0.177760109305,-0.0737341344357,-0.0797198489308,12.2399997711,-428.56539917,-119.445770264,16.573173522999994,-1.5489051341999998,0.9997510910000003,15.72741937637,2.282757759099999,2.480777740480001,16.0
2018-10-05 19:58:58.500,0.0103574405529,-0.109010030563,-0.942964816146,0.177760109305,-0.0737341344357,-0.0797198489308,-0.87279185,0.30400615,11.42474725,-17.0750331879,-9.85812187195,2.43600058556,0.177760109305,-0.0737341344357,-0.0797198489308,12.0399999619,-428.56539917,-117.874534607,16.573173522999994,-1.868905127044,0.18975162509999954,15.59087991714,2.2705125808999984,2.485469818120001,16.0
2018-10-05 19:58:58.550,0.0103574405529,-0.109010030563,-0.942964816146,0.177760109305,-0.0737341344357,-0.0797198489308,-0.87279185,0.30400615,11.42474725,-17.0750331879,-9.85812187195,2.43600058556,0.177760109305,-0.0737341344357,-0.0797198489308,12.0399999619,-428.56539917,-117.874534607,16.573173522999994,-1.868905127044,0.18975162509999954,15.49701738357,2.2633085250999994,2.4957983493800007,16.0
2018-10-05 19:58:58.600,0.0103574405529,-0.109010030563,-0.942964816146,0.177760109305,-0.0737341344357,-0.0797198489308,-0.87279185,0.30400615,11.42474725,-17.0282783508,-9.2581911087,2.50161170959,0.177760109305,-0.0737341344357,-0.0797198489308,11.8400001526,-404.938323975,-116.330886841,16.573173522999994,-2.1789051294279997,-0.6602487563999997,15.32199907303,2.245539665200001,2.474884748460001,16.0
2018-10-05 19:58:58.650,0.0103574405529,-0.109010030563,-0.942964816146,0.177760109305,-0.0737341344357,-0.0797198489308,-0.87279185,0.30400615,11.42474725,-17.0282783508,-9.2581911087,2.50161170959,0.177760109305,-0.0737341344357,-0.0797198489308,11.8400001526,-404.938323975,-116.330886841,16.573173522999994,-2.1789051294279997,-0.6602487563999997,15.20328760147,2.2266397475999984,2.431565761570001,16.0
2018-10-05 19:58:58.700,0.0103574405529,-0.109010030563,-0.942964816146,0.177760109305,-0.0737341344357,-0.0797198489308,-0.87279185,0.30400615,11.42474725,-17.0282783508,-9.2581911087,2.50161170959,0.177760109305,-0.0737341344357,-0.0797198489308,11.6499996185,-404.938323975,-114.79750824,16.573173522999994,-2.438905119892,-1.3702487946000002,15.1203379631,2.2109308242999983,2.4172990322100008,16.0
2018-10-05 19:58:58.750,0.00628005647239,-0.126467485101,-0.942737074116,0.00593285169452,-0.00580882234499,-0.0517439804971,-0.63743225,0.6080123,9.77723005,-17.0282783508,-9.2581911087,2.50161170959,0.177760109305,-0.0737341344357,-0.0797198489308,11.4600000381,-376.61038208,-113.284690857,15.77936554,-3.426123976712,-3.1653814316,15.1203379631,2.2109308242999983,2.4172990322100008,16.0
2018-10-05 19:58:58.800,0.00628005647239,-0.126467485101,-0.942737074116,0.00593285169452,-0.00580882234499,-0.0517439804971,-0.63743225,0.6080123,9.77723005,-16.9488811493,-8.78252601624,2.34293532372,0.00593285169452,-0.00580882234499,-0.0517439804971,11.4600000381,-376.61038208,-113.284690857,15.77936554,-3.426123976712,-3.1653814316,14.96748971939,2.184077262899999,2.356150388720001,16.0
2018-10-05 19:58:58.850,0.00628005647239,-0.126467485101,-0.942737074116,0.00593285169452,-0.00580882234499,-0.0517439804971,-0.63743225,0.6080123,9.77723005,-16.9488811493,-8.78252601624,2.34293532372,0.00593285169452,-0.00580882234499,-0.0517439804971,11.4600000381,-376.61038208,-113.284690857,15.77936554,-3.686123982076,-3.8553810119000005,14.96748971939,2.184077262899999,2.356150388720001,16.0
2018-10-05 19:58:58.900,0.00628005647239,-0.126467485101,-0.942737074116,0.00593285169452,-0.00580882234499,-0.0517439804971,-0.63743225,0.6080123,9.77723005,-16.9488811493,-8.78252601624,2.34293532372,0.00593285169452,-0.00580882234499,-0.0517439804971,11.4600000381,-376.61038208,-113.284690857,15.77936554,-3.686123982076,-3.8553810119000005,14.81461858749,2.1532869339000005,2.294578790660001,16.0
2018-10-05 19:58:58.950,0.00628005647239,-0.126467485101,-0.942737074116,0.00593285169452,-0.00580882234499,-0.0517439804971,-0.63743225,0.6080123,9.77723005,-16.9488811493,-8.78252601624,2.34293532372,0.00593285169452,-0.00580882234499,-0.0517439804971,11.279999733,-376.61038208,-111.798927307,15.77936554,-3.936123982076,-4.5153808593499996,14.70120382309,2.136015891999998,2.227724552150001,16.0
2018-10-05 19:58:59.000,0.00628005647239,-0.126467485101,-0.942737074116,0.00593285169452,-0.00580882234499,-0.0517439804971,-0.63743225,0.6080123,9.77723005,-16.9488811493,-8.78252601624,2.34293532372,0.00593285169452,-0.00580882234499,-0.0517439804971,11.1099996567,-346.396636963,-110.330459595,15.77936554,-4.126123964791,-5.2053813934,14.55007791519,2.1185026169000007,2.105042934420001,16.0
2018-10-05 19:58:59.050,0.00628005647239,-0.126467485101,-0.942737074116,0.00593285169452,-0.00580882234499,-0.0517439804971,-0.63743225,0.6080123,9.77723005,-16.8821086884,-8.32583618164,2.032797575,0.00593285169452,-0.00580882234499,-0.0517439804971,11.1099996567,-346.396636963,-110.330459595,15.77936554,-4.126123964791,-5.2053813934,14.55007791519,2.1185026169000007,2.105042934420001,16.0
2018-10-05 19:58:59.100,0.00628005647239,-0.126467485101,-0.942737074116,0.00593285169452,-0.00580882234499,-0.0517439804971,-0.63743225,0.6080123,9.77723005,-16.8821086884,-8.32583618164,2.032797575,0.00593285169452,-0.00580882234499,-0.0517439804971,10.9499998093,-346.396636963,-108.868492126,15.77936554,-4.256123960022,-5.895380973789999,14.36670541763,2.0937528610000005,1.9258954525000007,16.0
2018-10-05 19:58:59.150,0.00628005647239,-0.126467485101,-0.942737074116,0.00593285169452,-0.00580882234499,-0.0517439804971,-0.63743225,0.6080123,9.77723005,-16.8821086884,-8.32583618164,2.032797575,0.00593285169452,-0.00580882234499,-0.0517439804971,10.9499998093,-346.396636963,-108.868492126,15.77936554,-4.256123960022,-5.895380973789999,14.36670541763,2.0937528610000005,1.9258954525000007,16.0
2018-10-05 19:58:59.200,0.0107921359495,-0.112948045686,-0.951831483603,0.0193462893367,0.0128654548898,-0.0554189682007,-0.63743225,0.18632635,8.9044382,-16.8821086884,-8.32583618164,2.032797575,0.00593285169452,-0.00580882234499,-0.0517439804971,10.8099994659,-322.301086426,-107.450889587,14.040489197,-3.090549051761,-5.31985998151,14.140941619869999,2.070704460099998,1.7896873951000007,16.0
2018-10-05 19:58:59.250,0.0107921359495,-0.112948045686,-0.951831483603,0.0193462893367,0.0128654548898,-0.0554189682007,-0.63743225,0.18632635,8.9044382,-16.8821086884,-8.32583618164,2.032797575,0.00593285169452,-0.00580882234499,-0.0517439804971,10.8099994659,-322.301086426,-107.450889587,14.040489197,-3.090549051761,-5.31985998151,14.140941619869999,2.070704460099998,1.7896873951000007,16.0
2018-10-05 19:58:59.300,0.0107921359495,-0.112948045686,-0.951831483603,0.0193462893367,0.0128654548898,-0.0554189682007,-0.63743225,0.18632635,8.9044382,-16.8316917419,-7.88297748566,1.73959648609,0.0193462893367,0.0128654548898,-0.0554189682007,10.6799993515,-322.301086426,-106.030029297,14.040489197,-3.240549027919,-6.02986001966,13.997190952299999,2.0567331313999997,1.7162880897500006,16.0
2018-10-05 19:58:59.350,0.0107921359495,-0.112948045686,-0.951831483603,0.0193462893367,0.0128654548898,-0.0554189682007,-0.63743225,0.18632635,8.9044382,-16.8316917419,-7.88297748566,1.73959648609,0.0193462893367,0.0128654548898,-0.0554189682007,10.6799993515,-322.301086426,-106.030029297,14.040489197,-3.240549027919,-6.02986001966,13.997190952299999,2.0567331313999997,1.7162880897500006,16.0
2018-10-05 19:58:59.400,0.0107921359495,-0.112948045686,-0.951831483603,0.0193462893367,0.0128654548898,-0.0554189682007,-0.63743225,0.18632635,8.9044382,-16.8316917419,-7.88297748566,1.73959648609,0.0193462893367,0.0128654548898,-0.0554189682007,10.5500001907,-295.302581787,-104.640014648,14.040489197,-3.390549063682,-6.79986000058,13.838652610779999,2.0498628615999994,1.6773041486700007,16.0
2018-10-05 19:58:59.450,0.0107921359495,-0.112948045686,-0.951831483603,0.0193462893367,0.0128654548898,-0.0554189682007,-0.63743225,0.18632635,8.9044382,-16.8316917419,-7.88297748566,1.73959648609,0.0193462893367,0.0128654548898,-0.0554189682007,10.5500001907,-295.302581787,-104.640014648,14.040489197,-3.390549063682,-6.79986000058,13.72242164612,2.0427694321,1.6492732763300006,16.0
2018-10-05 19:58:59.500,0.0107921359495,-0.112948045686,-0.951831483603,0.0193462893367,0.0128654548898,-0.0554189682007,-0.63743225,0.18632635,8.9044382,-16.8316917419,-7.88297748566,1.73959648609,0.0193462893367,0.0128654548898,-0.0554189682007,10.4299993515,-295.302581787,-103.243492126,14.040489197,-3.57054901123,-7.57985973355,13.6231098175,2.0278081894,1.5988273620600006,16.0
2018-10-05 19:58:59.550,0.0107921359495,-0.112948045686,-0.951831483603,0.0193462893367,0.0128654548898,-0.0554189682007,-0.63743225,0.18632635,8.9044382,-16.7940998077,-7.44459104538,1.5759510994,0.0193462893367,0.0128654548898,-0.0554189682007,10.4299993515,-295.302581787,-103.243492126,14.040489197,-3.57054901123,-7.57985973355,13.6231098175,2.0278081894,1.5988273620600006,16.0
2018-10-05 19:58:59.600,0.0107921359495,-0.112948045686,-0.951831483603,0.0193462893367,0.0128654548898,-0.0554189682007,-0.63743225,0.18632635,8.9044382,-16.7940998077,-7.44459104538,1.5759510994,0.0193462893367,0.0128654548898,-0.0554189682007,10.3000001907,-278.271484375,-101.894584656,14.040489197,-3.71054899692,-8.13985967633,13.48640537262,1.9925718306999993,1.4860510826100006,16.0
2018-10-05 19:58:59.650,0.0128116054503,-0.0991867443524,-0.953548443196,-0.195367470384,0.0386962816119,0.011351056397,-0.57859235,0.63743225,9.1201845,-16.7940998077,-7.44459104538,1.5759510994,0.0193462893367,0.0128654548898,-0.0554189682007,10.3000001907,-278.271484375,-101.894584656,14.006050110000004,-3.0300834178900002,-6.684694767029999,13.42100954056,1.9645719527999983,1.4118794202800007,16.0
2018-10-05 19:58:59.700,0.0128116054503,-0.0991867443524,-0.953548443196,-0.195367470384,0.0386962816119,0.011351056397,-0.57859235,0.63743225,9.1201845,-16.7940998077,-7.44459104538,1.5759510994,0.0193462893367,0.0128654548898,-0.0554189682007,10.1899995804,-278.271484375,-100.555412292,14.006050110000004,-3.15008342266,-7.0746951103599995,13.377139091490001,1.9447107315000007,1.3643333911900006,16.0
2018-10-05 19:58:59.750,0.0128116054503,-0.0991867443524,-0.953548443196,-0.195367470384,0.0386962816119,0.011351056397,-0.57859235,0.63743225,9.1201845,-16.7940998077,-7.44459104538,1.5759510994,0.0193462893367,0.0128654548898,-0.0554189682007,10.1899995804,-278.271484375,-100.555412292,14.006050110000004,-3.15008342266,-7.0746951103599995,13.377139091490001,1.9447107315000007,1.3643333911900006,16.0
2018-10-05 19:58:59.800,0.0128116054503,-0.0991867443524,-0.953548443196,-0.195367470384,0.0386962816119,0.011351056397,-0.57859235,0.63743225,9.1201845,-16.6756305695,-7.15732574463,1.25772249699,-0.195367470384,0.0386962816119,0.011351056397,10.0799999237,-259.900482178,-99.2302932739,14.006050110000004,-3.24008345604,-7.384695053129999,13.304277896879999,1.9035291672000003,1.2577224969900007,16.0
2018-10-05 19:58:59.850,0.0128116054503,-0.0991867443524,-0.953548443196,-0.195367470384,0.0386962816119,0.011351056397,-0.57859235,0.63743225,9.1201845,-16.6756305695,-7.15732574463,1.25772249699,-0.195367470384,0.0386962816119,0.011351056397,10.0799999237,-259.900482178,-99.2302932739,14.006050110000004,-3.24008345604,-7.384695053129999,13.2479429245,1.8529443740999998,1.1748179197300006,16.0
2018-10-05 19:58:59.900,0.0128116054503,-0.0991867443524,-0.953548443196,-0.195367470384,0.0386962816119,0.011351056397,-0.57859235,0.63743225,9.1201845,-16.6756305695,-7.15732574463,1.25772249699,-0.195367470384,0.0386962816119,0.011351056397,9.98999977112,-259.900482178,-97.8981628418,14.006050110000004,-3.31008350849,-7.524694919619999,13.2266588211,1.828352928100001,1.1006314754500006,16.0
2018-10-05 19:58:59.950,0.0128116054503,-0.0991867443524,-0.953548443196,-0.195367470384,0.0386962816119,0.011351056397,-0.57859235,0.63743225,9.1201845,-16.6756305695,-7.15732574463,1.25772249699,-0.195367470384,0.0386962816119,0.011351056397,9.98999977112,-259.900482178,-97.8981628418,14.006050110000004,-3.31008350849,-7.524694919619999,13.2266588211,1.828352928100001,1.1006314754500006,16.0
2018-10-05 19:59:00.000,0.0128116054503,-0.0991867443524,-0.953548443196,-0.195367470384,0.0386962816119,0.011351056397,-0.57859235,0.63743225,9.1201845,-16.5333881378,-7.04134893417,0.896691858768,-0.195367470384,0.0386962816119,0.011351056397,9.89999961853,-236.602966309,-96.573059082,14.006050110000004,-3.32008349896,-7.55469489101,13.19232797622,1.774281501799999,0.9488807320590008,16.0
2018-10-05 19:59:00.050,0.0152250969182,-0.05387212093,-0.960547144109,-0.112896613777,0.0963656902313,-0.111383520067,-0.50013915,0.6276256,7.75706015,-16.5333881378,-7.04134893417,0.896691858768,-0.195367470384,0.0386962816119,0.011351056397,9.89999961853,-236.602966309,-96.573059082,14.006050110000004,-3.32008349896,-7.55469489101,13.18209218979,1.7317953110000008,0.7831208705900008,16.0
2018-10-05 19:59:00.100,0.0152250969182,-0.05387212093,-0.960547144109,-0.112896613777,0.0963656902313,-0.111383520067,-0.50013915,0.6276256,7.75706015,-16.5333881378,-7.04134893417,0.896691858768,-0.195367470384,0.0386962816119,0.011351056397,9.84000015259,-236.602966309,-95.2641830444,12.667823791999993,-1.4259207704989199,-2.5084428787300004,13.17671537399,1.7073240280000004,0.6809033155440007,16.0
2018-10-05 19:59:00.150,0.0152250969182,-0.05387212093,-0.960547144109,-0.112896613777,0.0963656902313,-0.111383520067,-0.50013915,0.6276256,7.75706015,-16.5333881378,-7.04134893417,0.896691858768,-0.195367470384,0.0386962816119,0.011351056397,9.84000015259,-236.602966309,-95.2641830444,12.667823791999993,-1.4259207704989199,-2.5084428787300004,13.16477632522,1.6700220107999986,0.5502471327780007,16.0
2018-10-05 19:59:00.200,0.0152250969182,-0.05387212093,-0.960547144109,-0.112896613777,0.0963656902313,-0.111383520067,-0.50013915,0.6276256,7.75706015,-16.5333881378,-7.04134893417,0.896691858768,-0.195367470384,0.0386962816119,0.011351056397,9.80000019073,-221.999938965,-93.9623336792,12.667823791999993,-1.30592076573892,-2.37844276429,13.15492153168,1.6367216110000005,0.41355919838000077,16.0
2018-10-05 19:59:00.250,0.0152250969182,-0.05387212093,-0.960547144109,-0.112896613777,0.0963656902313,-0.111383520067,-0.50013915,0.6276256,7.75706015,-16.3826408386,-6.98594427109,0.285680800676,-0.112896613777,0.0963656902313,-0.111383520067,9.80000019073,-221.999938965,-93.9623336792,12.667823791999993,-1.30592076573892,-2.37844276429,13.14029741287,1.6199789047,0.3236427605150008,16.0
2018-10-05 19:59:00.300,0.0152250969182,-0.05387212093,-0.960547144109,-0.112896613777,0.0963656902313,-0.111383520067,-0.50013915,0.6276256,7.75706015,-16.3826408386,-6.98594427109,0.285680800676,-0.112896613777,0.0963656902313,-0.111383520067,9.80000019073,-221.999938965,-93.9623336792,12.667823791999993,-1.30592076573892,-2.37844276429,13.14029741287,1.6199789047,0.3236427605150008,16.0
2018-10-05 19:59:00.350,0.0152250969182,-0.05387212093,-0.960547144109,-0.112896613777,0.0963656902313,-0.111383520067,-0.50013915,0.6276256,7.75706015,-16.3826408386,-6.98594427109,0.285680800676,-0.112896613777,0.0963656902313,-0.111383520067,9.77999973297,-221.999938965,-92.653465271,12.667823791999993,-1.1559207895789199,-2.3384428024300004,13.08970880508,1.5803728103,0.06598150730130074,16.0
