%time,field.orientation.x,field.orientation.y,field.orientation.z,field.angular_velocity.x,field.angular_velocity.y,field.angular_velocity.z,field.linear_acceleration.x,field.linear_acceleration.y,field.linear_acceleration.z,field.twist.linear.x,field.twist.linear.y,field.twist.linear.z,field.twist.angular.x,field.twist.angular.y,field.twist.angular.z,field.alt_error,field.aspd_error,field.xtrack_error,delta_yaw,delta_pitch,delta_roll,delta_x,delta_y,delta_z,delta_roll_airspeed
2018-10-05 19:56:52.850,,,,,,,,,,,,,,,,0.699999988079,-1066.87512207,-34.8731956482,184.566833496,9.67405748368,38.8072257936395,32.576940536500004,17.18721337474948,-1.619382381439998,15.0
2018-10-05 19:56:52.900,,,,,,,,,,,,,,,,0.870000004768,-1066.87512207,-32.4589805603,183.566833496,10.034057378770001,42.3972256184,32.8670635224,16.75886674084948,-1.483483195299998,15.0
2018-10-05 19:56:52.950,,,,,,,,,,-16.7661037445,-16.8670654297,-1.4834831953,0.0342554785311,-0.245739221573,0.259443640709,0.870000004768,-1066.87512207,-32.4589805603,183.566833496,9.79405736924,47.28722572331,33.0440311432,16.47760529674948,-1.373953104019998,15.0
2018-10-05 19:56:53.000,,,,,,,,,,-16.7661037445,-16.8670654297,-1.4834831953,0.0342554785311,-0.245739221573,0.259443640709,1.0,-1032.51586914,-30.0848426819,182.566833496,9.79405736924,49.247225761500005,33.200403213499996,16.21226830644948,-1.255836725229998,15.0
2018-10-05 19:56:53.050,-0.0695611023776,0.214936623803,-0.871840500739,0.585964858532,-0.296467572451,0.213605999947,-1.7455837,0.980665,15.0826277,-16.7661037445,-16.8670654297,-1.4834831953,0.0342554785311,-0.245739221573,0.259443640709,1.0,-1032.51586914,-30.0848426819,190.126052856,7.5067615509,37.7102460861,33.4984302521,15.67962021984948,-0.953856885432998,15.0
2018-10-05 19:56:53.100,-0.0695611023776,0.214936623803,-0.871840500739,0.585964858532,-0.296467572451,0.213605999947,-1.7455837,0.980665,15.0826277,-16.7661037445,-16.8670654297,-1.4834831953,0.0342554785311,-0.245739221573,0.259443640709,1.09000003338,-1032.51586914,-27.7207698822,189.126052856,7.39676141739,34.13024616239,33.7183170319,15.24388547104948,-0.635796308516998,15.0
2018-10-05 19:56:53.150,-0.0695611023776,0.214936623803,-0.871840500739,0.585964858532,-0.296467572451,0.213605999947,-1.7455837,0.980665,15.0826277,-15.1119823456,-17.7850723267,-0.52032583952,0.585964858532,-0.296467572451,0.213605999947,1.09000003338,-1032.51586914,-27.7207698822,189.126052856,7.39676141739,34.13024616239,33.7183170319,15.24388547104948,-0.635796308516998,15.0
2018-10-05 19:56:53.200,-0.0695611023776,0.214936623803,-0.871840500739,0.585964858532,-0.296467572451,0.213605999947,-1.7455837,0.980665,15.0826277,-15.1119823456,-17.7850723267,-0.52032583952,0.585964858532,-0.296467572451,0.213605999947,1.12000000477,-1015.10028076,124.661643982,186.126052856,5.03676152229,-19.1197528839,34.0282554627,14.56652398264948,-0.00420664530246804,15.9899997711
2018-10-05 19:56:53.250,-0.0664454119817,0.145049871909,-0.869870020648,0.519291043282,-0.258665680885,0.17753046751,-1.50041745,1.42196425,17.5539035,-15.1119823456,-17.7850723267,-0.52032583952,0.585964858532,-0.296467572451,0.213605999947,1.12000000477,-1015.10028076,124.661643982,186.126052856,5.03676152229,-19.1197528839,34.0282554627,14.56652398264948,-0.00420664530246804,15.9899997711
2018-10-05 19:56:53.300,-0.0664454119817,0.145049871909,-0.869870020648,0.519291043282,-0.258665680885,0.17753046751,-1.50041745,1.42196425,17.5539035,-15.1119823456,-17.7850723267,-0.52032583952,0.585964858532,-0.296467572451,0.213605999947,1.05999994278,-916.100341797,126.124839783,190.252380371,-0.4048204421999999,-26.6629943848,34.2544479371,13.92804856454948,0.566283226013002,15.9899997711
2018-10-05 19:56:53.350,-0.0664454119817,0.145049871909,-0.869870020648,0.519291043282,-0.258665680885,0.17753046751,-1.50041745,1.42196425,17.5539035,-15.1119823456,-17.7850723267,-0.52032583952,0.585964858532,-0.296467572451,0.213605999947,1.05999994278,-916.100341797,126.124839783,190.252380371,-0.4048204421999999,-26.6629943848,34.2544479371,13.92804856454948,0.566283226013002,15.9899997711
2018-10-05 19:56:53.400,-0.0664454119817,0.145049871909,-0.869870020648,0.519291043282,-0.258665680885,0.17753046751,-1.50041745,1.42196425,17.5539035,-13.2956886292,-18.4538269043,0.963394522667,0.519291043282,-0.258665680885,0.17753046751,0.939999997616,-888.944030762,127.503517151,190.252380371,-3.2748203277599996,-26.6629943848,34.415761947700005,13.41694588814948,0.904693424702002,15.9899997711
2018-10-05 19:56:53.450,-0.0664454119817,0.145049871909,-0.869870020648,0.519291043282,-0.258665680885,0.17753046751,-1.50041745,1.42196425,17.5539035,-13.2956886292,-18.4538269043,0.963394522667,0.519291043282,-0.258665680885,0.17753046751,0.939999997616,-888.944030762,127.503517151,190.252380371,-3.4548201560999994,-26.6629943848,34.565942764300004,12.88445515794948,1.116921663280002,15.9899997711
2018-10-05 19:56:53.500,-0.0664454119817,0.145049871909,-0.869870020648,0.519291043282,-0.258665680885,0.17753046751,-1.50041745,1.42196425,17.5539035,-13.2956886292,-18.4538269043,0.963394522667,0.519291043282,-0.258665680885,0.17753046751,0.769999980927,-888.944030762,128.848403931,190.252380371,-6.1548204422,-26.6629943848,34.6394348145,12.61759896434948,1.174999475480002,15.9899997711
2018-10-05 19:56:53.550,-0.0664454119817,0.145049871909,-0.869870020648,0.519291043282,-0.258665680885,0.17753046751,-1.50041745,1.42196425,17.5539035,-13.2956886292,-18.4538269043,0.963394522667,0.519291043282,-0.258665680885,0.17753046751,0.769999980927,-888.944030762,128.848403931,190.252380371,-6.1548204422,-26.6629943848,34.6394348145,12.61759896434948,1.174999475480002,15.9899997711
2018-10-05 19:56:53.600,-0.119846514002,0.214464337937,-0.835181703665,-0.603316366673,-0.010797072202,0.12470946461,-1.55925735,1.57887065,12.9055514,-13.2956886292,-18.4538269043,0.963394522667,0.519291043282,-0.258665680885,0.17753046751,0.579999983311,-851.56439209,130.091827393,190.252380371,-8.99482059475,-26.6629943848,34.8063526154,12.02817006264948,1.237835168840002,15.9899997711
2018-10-05 19:56:53.650,-0.119846514002,0.214464337937,-0.835181703665,-0.603316366673,-0.010797072202,0.12470946461,-1.55925735,1.57887065,12.9055514,-11.6070261002,-18.9225177765,1.24634766579,-0.603316366673,-0.010797072202,0.12470946461,0.579999983311,-851.56439209,130.091827393,194.851455688,-9.547343015676999,-16.5523242951,34.8874511719,11.73533768814948,1.256137013440002,15.9899997711
2018-10-05 19:56:53.700,-0.119846514002,0.214464337937,-0.835181703665,-0.603316366673,-0.010797072202,0.12470946461,-1.55925735,1.57887065,12.9055514,-11.6070261002,-18.9225177765,1.24634766579,-0.603316366673,-0.010797072202,0.12470946461,0.379999995232,-851.56439209,131.293029785,194.851455688,-11.857342481577,-16.5523242951,35.005395889300004,11.22111458934948,1.159188747410002,15.9899997711
2018-10-05 19:56:53.750,-0.119846514002,0.214464337937,-0.835181703665,-0.603316366673,-0.010797072202,0.12470946461,-1.55925735,1.57887065,12.9055514,-11.6070261002,-18.9225177765,1.24634766579,-0.603316366673,-0.010797072202,0.12470946461,0.379999995232,-851.56439209,131.293029785,194.851455688,-11.857342481577,-16.5523242951,35.005395889300004,11.22111458934948,1.159188747410002,15.9899997711
2018-10-05 19:56:53.800,-0.119846514002,0.214464337937,-0.835181703665,-0.603316366673,-0.010797072202,0.12470946461,-1.55925735,1.57887065,12.9055514,-11.6070261002,-18.9225177765,1.24634766579,-0.603316366673,-0.010797072202,0.12470946461,0.199999988079,-821.403137207,132.409683228,194.851455688,-11.837342977477,-16.5523242951,35.071182250999996,10.87846226854948,1.034458518030002,15.9899997711
2018-10-05 19:56:53.850,-0.119846514002,0.214464337937,-0.835181703665,-0.603316366673,-0.010797072202,0.12470946461,-1.55925735,1.57887065,12.9055514,-11.6070261002,-18.9225177765,1.24634766579,-0.603316366673,-0.010797072202,0.12470946461,0.199999988079,-821.403137207,132.409683228,194.851455688,-13.947342634177,-16.5523242951,35.167314529500004,10.38789696854948,0.879383802414002,15.9899997711
2018-10-05 19:56:53.900,-0.119846514002,0.214464337937,-0.835181703665,-0.603316366673,-0.010797072202,0.12470946461,-1.55925735,1.57887065,12.9055514,-10.1379728317,-19.2217979431,0.814168334007,-0.603316366673,-0.010797072202,0.12470946461,0.0299999993294,-821.403137207,133.484100342,194.851455688,-15.987341642376999,-16.5523242951,35.2534637452,9.99568505444948,0.784131169319002,15.9899997711
2018-10-05 19:56:53.950,-0.153893029056,0.268547091052,-0.818085083019,-0.32119679451,0.00891325436532,-0.00080968090333,-1.8632635,0.53936575,10.20872265,-10.1379728317,-19.2217979431,0.814168334007,-0.603316366673,-0.010797072202,0.12470946461,0.0299999993294,-821.403137207,133.484100342,194.851455688,-15.987341642376999,-16.5523242951,35.2534637452,9.99568505444948,0.784131169319002,15.9899997711
2018-10-05 19:56:54.000,-0.153893029056,0.268547091052,-0.818085083019,-0.32119679451,0.00891325436532,-0.00080968090333,-1.8632635,0.53936575,10.20872265,-10.1379728317,-19.2217979431,0.814168334007,-0.603316366673,-0.010797072202,0.12470946461,-0.109999999404,-788.461303711,173.396377563,141.13293457,-16.100944250833997,-8.932647705100003,28.46025466919,-3.501809120139999,0.6351603269580011,16.0
2018-10-05 19:56:54.050,-0.153893029056,0.268547091052,-0.818085083019,-0.32119679451,0.00891325436532,-0.00080968090333,-1.8632635,0.53936575,10.20872265,-10.1379728317,-19.2217979431,0.814168334007,-0.603316366673,-0.010797072202,0.12470946461,-0.109999999404,-788.461303711,173.396377563,141.13293457,-16.410943716734,78.7573509216,28.515331268289998,-3.8201894759799995,0.4419477283950011,16.0
2018-10-05 19:56:54.100,-0.153893029056,0.268547091052,-0.818085083019,-0.32119679451,0.00891325436532,-0.00080968090333,-1.8632635,0.53936575,10.20872265,-10.1379728317,-19.2217979431,0.814168334007,-0.603316366673,-0.010797072202,0.12470946461,-0.209999993443,-787.461303711,175.517929077,141.13293457,-16.410943716734,78.7573509216,28.54070663449,-4.0247125625199995,0.3095223307610011,16.0
2018-10-05 19:56:54.150,-0.153893029056,0.268547091052,-0.818085083019,-0.32119679451,0.00891325436532,-0.00080968090333,-1.8632635,0.53936575,10.20872265,-8.81167888641,-19.4228992462,0.123223312199,-0.32119679451,0.00891325436532,-0.00080968090333,-0.209999993443,-787.461303711,175.517929077,141.13293457,-16.240943640434,78.7573509216,28.560253143289998,-4.322580337489999,0.12322331219900112,16.0
2018-10-05 19:56:54.200,-0.153893029056,0.268547091052,-0.818085083019,-0.32119679451,0.00891325436532,-0.00080968090333,-1.8632635,0.53936575,10.20872265,-8.81167888641,-19.4228992462,0.123223312199,-0.32119679451,0.00891325436532,-0.00080968090333,-0.289999991655,-762.448852539,177.62449646,141.13293457,-16.120942801233998,78.7573509216,28.545227050789997,-4.721822738609999,-0.04182178527119888,16.0
2018-10-05 19:56:54.250,-0.0908315314624,0.167147988821,-0.852403710018,2.0585975647,0.117637991905,-0.140183523297,-2.04958985,-1.02969825,9.5320638,-8.81167888641,-19.4228992462,0.123223312199,-0.32119679451,0.00891325436532,-0.00080968090333,-0.289999991655,-762.448852539,177.62449646,141.13293457,-16.120942801233998,64.6283149719,28.545227050789997,-4.721822738609999,-0.04182178527119888,16.0
2018-10-05 19:56:54.300,-0.0908315314624,0.167147988821,-0.852403710018,2.0585975647,0.117637991905,-0.140183523297,-2.04958985,-1.02969825,9.5320638,-8.81167888641,-19.4228992462,0.123223312199,-0.32119679451,0.00891325436532,-0.00080968090333,-0.34999999404,-762.448852539,179.711746216,139.397613525,-16.103400796608998,64.6283149719,28.473638534590002,-4.9218301772699995,-0.06379052251579888,16.0
2018-10-05 19:56:54.350,-0.0908315314624,0.167147988821,-0.852403710018,2.0585975647,0.117637991905,-0.140183523297,-2.04958985,-1.02969825,9.5320638,-8.81167888641,-19.4228992462,0.123223312199,-0.32119679451,0.00891325436532,-0.00080968090333,-0.34999999404,-762.448852539,179.711746216,139.397613525,-16.103400796608998,64.6283149719,28.473638534590002,-4.9218301772699995,-0.06379052251579888,16.0
2018-10-05 19:56:54.400,-0.0908315314624,0.167147988821,-0.852403710018,2.0585975647,0.117637991905,-0.140183523297,-2.04958985,-1.02969825,9.5320638,-8.15181446075,-19.2110061646,-0.0763328298926,2.0585975647,0.117637991905,-0.140183523297,-0.34999999404,-762.448852539,179.711746216,139.397613525,-16.143401712209,64.6083145142,28.384052276589998,-4.979125022849999,-0.07811432331799888,16.0
2018-10-05 19:56:54.450,-0.0908315314624,0.167147988821,-0.852403710018,2.0585975647,0.117637991905,-0.140183523297,-2.04958985,-1.02969825,9.5320638,-8.15181446075,-19.2110061646,-0.0763328298926,2.0585975647,0.117637991905,-0.140183523297,-0.399999976158,-727.552001953,181.78453064,139.397613525,-16.063401788508997,64.5483131409,28.269384384189998,-4.975106239279999,-0.09686697274449887,16.0
2018-10-05 19:56:54.500,-0.0908315314624,0.167147988821,-0.852403710018,2.0585975647,0.117637991905,-0.140183523297,-2.04958985,-1.02969825,9.5320638,-8.15181446075,-19.2110061646,-0.0763328298926,2.0585975647,0.117637991905,-0.140183523297,-0.399999976158,-727.552001953,181.78453064,139.397613525,-16.063401788508997,64.5483131409,28.140821456890002,-4.943913459739999,-0.1650149226189989,16.0
2018-10-05 19:56:54.550,-0.0908315314624,0.167147988821,-0.852403710018,2.0585975647,0.117637991905,-0.140183523297,-2.04958985,-1.02969825,9.5320638,-8.15181446075,-19.2110061646,-0.0763328298926,2.0585975647,0.117637991905,-0.140183523297,-0.469999998808,-727.552001953,183.844360352,139.397613525,-15.933400720308999,64.49831390380001,28.04888916019,-4.911489486659999,-0.2316467314959989,16.0
2018-10-05 19:56:54.600,0.0888599493407,-0.0627741716162,-0.853395114253,1.24317967892,0.22674177587,0.340480268002,-2.01036325,-0.69627215,8.11009955,-8.15181446075,-19.2110061646,-0.0763328298926,2.0585975647,0.117637991905,-0.140183523297,-0.469999998808,-727.552001953,183.844360352,139.397613525,-15.923400491509,64.48831176760001,27.95616722109,-4.865933418239999,-0.3185370266439989,16.0
2018-10-05 19:56:54.650,0.0888599493407,-0.0627741716162,-0.853395114253,1.24317967892,0.22674177587,0.340480268002,-2.01036325,-0.69627215,8.11009955,-8.39217472076,-18.6393527985,-0.548320174217,1.24317967892,0.22674177587,0.340480268002,-0.519999980927,-704.375488281,185.895065308,142.209335327,-11.11084079738,31.070429802,27.822305679289997,-4.773810386619999,-0.4910892546179989,16.0
2018-10-05 19:56:54.700,0.0888599493407,-0.0627741716162,-0.853395114253,1.24317967892,0.22674177587,0.340480268002,-2.01036325,-0.69627215,8.11009955,-8.39217472076,-18.6393527985,-0.548320174217,1.24317967892,0.22674177587,0.340480268002,-0.560000002384,-704.375488281,187.942489624,142.209335327,-10.74084091188,31.040427207999997,27.634208679190003,-4.661970138509998,-0.7719550728799989,16.0
2018-10-05 19:56:54.750,0.0888599493407,-0.0627741716162,-0.853395114253,1.24317967892,0.22674177587,0.340480268002,-2.01036325,-0.69627215,8.11009955,-8.39217472076,-18.6393527985,-0.548320174217,1.24317967892,0.22674177587,0.340480268002,-0.560000002384,-704.375488281,187.942489624,142.209335327,-10.74084091188,31.040427207999997,27.634208679190003,-4.661970138509998,-0.7719550728799989,16.0
2018-10-05 19:56:54.800,0.0888599493407,-0.0627741716162,-0.853395114253,1.24317967892,0.22674177587,0.340480268002,-2.01036325,-0.69627215,8.11009955,-8.39217472076,-18.6393527985,-0.548320174217,1.24317967892,0.22674177587,0.340480268002,-0.560000002384,-704.375488281,187.942489624,142.209335327,-10.72084140778,31.030428886399996,27.50586891169,-4.572443008379999,-0.9846845865249989,16.0
2018-10-05 19:56:54.850,0.0888599493407,-0.0627741716162,-0.853395114253,1.24317967892,0.22674177587,0.340480268002,-2.01036325,-0.69627215,8.11009955,-8.39217472076,-18.6393527985,-0.548320174217,1.24317967892,0.22674177587,0.340480268002,-0.560000002384,-677.76373291,189.967315674,142.209335327,-10.26084136968,31.030428886399996,27.33892822269,-4.4347734450899985,-1.2255765199699988,16.0
2018-10-05 19:56:54.900,0.0888599493407,-0.0627741716162,-0.853395114253,1.24317967892,0.22674177587,0.340480268002,-2.01036325,-0.69627215,8.11009955,-8.78241539001,-18.1071033478,-1.31755018234,1.24317967892,0.22674177587,0.340480268002,-0.519999980927,-677.76373291,192.002319336,142.209335327,-9.81084060668,31.030428886399996,27.24445724489,-4.351843833889999,-1.3175501823399989,16.0
2018-10-05 19:56:54.950,0.0888599493407,-0.0627741716162,-0.853395114253,1.24317967892,0.22674177587,0.340480268002,-2.01036325,-0.69627215,8.11009955,-8.78241539001,-18.1071033478,-1.31755018234,1.24317967892,0.22674177587,0.340480268002,-0.519999980927,-677.76373291,192.002319336,142.209335327,-9.800841331480001,31.020426750199995,27.152442932089997,-4.261381149249999,-1.418955564499999,16.0
2018-10-05 19:56:55.000,0.178076946539,-0.172238779722,-0.816382712935,0.435775846243,0.0512150935829,-0.106183052063,-1.97113665,0.784532,7.75706015,-8.78241539001,-18.1071033478,-1.31755018234,1.24317967892,0.22674177587,0.340480268002,-0.459999978542,-644.184082031,194.037841797,146.750518799,-7.983945846579999,14.400388717699997,26.965099334690002,-4.045908927879999,-1.6145530939099988,16.0
2018-10-05 19:56:55.050,0.178076946539,-0.172238779722,-0.816382712935,0.435775846243,0.0512150935829,-0.106183052063,-1.97113665,0.784532,7.75706015,-8.78241539001,-18.1071033478,-1.31755018234,1.24317967892,0.22674177587,0.340480268002,-0.459999978542,-644.184082031,194.037841797,146.750518799,-7.97394561768,14.3603878021,26.965099334690002,-4.045908927879999,-1.6145530939099988,16.0
2018-10-05 19:56:55.100,0.178076946539,-0.172238779722,-0.816382712935,0.435775846243,0.0512150935829,-0.106183052063,-1.97113665,0.784532,7.75706015,-8.78241539001,-18.1071033478,-1.31755018234,1.24317967892,0.22674177587,0.340480268002,-0.459999978542,-644.184082031,194.037841797,146.750518799,-7.97394561768,14.3603878021,26.777387618989998,-3.8055000304799993,-1.8016061782799988,16.0
2018-10-05 19:56:55.150,0.178076946539,-0.172238779722,-0.816382712935,0.435775846243,0.0512150935829,-0.106183052063,-1.97113665,0.784532,7.75706015,-9.44808006287,-17.5402202606,-1.8906224966,0.435775846243,0.0512150935829,-0.106183052063,-0.359999984503,-644.184082031,196.065261841,146.750518799,-7.4339456557800005,14.320386886599998,26.677574157690003,-3.686179161029999,-1.890622496599999,16.0
2018-10-05 19:56:55.200,0.178076946539,-0.172238779722,-0.816382712935,0.435775846243,0.0512150935829,-0.106183052063,-1.97113665,0.784532,7.75706015,-9.44808006287,-17.5402202606,-1.8906224966,0.435775846243,0.0512150935829,-0.106183052063,-0.239999994636,-631.906677246,198.088882446,146.750518799,-6.893945693979999,14.240388870300002,26.535074233990002,-3.4873323440199986,-2.0399274825999987,16.0
2018-10-05 19:56:55.250,0.178076946539,-0.172238779722,-0.816382712935,0.435775846243,0.0512150935829,-0.106183052063,-1.97113665,0.784532,7.75706015,-9.44808006287,-17.5402202606,-1.8906224966,0.435775846243,0.0512150935829,-0.106183052063,-0.239999994636,-631.906677246,198.088882446,146.750518799,-6.893945693979999,14.200387954699998,26.43757438659,-3.341248512229999,-2.133664131159999,16.0
2018-10-05 19:56:55.300,0.178076946539,-0.172238779722,-0.816382712935,0.435775846243,0.0512150935829,-0.106183052063,-1.97113665,0.784532,7.75706015,-9.44808006287,-17.5402202606,-1.8906224966,0.435775846243,0.0512150935829,-0.106183052063,-0.0899999961257,-631.906677246,200.118362427,146.750518799,-6.26394557948,14.160387039200003,26.226097106890002,-3.0330352783,-2.3098132610299986,16.0
2018-10-05 19:56:55.350,0.212211470372,-0.2006090554,-0.826240838862,0.19439868629,-0.0424792580307,-0.306067377329,-1.9417167,0.2941995,8.87501825,-10.3620557785,-16.9169483185,-2.43954324722,0.19439868629,-0.0424792580307,-0.306067377329,-0.0899999961257,-631.906677246,200.118362427,143.162368774,-3.5738000869299995,9.291103363000005,26.11421775819,-2.8650636672999994,-2.3953027725199987,16.0
2018-10-05 19:56:55.400,0.212211470372,-0.2006090554,-0.826240838862,0.19439868629,-0.0424792580307,-0.306067377329,-1.9417167,0.2941995,8.87501825,-10.3620557785,-16.9169483185,-2.43954324722,0.19439868629,-0.0424792580307,-0.306067377329,0.0799999982119,-611.939025879,202.144058228,143.162368774,-2.9237995147299998,9.261100769000002,25.998193740890002,-2.675750732399999,-2.4796893596599987,16.0
2018-10-05 19:56:55.450,0.212211470372,-0.2006090554,-0.826240838862,0.19439868629,-0.0424792580307,-0.306067377329,-1.9417167,0.2941995,8.87501825,-10.3620557785,-16.9169483185,-2.43954324722,0.19439868629,-0.0424792580307,-0.306067377329,0.0799999982119,-611.939025879,202.144058228,143.162368774,-2.9237995147299998,9.261100769000002,25.998193740890002,-2.675750732399999,-2.4796893596599987,16.0
2018-10-05 19:56:55.500,0.212211470372,-0.2006090554,-0.826240838862,0.19439868629,-0.0424792580307,-0.306067377329,-1.9417167,0.2941995,8.87501825,-10.3620557785,-16.9169483185,-2.43954324722,0.19439868629,-0.0424792580307,-0.306067377329,0.280000001192,-611.939025879,204.185256958,143.162368774,-2.2137994766299993,9.191101074200006,25.614265441889998,-2.0526008605999984,-2.6908452510799985,16.0
2018-10-05 19:56:55.550,0.212211470372,-0.2006090554,-0.826240838862,0.19439868629,-0.0424792580307,-0.306067377329,-1.9417167,0.2941995,8.87501825,-10.3620557785,-16.9169483185,-2.43954324722,0.19439868629,-0.0424792580307,-0.306067377329,0.280000001192,-611.939025879,204.185256958,143.162368774,-2.1837997436300007,9.161102294900004,25.47943878169,-1.842128753599999,-2.7670660018899986,16.0
2018-10-05 19:56:55.600,0.212211470372,-0.2006090554,-0.826240838862,0.19439868629,-0.0424792580307,-0.306067377329,-1.9417167,0.2941995,8.87501825,-11.6568994522,-16.1216220856,-2.83411931992,0.19439868629,-0.0424792580307,-0.306067377329,0.489999979734,-611.939025879,206.209213257,143.162368774,-1.4737997055300003,9.151103973400005,25.183256149290003,-1.3574914931999995,-2.8641688823699987,16.0
2018-10-05 19:56:55.650,0.212211470372,-0.2006090554,-0.826240838862,0.19439868629,-0.0424792580307,-0.306067377329,-1.9417167,0.2941995,8.87501825,-11.6568994522,-16.1216220856,-2.83411931992,0.19439868629,-0.0424792580307,-0.306067377329,0.489999979734,-611.939025879,206.209213257,143.162368774,-1.4737997055300003,9.151103973400005,25.183256149290003,-1.3574914931999995,-2.8641688823699987,16.0
2018-10-05 19:56:55.700,0.242974265211,-0.261061771086,-0.832268592407,0.221377924085,-0.153628453612,-0.148154571652,-1.7259704,0.2941995,10.7284751,-11.6568994522,-16.1216220856,-2.83411931992,0.19439868629,-0.0424792580307,-0.306067377329,0.489999979734,-611.939025879,206.209213257,143.162368774,-1.4737997055300003,9.151103973400005,25.02910041809,-1.1161813736,-2.8994605541199987,16.0
2018-10-05 19:56:55.750,0.242974265211,-0.261061771086,-0.832268592407,0.221377924085,-0.153628453612,-0.148154571652,-1.7259704,0.2941995,10.7284751,-11.6568994522,-16.1216220856,-2.83411931992,0.19439868629,-0.0424792580307,-0.306067377329,0.729999959469,-595.775024414,208.240081787,137.95451355,0.7049798965900003,1.3537483214999995,24.80035781859,-0.7483234404999983,-2.9355676174199985,16.0
2018-10-05 19:56:55.800,0.242974265211,-0.261061771086,-0.832268592407,0.221377924085,-0.153628453612,-0.148154571652,-1.7259704,0.2941995,10.7284751,-11.6568994522,-16.1216220856,-2.83411931992,0.19439868629,-0.0424792580307,-0.306067377329,0.969999969006,-587.394714355,210.267654419,137.95451355,1.3749799728899994,1.3637504577000001,24.400190353390002,-0.12229824059999927,-2.997593402859999,16.0
2018-10-05 19:56:55.850,0.242974265211,-0.261061771086,-0.832268592407,0.221377924085,-0.153628453612,-0.148154571652,-1.7259704,0.2941995,10.7284751,-13.1320762634,-15.1885471344,-3.01763272285,0.221377924085,-0.153628453612,-0.148154571652,0.969999969006,-587.394714355,210.267654419,137.95451355,1.3749799728899994,1.3637504577000001,24.400190353390002,-0.12229824059999927,-2.997593402859999,16.0
2018-10-05 19:56:55.900,0.242974265211,-0.261061771086,-0.832268592407,0.221377924085,-0.153628453612,-0.148154571652,-1.7259704,0.2941995,10.7284751,-13.1320762634,-15.1885471344,-3.01763272285,0.221377924085,-0.153628453612,-0.148154571652,1.22000002861,-587.394714355,212.306930542,137.95451355,2.0749797821500007,1.34375,24.07573223109,0.37838745120000006,-3.033628225329999,16.0
2018-10-05 19:56:55.950,0.242974265211,-0.261061771086,-0.832268592407,0.221377924085,-0.153628453612,-0.148154571652,-1.7259704,0.2941995,10.7284751,-13.1320762634,-15.1885471344,-3.01763272285,0.221377924085,-0.153628453612,-0.148154571652,1.22000002861,-587.394714355,212.306930542,137.95451355,2.0749797821500007,1.34375,24.07573223109,0.37838745120000006,-3.033628225329999,16.0
2018-10-05 19:56:56.000,0.242974265211,-0.261061771086,-0.832268592407,0.221377924085,-0.153628453612,-0.148154571652,-1.7259704,0.2941995,10.7284751,-13.1320762634,-15.1885471344,-3.01763272285,0.221377924085,-0.153628453612,-0.148154571652,1.48000001907,-590.073364258,214.347793579,137.95451355,2.0749797821500007,1.323749542199998,23.82100963589,0.7412109375,-3.0868375301399986,16.0
2018-10-05 19:56:56.050,0.242974265211,-0.261061771086,-0.832268592407,0.221377924085,-0.153628453612,-0.148154571652,-1.7259704,0.2941995,10.7284751,-13.1320762634,-15.1885471344,-3.01763272285,0.221377924085,-0.153628453612,-0.148154571652,1.48000001907,-590.073364258,214.347793579,137.95451355,2.7649798393700005,1.3037490843999961,23.563657760589997,1.1125354767000015,-3.1717379093199987,16.0
2018-10-05 19:56:56.100,0.242974265211,-0.261061771086,-0.832268592407,0.221377924085,-0.153628453612,-0.148154571652,-1.7259704,0.2941995,10.7284751,-14.6417551041,-14.1380968094,-3.22681164742,0.221377924085,-0.153628453612,-0.148154571652,1.75,-590.073364258,216.39553833,137.95451355,2.7649798393700005,1.2937469481999955,23.37799549099,1.3686733246000014,-3.2171423435199986,16.0
2018-10-05 19:56:56.150,0.242974265211,-0.261061771086,-0.832268592407,0.221377924085,-0.153628453612,-0.148154571652,-1.7259704,0.2941995,10.7284751,-14.6417551041,-14.1380968094,-3.22681164742,0.221377924085,-0.153628453612,-0.148154571652,1.75,-590.073364258,216.39553833,137.95451355,3.55497980123,1.2937469481999955,23.07350349429,1.7789669037000007,-3.248667955399999,16.0
2018-10-05 19:56:56.200,0.229870134997,-0.300045073734,-0.859009760517,0.216700151563,-0.274223923683,-0.208110198379,-1.3337044,0.1765197,12.44463885,-14.6417551041,-14.1380968094,-3.22681164742,0.221377924085,-0.153628453612,-0.148154571652,2.02999997139,-577.565185547,218.426544189,137.95451355,4.31498003011,-1.3485603333,22.765786170989998,2.1884403229,-3.269979476929999,16.0
2018-10-05 19:56:56.250,0.229870134997,-0.300045073734,-0.859009760517,0.216700151563,-0.274223923683,-0.208110198379,-1.3337044,0.1765197,12.44463885,-14.6417551041,-14.1380968094,-3.22681164742,0.221377924085,-0.153628453612,-0.148154571652,2.02999997139,-577.565185547,218.426544189,128.108795166,4.59904432301,-1.3485603333,22.540341377289998,2.480232238800001,-3.2629272937799985,16.0
2018-10-05 19:56:56.300,0.229870134997,-0.300045073734,-0.859009760517,0.216700151563,-0.274223923683,-0.208110198379,-1.3337044,0.1765197,12.44463885,-14.6417551041,-14.1380968094,-3.22681164742,0.221377924085,-0.153628453612,-0.148154571652,2.32999992371,-577.565185547,220.46446228,128.108795166,5.32904434208,-1.308559417799998,22.081537246689997,3.0521211625000007,-3.2314882278399986,16.0
2018-10-05 19:56:56.350,0.229870134997,-0.300045073734,-0.859009760517,0.216700151563,-0.274223923683,-0.208110198379,-1.3337044,0.1765197,12.44463885,-16.3373565674,-12.8187837601,-3.220733881,0.216700151563,-0.274223923683,-0.208110198379,2.32999992371,-577.565185547,220.46446228,128.108795166,5.32904434208,-1.308559417799998,22.081537246689997,3.0521211625000007,-3.2314882278399986,16.0
2018-10-05 19:56:56.400,0.229870134997,-0.300045073734,-0.859009760517,0.216700151563,-0.274223923683,-0.208110198379,-1.3337044,0.1765197,12.44463885,-16.3373565674,-12.8187837601,-3.220733881,0.216700151563,-0.274223923683,-0.208110198379,2.61999988556,-573.868164062,222.481338501,128.108795166,6.03904438023,-1.2785606384999966,21.455950736989998,3.7837419509999997,-3.1813507080099988,16.0
2018-10-05 19:56:56.450,0.229870134997,-0.300045073734,-0.859009760517,0.216700151563,-0.274223923683,-0.208110198379,-1.3337044,0.1765197,12.44463885,-16.3373565674,-12.8187837601,-3.220733881,0.216700151563,-0.274223923683,-0.208110198379,2.61999988556,-573.868164062,222.481338501,128.108795166,6.03904438023,-1.2785606384999966,21.455950736989998,3.7837419509999997,-3.1813507080099988,16.0
2018-10-05 19:56:56.500,0.207997093825,-0.327675776082,-0.873522912449,0.0437229685485,-0.30144956708,-0.244807466865,-1.1375714,0.6472389,13.8862164,-16.3373565674,-12.8187837601,-3.220733881,0.216700151563,-0.274223923683,-0.208110198379,2.91999983788,-573.868164062,224.486831665,128.108795166,6.77904415135,-1.2285614014000004,20.85650539399,4.421095848100002,-3.1820313930499986,16.0
2018-10-05 19:56:56.550,0.207997093825,-0.327675776082,-0.873522912449,0.0437229685485,-0.30144956708,-0.244807466865,-1.1375714,0.6472389,13.8862164,-16.3373565674,-12.8187837601,-3.220733881,0.216700151563,-0.274223923683,-0.208110198379,2.91999983788,-573.868164062,224.486831665,128.108795166,6.77904415135,-1.2285614014000004,20.85650539399,4.421095848100002,-3.1820313930499986,16.0
2018-10-05 19:56:56.600,0.207997093825,-0.327675776082,-0.873522912449,0.0437229685485,-0.30144956708,-0.244807466865,-1.1375714,0.6472389,13.8862164,-18.0386867523,-11.2205724716,-3.18807482719,0.0437229685485,-0.30144956708,-0.244807466865,3.22000002861,-581.878295898,226.475570679,121.246505737,6.5662264823899985,-2.7137031554999993,20.22553825379,5.027512550400001,-3.2017660140999986,16.0
2018-10-05 19:56:56.650,0.207997093825,-0.327675776082,-0.873522912449,0.0437229685485,-0.30144956708,-0.244807466865,-1.1375714,0.6472389,13.8862164,-18.0386867523,-11.2205724716,-3.18807482719,0.0437229685485,-0.30144956708,-0.244807466865,3.22000002861,-581.878295898,226.475570679,121.246505737,6.5662264823899985,-2.7237014769999988,19.97375965119,5.257388115000001,-3.2139680385599987,16.0
2018-10-05 19:56:56.700,0.207997093825,-0.327675776082,-0.873522912449,0.0437229685485,-0.30144956708,-0.244807466865,-1.1375714,0.6472389,13.8862164,-18.0386867523,-11.2205724716,-3.18807482719,0.0437229685485,-0.30144956708,-0.244807466865,3.51999998093,-581.878295898,228.448135376,121.246505737,7.35622644425,-2.7137031554999993,19.54915332789,5.629904747000001,-3.205378532409999,16.0
2018-10-05 19:56:56.750,0.207997093825,-0.327675776082,-0.873522912449,0.0437229685485,-0.30144956708,-0.244807466865,-1.1375714,0.6472389,13.8862164,-18.0386867523,-11.2205724716,-3.18807482719,0.0437229685485,-0.30144956708,-0.244807466865,3.51999998093,-581.878295898,228.448135376,121.246505737,7.35622644425,-2.7137031554999993,19.25656032559,5.875912666400001,-3.1870183944699986,16.0
2018-10-05 19:56:56.800,0.207997093825,-0.327675776082,-0.873522912449,0.0437229685485,-0.30144956708,-0.244807466865,-1.1375714,0.6472389,13.8862164,-19.3864707947,-9.65833854675,-3.14515805244,0.0437229685485,-0.30144956708,-0.244807466865,3.81999993324,-580.473876953,230.362060547,121.246505737,8.08622646332,-2.703704834,18.79569244384,6.2522115708,-3.1451580524399985,16.0
2018-10-05 19:56:56.850,0.207997093825,-0.327675776082,-0.873522912449,0.0437229685485,-0.30144956708,-0.244807466865,-1.1375714,0.6472389,13.8862164,-19.3864707947,-9.65833854675,-3.14515805244,0.0437229685485,-0.30144956708,-0.244807466865,3.81999993324,-580.473876953,230.362060547,121.246505737,8.08622646332,-2.683704376199998,18.45496082305,6.523066520700002,-3.0869672298399986,16.0
2018-10-05 19:56:56.900,0.177833905286,-0.337983507657,-0.8962166294,-0.1552824229,-0.391392737627,-0.289391040802,-0.8041453,0.4903325,15.19050085,-19.3864707947,-9.65833854675,-3.14515805244,0.0437229685485,-0.30144956708,-0.244807466865,4.13000011444,-580.473876953,232.288223267,112.151023865,8.51656746864,-1.9178886413999976,18.10422229766,6.792981147800003,-2.9956614971199986,16.0
2018-10-05 19:56:56.950,0.177833905286,-0.337983507657,-0.8962166294,-0.1552824229,-0.391392737627,-0.289391040802,-0.8041453,0.4903325,15.19050085,-19.3864707947,-9.65833854675,-3.14515805244,0.0437229685485,-0.30144956708,-0.244807466865,4.40999984741,-579.993408203,234.141815186,112.151023865,8.49656748772,-1.8778877258000009,18.10422229766,6.792981147800003,-2.9956614971199986,16.0
2018-10-05 19:56:57.000,0.177833905286,-0.337983507657,-0.8962166294,-0.1552824229,-0.391392737627,-0.289391040802,-0.8041453,0.4903325,15.19050085,-19.3864707947,-9.65833854675,-3.14515805244,0.0437229685485,-0.30144956708,-0.244807466865,4.40999984741,-579.993408203,234.141815186,112.151023865,8.49656748772,-1.8778877258000009,17.37720775604,7.318240165700001,-2.8039789199799987,16.0
2018-10-05 19:56:57.050,0.177833905286,-0.337983507657,-0.8962166294,-0.1552824229,-0.391392737627,-0.289391040802,-0.8041453,0.4903325,15.19050085,-21.0596675873,-7.28975915909,-2.57476735115,-0.1552824229,-0.391392737627,-0.289391040802,4.40999984741,-579.993408203,234.141815186,112.151023865,9.06656742096,-1.8278884887999993,16.61557531356,7.810305595399999,-2.6194758415199986,16.0
2018-10-05 19:56:57.100,0.177833905286,-0.337983507657,-0.8962166294,-0.1552824229,-0.391392737627,-0.289391040802,-0.8041453,0.4903325,15.19050085,-21.0596675873,-7.28975915909,-2.57476735115,-0.1552824229,-0.391392737627,-0.289391040802,4.67999982834,-579.993408203,235.956588745,112.151023865,9.6065674200659,-1.7678871154999953,16.04549694061,8.147376060500001,-2.4871532916999985,16.0
2018-10-05 19:56:57.150,0.177833905286,-0.337983507657,-0.8962166294,-0.1552824229,-0.391392737627,-0.289391040802,-0.8041453,0.4903325,15.19050085,-21.0596675873,-7.28975915909,-2.57476735115,-0.1552824229,-0.391392737627,-0.289391040802,4.67999982834,-579.993408203,235.956588745,112.151023865,9.6065674200659,-1.7178878783999991,15.4907836914,8.447178840700001,-2.356723070139999,16.0
2018-10-05 19:56:57.200,0.177833905286,-0.337983507657,-0.8962166294,-0.1552824229,-0.391392737627,-0.289391040802,-0.8041453,0.4903325,15.19050085,-21.0596675873,-7.28975915909,-2.57476735115,-0.1552824229,-0.391392737627,-0.289391040802,4.92999982834,-594.123046875,237.731552124,112.151023865,10.116567432881,-1.6878890990999977,15.4907836914,8.447178840700001,-2.356723070139999,16.0
2018-10-05 19:56:57.250,0.177833905286,-0.337983507657,-0.8962166294,-0.1552824229,-0.391392737627,-0.289391040802,-0.8041453,0.4903325,15.19050085,-21.0596675873,-7.28975915909,-2.57476735115,-0.1552824229,-0.391392737627,-0.289391040802,4.92999982834,-594.123046875,237.731552124,112.151023865,10.116567432881,-1.6878890990999977,14.68083333969,8.8486127854,-2.1369414329499987,16.0
2018-10-05 19:56:57.300,0.177833905286,-0.337983507657,-0.8962166294,-0.1552824229,-0.391392737627,-0.289391040802,-0.8041453,0.4903325,15.19050085,-22.242307663,-4.96695709229,-1.98411846161,-0.1552824229,-0.391392737627,-0.289391040802,5.13999986649,-594.123046875,239.434951782,112.151023865,10.546567380429,-1.6178894043000014,14.295308589929999,9.026297569300002,-2.0399377345999987,16.0
2018-10-05 19:56:57.350,0.112363235011,-0.35861460254,-0.915397801448,0.00327000021935,-0.379473567009,-0.227012708783,-0.5295591,1.0983448,16.09271265,-22.242307663,-4.96695709229,-1.98411846161,-0.1552824229,-0.391392737627,-0.289391040802,5.13999986649,-594.123046875,239.434951782,100.27671814,6.847699105738999,-1.3164787292,13.916096687309999,9.1854505539,-1.930463552469999,16.0
2018-10-05 19:56:57.400,0.112363235011,-0.35861460254,-0.915397801448,0.00327000021935,-0.379473567009,-0.227012708783,-0.5295591,1.0983448,16.09271265,-22.242307663,-4.96695709229,-1.98411846161,-0.1552824229,-0.391392737627,-0.289391040802,5.33999967575,-580.948059082,241.084533691,100.27671814,7.2076990604399995,-1.3064804077000005,13.12955617904,9.483767509500002,-1.737457633019999,16.0
2018-10-05 19:56:57.450,0.112363235011,-0.35861460254,-0.915397801448,0.00327000021935,-0.379473567009,-0.227012708783,-0.5295591,1.0983448,16.09271265,-22.242307663,-4.96695709229,-1.98411846161,-0.1552824229,-0.391392737627,-0.289391040802,5.5,-580.948059082,242.652404785,100.27671814,7.19769906998,-1.2864799498999986,13.12955617904,9.483767509500002,-1.737457633019999,16.0
2018-10-05 19:56:57.500,0.112363235011,-0.35861460254,-0.915397801448,0.00327000021935,-0.379473567009,-0.227012708783,-0.5295591,1.0983448,16.09271265,-22.242307663,-4.96695709229,-1.98411846161,-0.1552824229,-0.391392737627,-0.289391040802,5.5,-580.948059082,242.652404785,100.27671814,7.19769906998,-1.2864799498999986,12.31267547607,9.753483772300001,-1.479651093479999,16.0
2018-10-05 19:56:57.550,0.112363235011,-0.35861460254,-0.915397801448,0.00327000021935,-0.379473567009,-0.227012708783,-0.5295591,1.0983448,16.09271265,-23.0525894165,-2.60208702087,-1.33879184723,0.00327000021935,-0.379473567009,-0.227012708783,5.5,-580.948059082,242.652404785,100.27671814,7.44769906998,-1.2764816283999991,11.92564773559,9.871443748500003,-1.384392142299999,16.0
2018-10-05 19:56:57.600,0.112363235011,-0.35861460254,-0.915397801448,0.00327000021935,-0.379473567009,-0.227012708783,-0.5295591,1.0983448,16.09271265,-23.0525894165,-2.60208702087,-1.33879184723,0.00327000021935,-0.379473567009,-0.227012708783,5.63999986649,-586.908935547,244.166488647,100.27671814,7.69769906998,-1.2664794921999984,11.13560926914,10.0544843674,-1.194775342939999,16.0
2018-10-05 19:56:57.650,0.112363235011,-0.35861460254,-0.915397801448,0.00327000021935,-0.379473567009,-0.227012708783,-0.5295591,1.0983448,16.09271265,-23.0525894165,-2.60208702087,-1.33879184723,0.00327000021935,-0.379473567009,-0.227012708783,5.63999986649,-586.908935547,244.166488647,100.27671814,7.69769906998,-1.2564811706000043,10.52234888076,10.170536995000003,-1.028334259989999,16.0
2018-10-05 19:56:57.700,0.112363235011,-0.35861460254,-0.915397801448,0.00327000021935,-0.379473567009,-0.227012708783,-0.5295591,1.0983448,16.09271265,-23.0525894165,-2.60208702087,-1.33879184723,0.00327000021935,-0.379473567009,-0.227012708783,5.63999986649,-586.908935547,244.166488647,100.27671814,7.69769906998,-1.2564811706000043,10.52234888076,10.170536995000003,-1.028334259989999,16.0
2018-10-05 19:56:57.750,0.0615071005747,-0.350692376373,-0.932652242725,0.0949794054031,-0.380862802267,-0.293775647879,-0.63743225,0.38245935,15.77889985,-23.0525894165,-2.60208702087,-1.33879184723,0.00327000021935,-0.379473567009,-0.227012708783,5.75999975204,-586.908935547,245.594009399,88.7536010742,6.24704766273,1.0714073182000021,9.919161677356,10.270462989800002,-0.9038246870039989,16.0
2018-10-05 19:56:57.800,0.0615071005747,-0.350692376373,-0.932652242725,0.0949794054031,-0.380862802267,-0.293775647879,-0.63743225,0.38245935,15.77889985,-23.4766712189,0.0529372654855,-0.712507247925,0.0949794054031,-0.380862802267,-0.293775647879,5.84999990463,-586.027160645,246.958099365,88.7536010742,6.40704751015,1.091403961200001,9.294162794943,10.3261957169,-0.7571808695789989,16.0
2018-10-05 19:56:57.850,0.0615071005747,-0.350692376373,-0.932652242725,0.0949794054031,-0.380862802267,-0.293775647879,-0.63743225,0.38245935,15.77889985,-23.4766712189,0.0529372654855,-0.712507247925,0.0949794054031,-0.380862802267,-0.293775647879,5.84999990463,-586.027160645,246.958099365,88.7536010742,6.40704751015,1.091403961200001,8.875403344626,10.3584032059,-0.6756862998009989,16.0
2018-10-05 19:56:57.900,0.0615071005747,-0.350692376373,-0.932652242725,0.0949794054031,-0.380862802267,-0.293775647879,-0.63743225,0.38245935,15.77889985,-23.4766712189,0.0529372654855,-0.712507247925,0.0949794054031,-0.380862802267,-0.293775647879,5.90999984741,-586.027160645,248.235092163,88.7536010742,6.49704766273,1.111404419000003,8.025608777999999,10.3880624771,-0.4695864319799989,16.0
2018-10-05 19:56:57.950,0.0615071005747,-0.350692376373,-0.932652242725,0.0949794054031,-0.380862802267,-0.293775647879,-0.63743225,0.38245935,15.77889985,-23.4766712189,0.0529372654855,-0.712507247925,0.0949794054031,-0.380862802267,-0.293775647879,5.90999984741,-586.027160645,248.235092163,88.7536010742,6.49704766273,1.111404419000003,8.025608777999999,10.3880624771,-0.4695864319799989,16.0
2018-10-05 19:56:58.000,0.0615071005747,-0.350692376373,-0.932652242725,0.0949794054031,-0.380862802267,-0.293775647879,-0.63743225,0.38245935,15.77889985,-23.4766712189,0.0529372654855,-0.712507247925,0.0949794054031,-0.380862802267,-0.293775647879,5.94999980927,-577.583312988,249.420730591,88.7536010742,6.5270476341200006,1.1314048767000031,7.182281017299999,10.372889518800001,-0.2778575122359989,16.0
2018-10-05 19:56:58.050,0.0615071005747,-0.350692376373,-0.932652242725,0.0949794054031,-0.380862802267,-0.293775647879,-0.63743225,0.38245935,15.77889985,-23.4845657349,2.37435460091,-0.189718395472,0.0949794054031,-0.380862802267,-0.293775647879,5.94999980927,-577.583312988,249.420730591,88.7536010742,6.5270476341200006,1.1414070129999985,6.76299929618,10.350306511,-0.1897183954719989,16.0
2018-10-05 19:56:58.100,0.0615071005747,-0.350692376373,-0.932652242725,0.0949794054031,-0.380862802267,-0.293775647879,-0.63743225,0.38245935,15.77889985,-23.4845657349,2.37435460091,-0.189718395472,0.0949794054031,-0.380862802267,-0.293775647879,5.96000003815,-577.583312988,250.514450073,88.7536010742,6.4570477008800005,1.3714065552000037,5.87480354309,10.280341148400002,0.042374853044701115,16.0
2018-10-05 19:56:58.150,0.00840385727644,-0.368995809872,-0.92916206556,0.07861097157,-0.38101914525,-0.301477521658,-0.42168595,0.32361945,17.2793173,-23.4845657349,2.37435460091,-0.189718395472,0.0949794054031,-0.380862802267,-0.293775647879,5.96000003815,-577.583312988,250.514450073,78.1479797363,4.00120103359,-0.38014602659999497,5.87480354309,10.280341148400002,0.042374853044701115,16.0
2018-10-05 19:56:58.200,0.00840385727644,-0.368995809872,-0.92916206556,0.07861097157,-0.38101914525,-0.301477521658,-0.42168595,0.32361945,17.2793173,-23.4845657349,2.37435460091,-0.189718395472,0.0949794054031,-0.380862802267,-0.293775647879,5.96000003815,-562.022949219,251.511962891,78.1479797363,3.85120093823,-0.3701477050999955,5.18216538429,10.1967000962,0.23079535365100112,16.0
2018-10-05 19:56:58.250,0.00840385727644,-0.368995809872,-0.92916206556,0.07861097157,-0.38101914525,-0.301477521658,-0.42168595,0.32361945,17.2793173,-23.4845657349,2.37435460091,-0.189718395472,0.0949794054031,-0.380862802267,-0.293775647879,5.90999984741,-562.022949219,252.398788452,78.1479797363,3.8612009286899998,-0.3701477050999955,4.059583187099999,10.0099306107,0.4782431125640011,16.0
2018-10-05 19:56:58.300,0.00840385727644,-0.368995809872,-0.92916206556,0.07861097157,-0.38101914525,-0.301477521658,-0.42168595,0.32361945,17.2793173,-23.0981235504,5.29508399963,0.529194116592,0.07861097157,-0.38101914525,-0.301477521658,5.90999984741,-562.022949219,252.398788452,78.1479797363,3.8612009286899998,-0.3701477050999955,4.059583187099999,10.0099306107,0.4782431125640011,16.0
2018-10-05 19:56:58.350,0.00840385727644,-0.368995809872,-0.92916206556,0.07861097157,-0.38101914525,-0.301477521658,-0.42168595,0.32361945,17.2793173,-23.0981235504,5.29508399963,0.529194116592,0.07861097157,-0.38101914525,-0.301477521658,5.90999984741,-562.022949219,252.398788452,78.1479797363,3.68120098114,-0.3701477050999955,3.3928270339899997,9.8765630722,0.6175823211670011,16.0
2018-10-05 19:56:58.400,0.00840385727644,-0.368995809872,-0.92916206556,0.07861097157,-0.38101914525,-0.301477521658,-0.42168595,0.32361945,17.2793173,-23.0981235504,5.29508399963,0.529194116592,0.07861097157,-0.38101914525,-0.301477521658,5.84999990463,-528.575317383,253.184570312,78.1479797363,3.47120094299,-0.3701477050999955,2.5392227172799995,9.650959968600002,0.7824680209160011,16.0
2018-10-05 19:56:58.450,-0.0322919788246,-0.383893452602,-0.919649633214,0.0469940528274,-0.368481963873,-0.195943802595,-0.1569064,0.73549875,16.11232595,-23.0981235504,5.29508399963,0.529194116592,0.07861097157,-0.38101914525,-0.301477521658,5.84999990463,-528.575317383,253.184570312,78.1479797363,3.47120094299,-0.3701477050999955,2.5392227172799995,9.650959968600002,0.7824680209160011,16.0
2018-10-05 19:56:58.500,-0.0322919788246,-0.383893452602,-0.919649633214,0.0469940528274,-0.368481963873,-0.195943802595,-0.1569064,0.73549875,16.11232595,-23.0981235504,5.29508399963,0.529194116592,0.07861097157,-0.38101914525,-0.301477521658,5.75999975204,-528.575317383,253.850021362,70.4909667969,1.3651512376950001,-2.3984107972000004,2.5392227172799995,9.650959968600002,0.7824680209160011,16.0
2018-10-05 19:56:58.550,-0.0322919788246,-0.383893452602,-0.919649633214,0.0469940528274,-0.368481963873,-0.195943802595,-0.1569064,0.73549875,16.11232595,-22.3417205811,8.00771045685,1.04593622684,0.0469940528274,-0.368481963873,-0.195943802595,5.75999975204,-528.575317383,253.850021362,70.4909667969,1.3651512376950001,-2.3984107972000004,1.1296434402399989,9.2074613572,1.0459362268400012,16.0
2018-10-05 19:56:58.600,-0.0322919788246,-0.383893452602,-0.919649633214,0.0469940528274,-0.368481963873,-0.195943802595,-0.1569064,0.73549875,16.11232595,-22.3417205811,8.00771045685,1.04593622684,0.0469940528274,-0.368481963873,-0.195943802595,5.65999984741,-514.986022949,254.427886963,70.4909667969,1.085151266305,-2.3984107972000004,0.56656265258,8.9747686386,1.126110672950001,16.0
2018-10-05 19:56:58.650,-0.0322919788246,-0.383893452602,-0.919649633214,0.0469940528274,-0.368481963873,-0.195943802595,-0.1569064,0.73549875,16.11232595,-22.3417205811,8.00771045685,1.04593622684,0.0469940528274,-0.368481963873,-0.195943802595,5.65999984741,-514.986022949,254.427886963,70.4909667969,1.085151266305,-2.3984107972000004,0.56656265258,8.9747686386,1.126110672950001,16.0
2018-10-05 19:56:58.700,-0.0322919788246,-0.383893452602,-0.919649633214,0.0469940528274,-0.368481963873,-0.195943802595,-0.1569064,0.73549875,16.11232595,-22.3417205811,8.00771045685,1.04593622684,0.0469940528274,-0.368481963873,-0.195943802595,5.53999996185,-514.986022949,254.903671265,70.4909667969,0.795151244849,-2.3984107972000004,-0.5017833709800001,8.5033903122,1.2071789503100012,16.0
2018-10-05 19:56:58.750,-0.0322919788246,-0.383893452602,-0.919649633214,0.0469940528274,-0.368481963873,-0.195943802595,-0.1569064,0.73549875,16.11232595,-22.3417205811,8.00771045685,1.04593622684,0.0469940528274,-0.368481963873,-0.195943802595,5.53999996185,-514.986022949,254.903671265,70.4909667969,0.795151244849,-2.3984107972000004,-0.5017833709800001,8.5033903122,1.2071789503100012,16.0
2018-10-05 19:56:58.800,-0.0322919788246,-0.383893452602,-0.919649633214,0.0469940528274,-0.368481963873,-0.195943802595,-0.1569064,0.73549875,16.11232595,-21.4670467377,9.99603843689,1.21458387375,0.0469940528274,-0.368481963873,-0.195943802595,5.42000007629,-509.560394287,255.287033081,70.4909667969,0.545151244849,-2.3984107972000004,-1.1948509216099996,8.148888588000002,1.2242400646200011,16.0
2018-10-05 19:56:58.850,-0.0728667656743,-0.382146302842,-0.907347085774,0.0295432284474,-0.30866882205,-0.304024487734,-0.22555295,0.4314926,13.7096967,-21.4670467377,9.99603843689,1.21458387375,0.0469940528274,-0.368481963873,-0.195943802595,5.42000007629,-509.560394287,255.287033081,59.8311538696,-0.010498821734999941,-2.8654174804999997,-1.7154312134099996,7.8745622635,1.228112816810001,16.0
2018-10-05 19:56:58.900,-0.0728667656743,-0.382146302842,-0.907347085774,0.0295432284474,-0.30866882205,-0.304024487734,-0.22555295,0.4314926,13.7096967,-21.4670467377,9.99603843689,1.21458387375,0.0469940528274,-0.368481963873,-0.195943802595,5.2999997139,-509.560394287,255.572647095,59.8311538696,-0.26049879193299996,-2.8654174804999997,-2.0607366562100005,7.680373191899999,1.239812016490001,16.0
2018-10-05 19:56:58.950,-0.0728667656743,-0.382146302842,-0.907347085774,0.0295432284474,-0.30866882205,-0.304024487734,-0.22555295,0.4314926,13.7096967,-21.4670467377,9.99603843689,1.21458387375,0.0469940528274,-0.368481963873,-0.195943802595,5.2999997139,-509.560394287,255.572647095,59.8311538696,-0.26049879193299996,-2.875415801999999,-2.3885784149100004,7.497197151200002,1.234691619870001,16.0
2018-10-05 19:56:59.000,-0.0728667656743,-0.382146302842,-0.907347085774,0.0295432284474,-0.30866882205,-0.304024487734,-0.22555295,0.4314926,13.7096967,-20.209230423,12.1917438507,1.25456225872,0.0295432284474,-0.30866882205,-0.304024487734,5.17000007629,-496.746643066,255.774993896,59.8311538696,-0.5104987993833,-2.875415801999999,-2.88510894771,7.181879997300001,1.2422946691500012,16.0
2018-10-05 19:56:59.050,-0.0728667656743,-0.382146302842,-0.907347085774,0.0295432284474,-0.30866882205,-0.304024487734,-0.22555295,0.4314926,13.7096967,-20.209230423,12.1917438507,1.25456225872,0.0295432284474,-0.30866882205,-0.304024487734,5.17000007629,-496.746643066,255.774993896,59.8311538696,-0.5004988014695,-2.875415801999999,-2.88510894771,7.181879997300001,1.2422946691500012,16.0
2018-10-05 19:56:59.100,-0.0728667656743,-0.382146302842,-0.907347085774,0.0295432284474,-0.30866882205,-0.304024487734,-0.22555295,0.4314926,13.7096967,-20.209230423,12.1917438507,1.25456225872,0.0295432284474,-0.30866882205,-0.304024487734,5.17000007629,-496.746643066,255.774993896,59.8311538696,-0.5004988014695,-2.875415801999999,-3.7690773010100003,6.6084375382000005,1.344297409060001,16.0
2018-10-05 19:56:59.150,-0.0728667656743,-0.382146302842,-0.907347085774,0.0295432284474,-0.30866882205,-0.304024487734,-0.22555295,0.4314926,13.7096967,-20.209230423,12.1917438507,1.25456225872,0.0295432284474,-0.30866882205,-0.304024487734,5.0499997139,-496.746643066,255.884399414,59.8311538696,-0.78049878776,-2.8854179382,-4.10242652891,6.373566627500001,1.385848045350001,16.0
2018-10-05 19:56:59.200,-0.0728667656743,-0.382146302842,-0.907347085774,0.0295432284474,-0.30866882205,-0.304024487734,-0.22555295,0.4314926,13.7096967,-20.209230423,12.1917438507,1.25456225872,0.0295432284474,-0.30866882205,-0.304024487734,5.0499997139,-496.746643066,255.884399414,59.8311538696,-0.78049878776,-2.8854179382,-4.10242652891,6.373566627500001,1.385848045350001,16.0
2018-10-05 19:56:59.250,-0.0728667656743,-0.382146302842,-0.907347085774,0.0295432284474,-0.30866882205,-0.304024487734,-0.22555295,0.4314926,13.7096967,-18.7897090912,14.159075737,1.44059109688,0.0295432284474,-0.30866882205,-0.304024487734,4.92000007629,-479.23526001,255.891738892,59.8311538696,-1.100498795509,-2.8854179382,-4.8693485260100005,5.775349617,1.436040163040001,16.0
2018-10-05 19:56:59.300,-0.0728667656743,-0.382146302842,-0.907347085774,0.0295432284474,-0.30866882205,-0.304024487734,-0.22555295,0.4314926,13.7096967,-18.7897090912,14.159075737,1.44059109688,0.0295432284474,-0.30866882205,-0.304024487734,4.77999973297,-479.23526001,255.791656494,59.8311538696,-1.4204987883559999,-2.8854179382,-5.15329837801,5.5507268906,1.4322266578700011,16.0
2018-10-05 19:56:59.350,-0.122715393458,-0.376362769076,-0.881970209683,-0.0398853346705,-0.275459289551,-0.350456535816,-0.1372931,0.83356525,12.944778,-18.7897090912,14.159075737,1.44059109688,0.0295432284474,-0.30866882205,-0.304024487734,4.77999973297,-479.23526001,255.791656494,59.8311538696,-1.4204987883559999,-2.8854179382,-5.55691623691,5.2095346451,1.408609509470001,16.0
2018-10-05 19:56:59.400,-0.122715393458,-0.376362769076,-0.881970209683,-0.0398853346705,-0.275459289551,-0.350456535816,-0.1372931,0.83356525,12.944778,-18.7897090912,14.159075737,1.44059109688,0.0295432284474,-0.30866882205,-0.304024487734,4.65000009537,-467.503173828,255.617462158,47.0642929077,-2.43148899078,-3.714187622099999,-5.958959579510001,4.842534065300001,1.3810868263200011,16.0
2018-10-05 19:56:59.450,-0.122715393458,-0.376362769076,-0.881970209683,-0.0398853346705,-0.275459289551,-0.350456535816,-0.1372931,0.83356525,12.944778,-18.7897090912,14.159075737,1.44059109688,0.0295432284474,-0.30866882205,-0.304024487734,4.65000009537,-467.503173828,255.617462158,47.0642929077,-2.43148899078,-3.714187622099999,-6.22390365601,4.5883455277,1.367194175720001,16.0
2018-10-05 19:56:59.500,-0.122715393458,-0.376362769076,-0.881970209683,-0.0398853346705,-0.275459289551,-0.350456535816,-0.1372931,0.83356525,12.944778,-18.7897090912,14.159075737,1.44059109688,0.0295432284474,-0.30866882205,-0.304024487734,4.51999998093,-467.503173828,255.344970703,47.0642929077,-2.68148899078,-3.7041893005999995,-6.22390365601,4.5883455277,1.367194175720001,16.0
2018-10-05 19:56:59.550,-0.122715393458,-0.376362769076,-0.881970209683,-0.0398853346705,-0.275459289551,-0.350456535816,-0.1372931,0.83356525,12.944778,-17.2249069214,15.8748188019,1.33196938038,-0.0398853346705,-0.275459289551,-0.350456535816,4.51999998093,-467.503173828,255.344970703,47.0642929077,-2.68148899078,-3.7041893005999995,-6.863977432210001,3.9635667801000025,1.324141621590001,16.0
2018-10-05 19:56:59.600,-0.122715393458,-0.376362769076,-0.881970209683,-0.0398853346705,-0.275459289551,-0.350456535816,-0.1372931,0.83356525,12.944778,-17.2249069214,15.8748188019,1.33196938038,-0.0398853346705,-0.275459289551,-0.350456535816,4.38999986649,-460.411651611,254.997833252,47.0642929077,-2.9214890003200003,-3.7041893005999995,-7.1368846893099995,3.6841745377000024,1.3000265359900012,16.0
2018-10-05 19:56:59.650,-0.141635561365,-0.37380753488,-0.857515973594,0.0634783282876,-0.272201299667,-0.306095570326,-0.22555295,0.32361945,12.89574475,-17.2249069214,15.8748188019,1.33196938038,-0.0398853346705,-0.275459289551,-0.350456535816,4.38999986649,-460.411651611,254.997833252,47.0642929077,-2.9214890003200003,-3.7041893005999995,-7.50382614141,3.2800645828999997,1.255424618720001,16.0
2018-10-05 19:56:59.700,-0.141635561365,-0.37380753488,-0.857515973594,0.0634783282876,-0.272201299667,-0.306095570326,-0.22555295,0.32361945,12.89574475,-17.2249069214,15.8748188019,1.33196938038,-0.0398853346705,-0.275459289551,-0.350456535816,4.27999973297,-460.411651611,254.557235718,38.6017837524,-1.7858562991056,-4.203937530600001,-7.889968872110002,2.863733291700001,1.2387902736700012,16.0
2018-10-05 19:56:59.750,-0.141635561365,-0.37380753488,-0.857515973594,0.0634783282876,-0.272201299667,-0.306095570326,-0.22555295,0.32361945,12.89574475,-15.5659408569,17.4024105072,1.21960687637,0.0634783282876,-0.272201299667,-0.306095570326,4.27999973297,-460.411651611,254.557235718,38.6017837524,-1.7758563086356,-4.203937530600001,-8.142051696810002,2.5843410492000007,1.2176237106300012,16.0
2018-10-05 19:56:59.800,-0.141635561365,-0.37380753488,-0.857515973594,0.0634783282876,-0.272201299667,-0.306095570326,-0.22555295,0.32361945,12.89574475,-15.5659408569,17.4024105072,1.21960687637,0.0634783282876,-0.272201299667,-0.306095570326,4.17000007629,-461.357696533,254.027526855,38.6017837524,-1.9858562275756,-4.203937530600001,-8.39626884461,2.2732019425,1.213880419730001,16.0
2018-10-05 19:56:59.850,-0.141635561365,-0.37380753488,-0.857515973594,0.0634783282876,-0.272201299667,-0.306095570326,-0.22555295,0.32361945,12.89574475,-15.5659408569,17.4024105072,1.21960687637,0.0634783282876,-0.272201299667,-0.306095570326,4.17000007629,-461.357696533,254.027526855,38.6017837524,-1.9758562371156,-4.203937530600001,-8.76771926881,1.8236351014000007,1.189618110660001,16.0
2018-10-05 19:56:59.900,-0.141635561365,-0.37380753488,-0.857515973594,0.0634783282876,-0.272201299667,-0.306095570326,-0.22555295,0.32361945,12.89574475,-15.5659408569,17.4024105072,1.21960687637,0.0634783282876,-0.272201299667,-0.306095570326,4.05999994278,-461.357696533,253.395706177,38.6017837524,-2.1758561655856,-4.203937530600001,-9.00394058231,1.5308647156000017,1.1595414876900012,16.0
2018-10-05 19:56:59.950,-0.141635561365,-0.37380753488,-0.857515973594,0.0634783282876,-0.272201299667,-0.306095570326,-0.22555295,0.32361945,12.89574475,-15.5659408569,17.4024105072,1.21960687637,0.0634783282876,-0.272201299667,-0.306095570326,3.97000002861,-465.89642334,252.688751221,38.6017837524,-2.1758561655856,-4.203937530600001,-9.47085762021,0.9267911911000013,1.0712438821800012,16.0
2018-10-05 19:57:00.000,-0.141635561365,-0.37380753488,-0.857515973594,0.0634783282876,-0.272201299667,-0.306095570326,-0.22555295,0.32361945,12.89574475,-13.7644557953,18.8217449188,1.02693283558,0.0634783282876,-0.272201299667,-0.306095570326,3.97000002861,-465.89642334,252.688751221,38.6017837524,-2.3158562704956003,-5.433937072799999,-9.576759338410001,0.7816915512000016,1.048964023590001,16.0
2018-10-05 19:57:00.050,-0.170165632416,-0.373187061133,-0.819695300948,0.020433280617,-0.27183791995,-0.323204159737,-0.1765197,0.5295591,12.7682583,-13.7644557953,18.8217449188,1.02693283558,0.0634783282876,-0.272201299667,-0.306095570326,3.97000002861,-465.89642334,252.688751221,38.6017837524,-2.3058562800256,-5.443935394300006,-9.89086151121,0.3313779831000012,0.9913251996040011,16.0
2018-10-05 19:57:00.100,-0.170165632416,-0.373187061133,-0.819695300948,0.020433280617,-0.27183791995,-0.323204159737,-0.1765197,0.5295591,12.7682583,-13.7644557953,18.8217449188,1.02693283558,0.0634783282876,-0.272201299667,-0.306095570326,3.88999986649,-465.89642334,251.887817383,28.4956970215,-1.24467992783,-9.109180450399997,-10.110418319710002,0.024972915700001153,0.9479431509970011,16.0
2018-10-05 19:57:00.150,-0.170165632416,-0.373187061133,-0.819695300948,0.020433280617,-0.27183791995,-0.323204159737,-0.1765197,0.5295591,12.7682583,-13.7644557953,18.8217449188,1.02693283558,0.0634783282876,-0.272201299667,-0.306095570326,3.88999986649,-465.89642334,251.887817383,28.4956970215,-1.24467992783,-9.109180450399997,-10.50417137151,-0.5732545851999991,0.8433067202570012,16.0
2018-10-05 19:57:00.200,-0.170165632416,-0.373187061133,-0.819695300948,0.020433280617,-0.27183791995,-0.323204159737,-0.1765197,0.5295591,12.7682583,-13.7644557953,18.8217449188,1.02693283558,0.0634783282876,-0.272201299667,-0.306095570326,3.81999993324,-442.132385254,251.011184692,28.4956970215,-1.3246800899499998,-11.599178314199996,-10.696626663209999,-0.8870592116999987,0.7910578846930011,16.0
2018-10-05 19:57:00.250,-0.170165632416,-0.373187061133,-0.819695300948,0.020433280617,-0.27183791995,-0.323204159737,-0.1765197,0.5295591,12.7682583,-12.0844688416,19.934797287,0.773699223995,0.020433280617,-0.27183791995,-0.323204159737,3.81999993324,-442.132385254,251.011184692,28.4956970215,-1.3246800899499998,-11.599178314199996,-10.987663269010001,-1.3633089064999986,0.7245008349420011,16.0
2018-10-05 19:57:00.300,-0.170165632416,-0.373187061133,-0.819695300948,0.020433280617,-0.27183791995,-0.323204159737,-0.1765197,0.5295591,12.7682583,-12.0844688416,19.934797287,0.773699223995,0.020433280617,-0.27183791995,-0.323204159737,3.75999999046,-442.132385254,250.050262451,28.4956970215,-1.38468003273,-14.419178009,-11.166070938110002,-1.6777925490999994,0.6876690983770011,16.0
2018-10-05 19:57:00.350,-0.170165632416,-0.373187061133,-0.819695300948,0.020433280617,-0.27183791995,-0.323204159737,-0.1765197,0.5295591,12.7682583,-12.0844688416,19.934797287,0.773699223995,0.020433280617,-0.27183791995,-0.323204159737,3.75999999046,-442.132385254,250.050262451,28.4956970215,-1.38468003273,-14.419178009,-11.166070938110002,-1.6777925490999994,0.6876690983770011,16.0
2018-10-05 19:57:00.400,-0.185638249589,-0.352074840878,-0.791357870373,-0.156513229012,-0.29254925251,-0.275514185429,-0.20593965,0.4707192,12.26811915,-12.0844688416,19.934797287,0.773699223995,0.020433280617,-0.27183791995,-0.323204159737,3.70999979973,-465.024963379,249.009841919,28.4956970215,-1.41468000412,-17.4291782379,-11.51606750491,-2.3094120024999985,0.5860223174100011,16.0
