%time,field.orientation.x,field.orientation.y,field.orientation.z,field.angular_velocity.x,field.angular_velocity.y,field.angular_velocity.z,field.linear_acceleration.x,field.linear_acceleration.y,field.linear_acceleration.z,field.twist.linear.x,field.twist.linear.y,field.twist.linear.z,field.twist.angular.x,field.twist.angular.y,field.twist.angular.z,field.alt_error,field.aspd_error,field.xtrack_error,delta_yaw,delta_pitch,delta_roll,delta_x,delta_y,delta_z,delta_roll_airspeed
2018-09-11 18:48:37.750,,,,,,,,,,,,,,,,-22.0200004578,-1524.73950195,-43.4529151917,161.8380813599,-0.03463292122000006,,-1.52767133713,16.1028137207,-1.02140808105,15.0
2018-09-11 18:48:37.800,,,,,,,,,,,,,,,,-21.9099998474,-1524.73950195,-43.4529151917,161.8380813599,0.09536695480000024,,-1.43199586868,16.155664444,-0.973491251469,15.0
2018-09-11 18:48:37.850,,,,,,,,,,,,,,,,0.0799999982119,-1533.41711426,-43.1502952576,176.49301910399998,2.4527597613629997,16.73565161227,-1.43199586868,16.155664444,-0.973491251469,15.0
2018-09-11 18:48:37.900,0.0223078962353,0.0158096294537,-0.997505765699,-0.209915474057,-0.0164986513555,0.0237818416208,-0.00980665,0.5295591,10.3165958,,,,,,,0.0799999982119,-1533.41711426,-43.1502952576,176.49301910399998,2.4527597613629997,16.73565161227,-1.32262980938,16.1913833618,-0.932258546352,15.0
2018-09-11 18:48:37.950,0.0223078962353,0.0158096294537,-0.997505765699,-0.209915474057,-0.0164986513555,0.0237818416208,-0.00980665,0.5295591,10.3165958,-16.1778564453,1.37328660488,-0.954533338547,-0.209915474057,-0.0164986513555,0.0237818416208,0.0799999982119,-1533.41711426,-43.1502952576,176.49301910399998,2.4527597613629997,16.73565161227,-1.32262980938,16.1913833618,-0.932258546352,15.0
2018-09-11 18:48:38.000,0.0223078962353,0.0158096294537,-0.997505765699,-0.209915474057,-0.0164986513555,0.0237818416208,-0.00980665,0.5295591,10.3165958,-16.1778564453,1.37328660488,-0.954533338547,-0.209915474057,-0.0164986513555,0.0237818416208,0.189999997616,-33.4171295166,-41.5133666992,176.49301910399998,1.812759757042,19.285651802969998,-1.20834183693,16.2172374725,-0.85491257906,15.0
2018-09-11 18:48:38.050,0.0223078962353,0.0158096294537,-0.997505765699,-0.209915474057,-0.0164986513555,0.0237818416208,-0.00980665,0.5295591,10.3165958,-16.1778564453,1.37328660488,-0.954533338547,-0.209915474057,-0.0164986513555,0.0237818416208,0.280000001192,-41.544342041,-39.9363212585,176.49301910399998,1.5527597665779997,21.67565119267,-1.12362492085,16.2462215424,-0.800375580788,15.0
2018-09-11 18:48:38.100,0.0223078962353,0.0158096294537,-0.997505765699,-0.209915474057,-0.0164986513555,0.0237818416208,-0.00980665,0.5295591,10.3165958,-16.2662601471,1.0959675312,-0.78675276041,-0.209915474057,-0.0164986513555,0.0237818416208,0.280000001192,-41.544342041,-39.9363212585,176.49301910399998,1.5527597665779997,21.67565119267,-1.06536352634,16.2872600555,-0.73455542326,15.0
2018-09-11 18:48:38.150,0.0223078962353,0.0158096294537,-0.997505765699,-0.209915474057,-0.0164986513555,0.0237818416208,-0.00980665,0.5295591,10.3165958,-16.2662601471,1.0959675312,-0.78675276041,-0.209915474057,-0.0164986513555,0.0237818416208,0.280000001192,-41.544342041,-39.9363212585,176.49301910399998,1.5527597665779997,21.67565119267,-1.06536352634,16.2872600555,-0.73455542326,15.0
2018-09-11 18:48:38.200,0.0223078962353,0.0158096294537,-0.997505765699,-0.209915474057,-0.0164986513555,0.0237818416208,-0.00980665,0.5295591,10.3165958,-16.2662601471,1.0959675312,-0.78675276041,-0.209915474057,-0.0164986513555,0.0237818416208,0.359999984503,-41.544342041,-38.3357315063,176.49301910399998,1.4127597808799999,24.145652413369998,-1.01191103458,16.3384914398,-0.64425778389,15.0
2018-09-11 18:48:38.250,0.00879865200066,-0.0114654164907,-0.998124609363,0.648256719112,-0.0681782439351,0.0355644673109,0.57859235,0.38245935,11.20900095,-16.2662601471,1.0959675312,-0.78675276041,-0.209915474057,-0.0164986513555,0.0237818416208,0.359999984503,-41.544342041,-38.3357315063,176.49301910399998,1.4127597808799999,24.145652413369998,-1.01191103458,16.3384914398,-0.64425778389,15.0
2018-09-11 18:48:38.300,0.00879865200066,-0.0114654164907,-0.998124609363,0.648256719112,-0.0681782439351,0.0355644673109,0.57859235,0.38245935,11.20900095,-16.2662601471,1.0959675312,-0.78675276041,-0.209915474057,-0.0164986513555,0.0237818416208,0.42999997735,-41.6160583496,-36.6844749451,177.1906967163,0.004578232760000134,23.408275246610003,-1.00288593769,16.3907337189,-0.540935993195,15.0
2018-09-11 18:48:38.350,0.00879865200066,-0.0114654164907,-0.998124609363,0.648256719112,-0.0681782439351,0.0355644673109,0.57859235,0.38245935,11.20900095,-16.4027557373,1.03314852715,-0.484200447798,0.648256719112,-0.0681782439351,0.0355644673109,0.489999979734,-41.6160583496,-35.0339431763,176.1906967163,-0.02542185783999984,25.73827517031,-1.04199624062,16.4058322906,-0.457066327333,15.0
2018-09-11 18:48:38.400,0.00879865200066,-0.0114654164907,-0.998124609363,0.648256719112,-0.0681782439351,0.0355644673109,0.57859235,0.38245935,11.20900095,-16.4027557373,1.03314852715,-0.484200447798,0.648256719112,-0.0681782439351,0.0355644673109,0.489999979734,-41.6160583496,-35.0339431763,176.1906967163,-0.02542185783999984,25.73827517031,-1.0730946064,16.4243202209,-0.409311234951,15.0
2018-09-11 18:48:38.450,0.00879865200066,-0.0114654164907,-0.998124609363,0.648256719112,-0.0681782439351,0.0355644673109,0.57859235,0.38245935,11.20900095,-16.4027557373,1.03314852715,-0.484200447798,0.648256719112,-0.0681782439351,0.0355644673109,0.539999961853,-55.029964447,-33.3733787537,176.1906967163,-0.03542184829999995,27.83827555181,-1.12987518311,16.4410610199,-0.348954558372,15.0
2018-09-11 18:48:38.500,0.00879865200066,-0.0114654164907,-0.998124609363,0.648256719112,-0.0681782439351,0.0355644673109,0.57859235,0.38245935,11.20900095,-16.4027557373,1.03314852715,-0.484200447798,0.648256719112,-0.0681782439351,0.0355644673109,0.539999961853,-55.029964447,-33.3733787537,176.1906967163,-0.015421867369999953,27.83827555181,-1.21847343445,16.4429931641,-0.274078279734,15.0
2018-09-11 18:48:38.550,0.00879865200066,-0.0114654164907,-0.998124609363,0.648256719112,-0.0681782439351,0.0355644673109,0.57859235,0.38245935,11.20900095,-16.4518508911,1.31304240227,-0.223214328289,0.648256719112,-0.0681782439351,0.0355644673109,0.579999983311,-55.029964447,-31.7128181458,176.1906967163,-0.02542185783999984,29.908275246610003,-1.31304240227,16.4518508911,-0.223214328289,15.0
2018-09-11 18:48:38.600,0.00879865200066,-0.0114654164907,-0.998124609363,0.648256719112,-0.0681782439351,0.0355644673109,0.57859235,0.38245935,11.20900095,-16.4518508911,1.31304240227,-0.223214328289,0.648256719112,-0.0681782439351,0.0355644673109,0.579999983311,-55.029964447,-31.7128181458,176.1906967163,-0.015421867369999953,29.908275246610003,-1.34543311596,16.4514122009,-0.211537286639,15.0
2018-09-11 18:48:38.650,-0.0112323198922,-0.130331885455,-0.990133956421,0.513216972351,-0.0641711875796,0.00126573326997,0.4903325,0.91201845,10.6500219,-16.4518508911,1.31304240227,-0.223214328289,0.648256719112,-0.0681782439351,0.0355644673109,0.610000014305,-14.3010139465,-30.0507049561,178.1235427856,-1.594385027883,18.135556221,-1.46598720551,16.4530639648,-0.162858486176,15.0
2018-09-11 18:48:38.700,-0.0112323198922,-0.130331885455,-0.990133956421,0.513216972351,-0.0641711875796,0.00126573326997,0.4903325,0.91201845,10.6500219,-16.4518508911,1.31304240227,-0.223214328289,0.648256719112,-0.0681782439351,0.0355644673109,0.610000014305,-14.3010139465,-30.0507049561,178.1235427856,-1.584385037423,18.135556221,-1.54908502102,16.4554138184,-0.131364688277,15.0
2018-09-11 18:48:38.750,-0.0112323198922,-0.130331885455,-0.990133956421,0.513216972351,-0.0641711875796,0.00126573326997,0.4903325,0.91201845,10.6500219,-16.4518508911,1.31304240227,-0.223214328289,0.648256719112,-0.0681782439351,0.0355644673109,0.610000014305,-14.3010139465,-30.0507049561,178.1235427856,-1.584385037423,18.135556221,-1.54908502102,16.4554138184,-0.131364688277,15.0
2018-09-11 18:48:38.800,-0.0112323198922,-0.130331885455,-0.990133956421,0.513216972351,-0.0641711875796,0.00126573326997,0.4903325,0.91201845,10.6500219,-16.4518508911,1.31304240227,-0.223214328289,0.648256719112,-0.0681782439351,0.0355644673109,0.649999976158,-15.9934043884,-26.7374858856,178.1235427856,-1.534385085103,19.995556831400002,-1.86677515507,16.4318790436,-0.0372744761407,15.0
2018-09-11 18:48:38.850,-0.0112323198922,-0.130331885455,-0.990133956421,0.513216972351,-0.0641711875796,0.00126573326997,0.4903325,0.91201845,10.6500219,-16.4291687012,1.97345507145,-0.0277534071356,0.513216972351,-0.0641711875796,0.00126573326997,0.649999976158,-15.9934043884,-26.7374858856,178.1235427856,-1.514385044575,21.775555610700003,-2.04031038284,16.4239292145,-0.0200143940747,15.0
2018-09-11 18:48:38.900,-0.0112323198922,-0.130331885455,-0.990133956421,0.513216972351,-0.0641711875796,0.00126573326997,0.4903325,0.91201845,10.6500219,-16.4291687012,1.97345507145,-0.0277534071356,0.513216972351,-0.0641711875796,0.00126573326997,0.649999976158,-15.9934043884,-26.7374858856,178.1235427856,-1.4943850636490001,21.775555610700003,-2.1053404808,16.4151687622,-0.0175692755729,15.0
2018-09-11 18:48:38.950,-0.0112323198922,-0.130331885455,-0.990133956421,0.513216972351,-0.0641711875796,0.00126573326997,0.4903325,0.91201845,10.6500219,-16.4291687012,1.97345507145,-0.0277534071356,0.513216972351,-0.0641711875796,0.00126573326997,0.659999966621,-15.9934043884,-25.060710907,178.1235427856,-1.434385061264,23.515557289100002,-2.28683066368,16.4074344635,-0.0197085570544,15.0
2018-09-11 18:48:39.000,-0.0112323198922,-0.130331885455,-0.990133956421,0.513216972351,-0.0641711875796,0.00126573326997,0.4903325,0.91201845,10.6500219,-16.4291687012,1.97345507145,-0.0277534071356,0.513216972351,-0.0641711875796,0.00126573326997,0.659999966621,-15.9934043884,-25.060710907,178.1235427856,-1.4043850898749999,23.515557289100002,-2.28683066368,16.4074344635,-0.0197085570544,15.0
2018-09-11 18:48:39.050,-0.0224320113931,-0.221095957653,-0.97247122336,0.4147990942,-0.0461380556226,-0.184856235981,0.5099458,0.75511205,10.48330885,-16.4291687012,1.97345507145,-0.0277534071356,0.513216972351,-0.0641711875796,0.00126573326997,0.659999966621,-15.9934043884,-25.060710907,178.1235427856,-1.4043850898749999,23.515557289100002,-2.55603146553,16.3845825195,-0.0340356566012,15.0
2018-09-11 18:48:39.100,-0.0224320113931,-0.221095957653,-0.97247122336,0.4147990942,-0.0461380556226,-0.184856235981,0.5099458,0.75511205,10.48330885,-16.359588623,2.76090764999,-0.0619019642472,0.4147990942,-0.0461380556226,-0.184856235981,0.669999957085,-18.7439918518,-23.3882465363,175.5898208618,-1.503904521466,14.549301147499996,-2.76090764999,16.359588623,-0.0619019642472,15.0
2018-09-11 18:48:39.150,-0.0224320113931,-0.221095957653,-0.97247122336,0.4147990942,-0.0461380556226,-0.184856235981,0.5099458,0.75511205,10.48330885,-16.359588623,2.76090764999,-0.0619019642472,0.4147990942,-0.0461380556226,-0.184856235981,0.669999957085,-18.7439918518,-23.3882465363,175.5898208618,-1.503904521466,14.549301147499996,-2.76090764999,16.359588623,-0.0619019642472,15.0
2018-09-11 18:48:39.200,-0.0224320113931,-0.221095957653,-0.97247122336,0.4147990942,-0.0461380556226,-0.184856235981,0.5099458,0.75511205,10.48330885,-16.359588623,2.76090764999,-0.0619019642472,0.4147990942,-0.0461380556226,-0.184856235981,0.689999997616,-18.7439918518,-21.729970932,176.5898208618,-1.353904545308,16.149303436300002,-3.15328907967,16.3199901581,-0.120053365827,15.0
2018-09-11 18:48:39.250,-0.0224320113931,-0.221095957653,-0.97247122336,0.4147990942,-0.0461380556226,-0.184856235981,0.5099458,0.75511205,10.48330885,-16.359588623,2.76090764999,-0.0619019642472,0.4147990942,-0.0461380556226,-0.184856235981,0.719999969006,-23.2771873474,-20.0823249817,176.5898208618,-1.1939045488839999,17.6993026734,-3.51288414001,16.2802066803,-0.169935464859,15.0
2018-09-11 18:48:39.300,-0.0224320113931,-0.221095957653,-0.97247122336,0.4147990942,-0.0461380556226,-0.184856235981,0.5099458,0.75511205,10.48330885,-16.2646141052,3.68306279182,-0.201605632901,0.4147990942,-0.0461380556226,-0.184856235981,0.719999969006,-23.2771873474,-20.0823249817,176.5898208618,-1.1839045286179999,17.6993026734,-3.59246063232,16.2729206085,-0.181502133608,15.0
2018-09-11 18:48:39.350,-0.0224320113931,-0.221095957653,-0.97247122336,0.4147990942,-0.0461380556226,-0.184856235981,0.5099458,0.75511205,10.48330885,-16.2646141052,3.68306279182,-0.201605632901,0.4147990942,-0.0461380556226,-0.184856235981,0.75,-23.2771873474,-18.4131031036,177.5898208618,-1.003904551268,19.0993041993,-3.78516101837,16.2532024384,-0.2171074301,15.0
2018-09-11 18:48:39.400,-0.0224320113931,-0.221095957653,-0.97247122336,0.4147990942,-0.0461380556226,-0.184856235981,0.5099458,0.75511205,10.48330885,-16.2646141052,3.68306279182,-0.201605632901,0.4147990942,-0.0461380556226,-0.184856235981,0.75,-23.2771873474,-18.4131031036,177.5898208618,-0.9939045310029999,19.0993041993,-3.99163269997,16.2196388245,-0.23971183598,15.0
2018-09-11 18:48:39.450,-0.0224320113931,-0.221095957653,-0.97247122336,0.4147990942,-0.0461380556226,-0.184856235981,0.5099458,0.75511205,10.48330885,-16.2646141052,3.68306279182,-0.201605632901,0.4147990942,-0.0461380556226,-0.184856235981,0.789999961853,-16.3837432861,-16.73478508,177.5898208618,-0.7639045491819,19.0993041993,-4.38566827774,16.1640548706,-0.327424377203,15.0
2018-09-11 18:48:39.500,-0.0369597110929,-0.296266117466,-0.946412662903,0.399470716715,-0.151774913073,-0.27450081706,0.6472389,0.7649187,10.1793027,-16.2646141052,3.68306279182,-0.201605632901,0.4147990942,-0.0461380556226,-0.184856235981,0.789999961853,-16.3837432861,-16.73478508,171.2274017334,0.15223666653,10.027793884300003,-4.59776544571,16.1217269897,-0.374697983265,15.0
2018-09-11 18:48:39.550,-0.0369597110929,-0.296266117466,-0.946412662903,0.399470716715,-0.151774913073,-0.27450081706,0.6472389,0.7649187,10.1793027,-16.2646141052,3.68306279182,-0.201605632901,0.4147990942,-0.0461380556226,-0.184856235981,0.789999961853,-16.3837432861,-16.73478508,171.2274017334,0.15223666653,10.027793884300003,-4.59776544571,16.1217269897,-0.374697983265,15.0
2018-09-11 18:48:39.600,-0.0369597110929,-0.296266117466,-0.946412662903,0.399470716715,-0.151774913073,-0.27450081706,0.6472389,0.7649187,10.1793027,-16.0421142578,5.01949739456,-0.475045233965,0.399470716715,-0.151774913073,-0.27450081706,0.839999973774,-16.3837432861,-15.0837402344,172.2274017334,0.43223665654599996,10.027793884300003,-5.01949739456,16.0421142578,-0.475045233965,15.0
2018-09-11 18:48:39.650,-0.0369597110929,-0.296266117466,-0.946412662903,0.399470716715,-0.151774913073,-0.27450081706,0.6472389,0.7649187,10.1793027,-16.0421142578,5.01949739456,-0.475045233965,0.399470716715,-0.151774913073,-0.27450081706,0.909999966621,-25.4114151001,-13.4380550385,172.2274017334,0.74223665893,10.027793884300003,-5.61498451233,15.9009256363,-0.578247606754,15.0
2018-09-11 18:48:39.700,-0.0369597110929,-0.296266117466,-0.946412662903,0.399470716715,-0.151774913073,-0.27450081706,0.6472389,0.7649187,10.1793027,-16.0421142578,5.01949739456,-0.475045233965,0.399470716715,-0.151774913073,-0.27450081706,0.989999949932,-25.4114151001,-11.7726821899,173.2274017334,0.77223663032,10.027793884300003,-5.61498451233,15.9009256363,-0.578247606754,15.0
2018-09-11 18:48:39.750,-0.0369597110929,-0.296266117466,-0.946412662903,0.399470716715,-0.151774913073,-0.27450081706,0.6472389,0.7649187,10.1793027,-16.0421142578,5.01949739456,-0.475045233965,0.399470716715,-0.151774913073,-0.27450081706,0.989999949932,-25.4114151001,-11.7726821899,173.2274017334,1.092236623168,10.027793884300003,-6.1284365654,15.7718200684,-0.632059812546,15.0
2018-09-11 18:48:39.800,-0.0369597110929,-0.296266117466,-0.946412662903,0.399470716715,-0.151774913073,-0.27450081706,0.6472389,0.7649187,10.1793027,-15.6983041763,6.40524721146,-0.647665083408,0.399470716715,-0.151774913073,-0.27450081706,0.989999949932,-25.4114151001,-11.7726821899,173.2274017334,1.102236673236,10.027793884300003,-6.40524721146,15.6983041763,-0.647665083408,15.0
2018-09-11 18:48:39.850,-0.0693236831334,-0.345726146469,-0.917801810496,0.171776279807,-0.286345273256,-0.269716948271,0.97085835,0.8433719,12.05237285,-15.6983041763,6.40524721146,-0.647665083408,0.399470716715,-0.151774913073,-0.27450081706,1.07999992371,-34.58070755,-10.1246032715,174.2274017334,1.3922366946929998,10.027793884300003,-6.84073829651,15.5718517303,-0.647341907024,15.0
2018-09-11 18:48:39.900,-0.0693236831334,-0.345726146469,-0.917801810496,0.171776279807,-0.286345273256,-0.269716948271,0.97085835,0.8433719,12.05237285,-15.6983041763,6.40524721146,-0.647665083408,0.399470716715,-0.151774913073,-0.27450081706,1.07999992371,-34.58070755,-10.1246032715,166.4841995239,1.1793580688568999,3.4762153626000014,-7.27845191956,15.4326686859,-0.643660306931,15.0
2018-09-11 18:48:39.950,-0.0693236831334,-0.345726146469,-0.917801810496,0.171776279807,-0.286345273256,-0.269716948271,0.97085835,0.8433719,12.05237285,-15.6983041763,6.40524721146,-0.647665083408,0.399470716715,-0.151774913073,-0.27450081706,1.16999995708,-34.58070755,-8.48511123657,166.4841995239,1.4393580593169,3.4762153626000014,-7.56470966339,15.3356113434,-0.642324030399,15.0
2018-09-11 18:48:40.000,-0.0693236831334,-0.345726146469,-0.917801810496,0.171776279807,-0.286345273256,-0.269716948271,0.97085835,0.8433719,12.05237285,-15.6983041763,6.40524721146,-0.647665083408,0.399470716715,-0.151774913073,-0.27450081706,1.16999995708,-34.58070755,-8.48511123657,166.4841995239,1.4493580497769,3.4762153626000014,-8.01708984375,15.1725606918,-0.633406221867,15.0
2018-09-11 18:48:40.050,-0.0693236831334,-0.345726146469,-0.917801810496,0.171776279807,-0.286345273256,-0.269716948271,0.97085835,0.8433719,12.05237285,-15.113984108,8.17224121094,-0.624196469784,0.171776279807,-0.286345273256,-0.269716948271,1.25999999046,-58.2146644592,-6.86680984497,167.4841995239,1.6993580497769,3.4762153626000014,-8.4870634079,14.9920387268,-0.601355910301,15.0
2018-09-11 18:48:40.100,-0.0693236831334,-0.345726146469,-0.917801810496,0.171776279807,-0.286345273256,-0.269716948271,0.97085835,0.8433719,12.05237285,-15.113984108,8.17224121094,-0.624196469784,0.171776279807,-0.286345273256,-0.269716948271,1.25999999046,-58.2146644592,-6.86680984497,167.4841995239,1.7093580402469,3.4762153626000014,-8.7988948822,14.8684720993,-0.576056957245,15.0
2018-09-11 18:48:40.150,-0.0693236831334,-0.345726146469,-0.917801810496,0.171776279807,-0.286345273256,-0.269716948271,0.97085835,0.8433719,12.05237285,-15.113984108,8.17224121094,-0.624196469784,0.171776279807,-0.286345273256,-0.269716948271,1.25999999046,-58.2146644592,-6.86680984497,167.4841995239,1.7093580402469,3.4762153626000014,-8.7988948822,14.8684720993,-0.576056957245,15.0
2018-09-11 18:48:40.200,-0.103229767892,-0.35545004122,-0.897307926464,0.0578941777349,-0.324718177319,-0.301537424326,1.3140911,1.04931155,13.64105015,-15.113984108,8.17224121094,-0.624196469784,0.171776279807,-0.286345273256,-0.269716948271,1.35000002384,-58.2146644592,-5.23844909668,168.4841995239,1.191182911393,1.3180885315000026,-9.26425457001,14.671248436,-0.543379545212,15.0
2018-09-11 18:48:40.250,-0.103229767892,-0.35545004122,-0.897307926464,0.0578941777349,-0.324718177319,-0.301537424326,1.3140911,1.04931155,13.64105015,-15.113984108,8.17224121094,-0.624196469784,0.171776279807,-0.286345273256,-0.269716948271,1.42999994755,-76.9884109497,-3.627784729,161.6665229797,1.391182959083,1.3180885315000026,-10.0333013535,14.2985544205,-0.464431196451,15.0
2018-09-11 18:48:40.300,-0.103229767892,-0.35545004122,-0.897307926464,0.0578941777349,-0.324718177319,-0.301537424326,1.3140911,1.04931155,13.64105015,-14.2985544205,10.0333013535,-0.464431196451,0.0578941777349,-0.324718177319,-0.301537424326,1.42999994755,-76.9884109497,-3.627784729,161.6665229797,1.391182959083,1.3180885315000026,-10.1953516006,14.21733284,-0.455669045448,15.0
2018-09-11 18:48:40.350,-0.103229767892,-0.35545004122,-0.897307926464,0.0578941777349,-0.324718177319,-0.301537424326,1.3140911,1.04931155,13.64105015,-14.2985544205,10.0333013535,-0.464431196451,0.0578941777349,-0.324718177319,-0.301537424326,1.50999999046,-76.9884109497,-2.0541343689,162.6665229797,1.5711827874230002,1.3180885315000026,-10.5064182281,14.0563621521,-0.427452355623,15.0
2018-09-11 18:48:40.400,-0.103229767892,-0.35545004122,-0.897307926464,0.0578941777349,-0.324718177319,-0.301537424326,1.3140911,1.04931155,13.64105015,-14.2985544205,10.0333013535,-0.464431196451,0.0578941777349,-0.324718177319,-0.301537424326,1.50999999046,-76.9884109497,-2.0541343689,162.6665229797,1.5711827874230002,1.3180885315000026,-10.9487104416,13.8057756424,-0.404370069504,15.0
2018-09-11 18:48:40.450,-0.130108877674,-0.354681632723,-0.877682954205,0.0396534055471,-0.314111560583,-0.321904063225,1.50041745,1.0395049,13.09187775,-14.2985544205,10.0333013535,-0.464431196451,0.0578941777349,-0.324718177319,-0.301537424326,1.57999992371,-98.5344848633,-0.466491699219,163.6665229797,1.7511828541730001,1.3180885315000026,-11.2433958054,13.6277952194,-0.38139846921,15.0
2018-09-11 18:48:40.500,-0.130108877674,-0.354681632723,-0.877682954205,0.0396534055471,-0.314111560583,-0.321904063225,1.50041745,1.0395049,13.09187775,-13.3554019928,11.7015647888,-0.36930206418,0.0396534055471,-0.314111560583,-0.321904063225,1.57999992371,-98.5344848633,-0.466491699219,156.4102935791,1.47856795788,0.3767547607000026,-11.5511960983,13.4460773468,-0.377793312073,15.0
2018-09-11 18:48:40.550,-0.130108877674,-0.354681632723,-0.877682954205,0.0396534055471,-0.314111560583,-0.321904063225,1.50041745,1.0395049,13.09187775,-13.3554019928,11.7015647888,-0.36930206418,0.0396534055471,-0.314111560583,-0.321904063225,1.64999997616,-98.5344848633,1.11660766602,157.4102935791,1.67856800556,0.3767547607000026,-12.1164999008,13.0812520981,-0.358272701502,15.0
2018-09-11 18:48:40.600,-0.130108877674,-0.354681632723,-0.877682954205,0.0396534055471,-0.314111560583,-0.321904063225,1.50041745,1.0395049,13.09187775,-13.3554019928,11.7015647888,-0.36930206418,0.0396534055471,-0.314111560583,-0.321904063225,1.64999997616,-98.5344848633,1.11660766602,157.4102935791,1.68856799602,0.3767547607000026,-12.4140825272,12.8768072128,-0.352743506432,15.0
2018-09-11 18:48:40.650,-0.130108877674,-0.354681632723,-0.877682954205,0.0396534055471,-0.314111560583,-0.321904063225,1.50041745,1.0395049,13.09187775,-13.3554019928,11.7015647888,-0.36930206418,0.0396534055471,-0.314111560583,-0.321904063225,1.70999991894,-122.386169434,2.67908859253,158.4102935791,1.85856807232,0.3767547607000026,-12.8428707123,12.568031311,-0.336653292179,15.0
2018-09-11 18:48:40.700,-0.130108877674,-0.354681632723,-0.877682954205,0.0396534055471,-0.314111560583,-0.321904063225,1.50041745,1.0395049,13.09187775,-13.3554019928,11.7015647888,-0.36930206418,0.0396534055471,-0.314111560583,-0.321904063225,1.70999991894,-122.386169434,2.67908859253,158.4102935791,1.8685680627799999,0.3767547607000026,-12.986158371,12.4497432709,-0.31226670742,15.0
2018-09-11 18:48:40.750,-0.130108877674,-0.354681632723,-0.877682954205,0.0396534055471,-0.314111560583,-0.321904063225,1.50041745,1.0395049,13.09187775,-11.9848737717,13.5787916183,-0.252351462841,0.0396534055471,-0.314111560583,-0.321904063225,1.77999997139,-122.386169434,4.22908401489,159.4102935791,2.0185679197299997,0.3667564392000031,-13.5787916183,11.9848737717,-0.252351462841,15.0
2018-09-11 18:48:40.800,-0.130108877674,-0.354681632723,-0.877682954205,0.0396534055471,-0.314111560583,-0.321904063225,1.50041745,1.0395049,13.09187775,-11.9848737717,13.5787916183,-0.252351462841,0.0396534055471,-0.314111560583,-0.321904063225,1.77999997139,-122.386169434,4.22908401489,159.4102935791,2.0285679101899996,0.3667564392000031,-14.0053329468,11.6027240753,-0.209500104189,15.0
2018-09-11 18:48:40.850,-0.130108877674,-0.354681632723,-0.877682954205,0.0396534055471,-0.314111560583,-0.321904063225,1.50041745,1.0395049,13.09187775,-11.9848737717,13.5787916183,-0.252351462841,0.0396534055471,-0.314111560583,-0.321904063225,1.82999992371,-147.402191162,5.75702667236,160.4102935791,2.1385680437100003,0.35675430300000244,-14.2809181213,11.3590211868,-0.183114394546,15.0
2018-09-11 18:48:40.900,-0.174247103612,-0.345551381701,-0.840873622019,-0.0277546681464,-0.366693079472,-0.291063785553,1.53964405,1.18660465,13.85679645,-11.9848737717,13.5787916183,-0.252351462841,0.0396534055471,-0.314111560583,-0.321904063225,1.82999992371,-147.402191162,5.75702667236,148.7888717651,1.4321820736000002,-0.7677192688000005,-14.4049215317,11.2334976196,-0.173385471106,15.0
2018-09-11 18:48:40.950,-0.174247103612,-0.345551381701,-0.840873622019,-0.0277546681464,-0.366693079472,-0.291063785553,1.53964405,1.18660465,13.85679645,-10.580165863,15.0542926788,-0.0984526276588,-0.0277546681464,-0.366693079472,-0.291063785553,1.87999999523,-147.402191162,7.27121353149,150.7888717651,1.5421819686900002,-0.7777175904000018,-14.9369697571,10.7136545181,-0.113234162331,15.0
2018-09-11 18:48:41.000,-0.174247103612,-0.345551381701,-0.840873622019,-0.0277546681464,-0.366693079472,-0.291063785553,1.53964405,1.18660465,13.85679645,-10.580165863,15.0542926788,-0.0984526276588,-0.0277546681464,-0.366693079472,-0.291063785553,1.87999999523,-147.402191162,7.27121353149,150.7888717651,1.5421819686900002,-0.7777175904000018,-15.1871709824,10.427690506,-0.0673621818423,15.0
2018-09-11 18:48:41.050,-0.174247103612,-0.345551381701,-0.840873622019,-0.0277546681464,-0.366693079472,-0.291063785553,1.53964405,1.18660465,13.85679645,-10.580165863,15.0542926788,-0.0984526276588,-0.0277546681464,-0.366693079472,-0.291063785553,1.87999999523,-147.402191162,7.27121353149,150.7888717651,1.5421819686900002,-0.7777175904000018,-15.1871709824,10.427690506,-0.0673621818423,15.0
2018-09-11 18:48:41.100,-0.174247103612,-0.345551381701,-0.840873622019,-0.0277546681464,-0.366693079472,-0.291063785553,1.53964405,1.18660465,13.85679645,-10.580165863,15.0542926788,-0.0984526276588,-0.0277546681464,-0.366693079472,-0.291063785553,1.90999996662,-163.897323608,8.75391387939,151.7888717651,1.6121819019399999,-0.7877197266000024,-15.8041753769,9.71312999725,0.0221019815654,15.0
2018-09-11 18:48:41.150,-0.174247103612,-0.345551381701,-0.840873622019,-0.0277546681464,-0.366693079472,-0.291063785553,1.53964405,1.18660465,13.85679645,-10.580165863,15.0542926788,-0.0984526276588,-0.0277546681464,-0.366693079472,-0.291063785553,1.93999993801,-163.897323608,10.2046585083,152.7888717651,1.66218209267,-0.7877197266000024,-16.1385097504,9.28506755829,0.0778179913759,15.0
2018-09-11 18:48:41.200,-0.174247103612,-0.345551381701,-0.840873622019,-0.0277546681464,-0.366693079472,-0.291063785553,1.53964405,1.18660465,13.85679645,-8.96852397919,16.3617668152,0.129092976451,-0.0277546681464,-0.366693079472,-0.291063785553,1.93999993801,-163.897323608,10.2046585083,152.7888717651,1.66218209267,-0.7877197266000024,-16.2446708679,9.12250137329,0.118442058563,15.0
2018-09-11 18:48:41.250,-0.174247103612,-0.345551381701,-0.840873622019,-0.0277546681464,-0.366693079472,-0.291063785553,1.53964405,1.18660465,13.85679645,-8.96852397919,16.3617668152,0.129092976451,-0.0277546681464,-0.366693079472,-0.291063785553,1.94999992847,-192.195709229,11.6425743103,153.7888717651,1.65218210221,-0.7977180481000019,-16.2446708679,9.12250137329,0.118442058563,15.0
2018-09-11 18:48:41.300,-0.174247103612,-0.345551381701,-0.840873622019,-0.0277546681464,-0.366693079472,-0.291063785553,1.53964405,1.18660465,13.85679645,-8.96852397919,16.3617668152,0.129092976451,-0.0277546681464,-0.366693079472,-0.291063785553,1.94999992847,-192.195709229,11.6425743103,153.7888717651,1.65218210221,-0.7977180481000019,-16.7780685425,8.34474658966,0.229366332293,15.0
2018-09-11 18:48:41.350,-0.220405549769,-0.315790296092,-0.792814500774,-0.0295426622033,-0.365468889475,-0.325507134199,1.6279039,1.06892485,14.5726819,-8.96852397919,16.3617668152,0.129092976451,-0.0277546681464,-0.366693079472,-0.291063785553,1.94999992847,-192.195709229,13.0542984009,154.7888717651,1.63218188286,-0.8077163697000032,-17.1730747223,7.69228696823,0.317081898451,15.0
2018-09-11 18:48:41.400,-0.220405549769,-0.315790296092,-0.792814500774,-0.0295426622033,-0.365468889475,-0.325507134199,1.6279039,1.06892485,14.5726819,-8.96852397919,16.3617668152,0.129092976451,-0.0277546681464,-0.366693079472,-0.291063785553,1.93999993801,-215.113830566,14.4099311829,143.203660965,0.5088865757000001,-0.5355949401999993,-17.450176239,7.19462394714,0.37081182003,15.0
2018-09-11 18:48:41.450,-0.220405549769,-0.315790296092,-0.792814500774,-0.0295426622033,-0.365468889475,-0.325507134199,1.6279039,1.06892485,14.5726819,-7.19462394714,17.450176239,0.37081182003,-0.0295426622033,-0.365468889475,-0.325507134199,1.93999993801,-215.113830566,14.4099311829,143.203660965,0.4688866138500001,-0.5355949401999993,-17.6265850067,6.83115959167,0.419733136892,15.0
2018-09-11 18:48:41.500,-0.220405549769,-0.315790296092,-0.792814500774,-0.0295426622033,-0.365468889475,-0.325507134199,1.6279039,1.06892485,14.5726819,-7.19462394714,17.450176239,0.37081182003,-0.0295426622033,-0.365468889475,-0.325507134199,1.93999993801,-215.113830566,14.4099311829,143.203660965,0.47888660430999996,-0.5455932617000059,-17.6265850067,6.83115959167,0.419733136892,15.0
2018-09-11 18:48:41.550,-0.220405549769,-0.315790296092,-0.792814500774,-0.0295426622033,-0.365468889475,-0.325507134199,1.6279039,1.06892485,14.5726819,-7.19462394714,17.450176239,0.37081182003,-0.0295426622033,-0.365468889475,-0.325507134199,1.91999995708,-215.113830566,15.7570724487,144.203660965,0.4088866710699999,-0.5555953980000012,-18.1110267639,5.74786949158,0.557041704655,15.0
2018-09-11 18:48:41.600,-0.220405549769,-0.315790296092,-0.792814500774,-0.0295426622033,-0.365468889475,-0.325507134199,1.6279039,1.06892485,14.5726819,-7.19462394714,17.450176239,0.37081182003,-0.0295426622033,-0.365468889475,-0.325507134199,1.91999995708,-215.113830566,15.7570724487,144.203660965,0.4088866710699999,-0.5655937195000007,-18.1810665131,5.57314348221,0.570698559284,15.0
2018-09-11 18:48:41.650,-0.220405549769,-0.315790296092,-0.792814500774,-0.0295426622033,-0.365468889475,-0.325507134199,1.6279039,1.06892485,14.5726819,-7.19462394714,17.450176239,0.37081182003,-0.0295426622033,-0.365468889475,-0.325507134199,1.88999998569,-237.490463257,17.0533714294,145.203660965,0.2988867759699998,-0.5755958557000014,-18.392868042,4.99453306198,0.654835283756,15.0
2018-09-11 18:48:41.700,-0.259821364379,-0.295061445638,-0.746199440621,-0.0104504190385,-0.362913578749,-0.283028244972,1.63771055,1.18660465,14.4550021,-4.82335519791,18.4545249939,0.680031657219,-0.0295426622033,-0.365468889475,-0.325507134199,1.88999998569,-237.490463257,17.0533714294,145.203660965,0.2988867759699998,-0.5855941773000026,-18.5116939545,4.65061616898,0.690872192383,15.0
2018-09-11 18:48:41.750,-0.259821364379,-0.295061445638,-0.746199440621,-0.0104504190385,-0.362913578749,-0.283028244972,1.63771055,1.18660465,14.4550021,-4.82335519791,18.4545249939,0.680031657219,-0.0295426622033,-0.365468889475,-0.325507134199,1.84999990463,-237.490463257,18.3400230408,135.7665042877,-0.9655916690800002,-1.5339241028000004,-18.5116939545,4.65061616898,0.690872192383,15.0
2018-09-11 18:48:41.800,-0.259821364379,-0.295061445638,-0.746199440621,-0.0104504190385,-0.362913578749,-0.283028244972,1.63771055,1.18660465,14.4550021,-4.82335519791,18.4545249939,0.680031657219,-0.0295426622033,-0.365468889475,-0.325507134199,1.84999990463,-237.490463257,18.3400230408,135.7665042877,-0.9655916690800002,-1.5339241028000004,-18.7873058319,3.69853997231,0.808145999908,15.0
2018-09-11 18:48:41.850,-0.259821364379,-0.295061445638,-0.746199440621,-0.0104504190385,-0.362913578749,-0.283028244972,1.63771055,1.18660465,14.4550021,-4.82335519791,18.4545249939,0.680031657219,-0.0295426622033,-0.365468889475,-0.325507134199,1.78999996185,-248.232452393,19.5631027222,137.7665042877,-1.1255917549099999,-1.5539207457999993,-18.7873058319,3.69853997231,0.808145999908,15.0
2018-09-11 18:48:41.900,-0.259821364379,-0.295061445638,-0.746199440621,-0.0104504190385,-0.362913578749,-0.283028244972,1.63771055,1.18660465,14.4550021,-2.57737731934,19.0589599609,0.906792402267,-0.0104504190385,-0.362913578749,-0.283028244972,1.78999996185,-248.232452393,19.5631027222,137.7665042877,-1.1255917549099999,-1.5539207457999993,-19.014125824,2.76641345024,0.884186267853,15.0
2018-09-11 18:48:41.950,-0.259821364379,-0.295061445638,-0.746199440621,-0.0104504190385,-0.362913578749,-0.283028244972,1.63771055,1.18660465,14.4550021,-2.57737731934,19.0589599609,0.906792402267,-0.0104504190385,-0.362913578749,-0.283028244972,1.7199999094,-248.232452393,20.7447433472,138.7665042877,-1.2855916023199998,-1.5539207457999993,-19.11876297,2.20189380646,0.940528213978,15.0
2018-09-11 18:48:42.000,-0.259821364379,-0.295061445638,-0.746199440621,-0.0104504190385,-0.362913578749,-0.283028244972,1.63771055,1.18660465,14.4550021,-2.57737731934,19.0589599609,0.906792402267,-0.0104504190385,-0.362913578749,-0.283028244972,1.7199999094,-248.232452393,20.7447433472,138.7665042877,-1.2855916023199998,-1.5639228821000017,-19.2069129944,1.65633499622,0.967182993889,15.0
2018-09-11 18:48:42.050,-0.259821364379,-0.295061445638,-0.746199440621,-0.0104504190385,-0.362913578749,-0.283028244972,1.63771055,1.18660465,14.4550021,-2.57737731934,19.0589599609,0.906792402267,-0.0104504190385,-0.362913578749,-0.283028244972,1.63999998569,-266.559783936,21.8933105469,139.7665042877,-1.47559165954,-1.5639228821000017,-19.2800617218,1.08496570587,1.01456046104,15.0
2018-09-11 18:48:42.100,-0.291913524668,-0.271347813735,-0.694216089307,-0.0348664969206,-0.322220921516,-0.325449973345,1.65732385,1.02969825,13.89602305,-2.57737731934,19.0589599609,0.906792402267,-0.0104504190385,-0.362913578749,-0.283028244972,1.63999998569,-266.559783936,21.8933105469,129.40115118027,-2.0107097625700003,-2.1929397582999997,-19.311252594,0.72098082304,1.02948820591,15.0
2018-09-11 18:48:42.150,-0.291913524668,-0.271347813735,-0.694216089307,-0.0348664969206,-0.322220921516,-0.325449973345,1.65732385,1.02969825,13.89602305,-2.57737731934,19.0589599609,0.906792402267,-0.0104504190385,-0.362913578749,-0.283028244972,1.55999994278,-266.559783936,23.0255889893,131.40115118027,-2.2207098007200003,-2.1929397582999997,-19.3502864838,0.352783858776,1.03847372532,15.0
2018-09-11 18:48:42.200,-0.291913524668,-0.271347813735,-0.694216089307,-0.0348664969206,-0.322220921516,-0.325449973345,1.65732385,1.02969825,13.89602305,-0.178121849895,19.3530044556,1.03450930119,-0.0348664969206,-0.322220921516,-0.325449973345,1.55999994278,-266.559783936,23.0255889893,131.40115118027,-2.2207098007200003,-2.1929397582999997,-19.3532314301,-0.0105049982667,1.05779492855,15.0
2018-09-11 18:48:42.250,-0.291913524668,-0.271347813735,-0.694216089307,-0.0348664969206,-0.322220921516,-0.325449973345,1.65732385,1.02969825,13.89602305,-0.178121849895,19.3530044556,1.03450930119,-0.0348664969206,-0.322220921516,-0.325449973345,1.45999991894,-294.127075195,24.0905609131,132.40115118027,-2.2207098007200003,-2.1929397582999997,-19.3757991791,-0.388883054256,1.06474912167,15.0
2018-09-11 18:48:42.300,-0.291913524668,-0.271347813735,-0.694216089307,-0.0348664969206,-0.322220921516,-0.325449973345,1.65732385,1.02969825,13.89602305,-0.178121849895,19.3530044556,1.03450930119,-0.0348664969206,-0.322220921516,-0.325449973345,1.45999991894,-294.127075195,24.0905609131,132.40115118027,-2.4107096195200004,-2.1829414368,-19.3754787445,-0.919554233551,1.07383465767,15.0
2018-09-11 18:48:42.350,-0.291913524668,-0.271347813735,-0.694216089307,-0.0348664969206,-0.322220921516,-0.325449973345,1.65732385,1.02969825,13.89602305,-0.178121849895,19.3530044556,1.03450930119,-0.0348664969206,-0.322220921516,-0.325449973345,1.37000000477,-294.127075195,25.1428833008,133.40115118027,-2.60070967674,-2.1829414368,-19.3720760345,-1.45825517178,1.06543278694,15.0
2018-09-11 18:48:42.400,-0.291913524668,-0.271347813735,-0.694216089307,-0.0348664969206,-0.322220921516,-0.325449973345,1.65732385,1.02969825,13.89602305,1.83131408691,19.3516845703,1.0724298954,-0.0348664969206,-0.322220921516,-0.325449973345,1.37000000477,-294.127075195,25.1428833008,133.40115118027,-2.60070967674,-2.1829414368,-19.3516845703,-1.83131408691,1.0724298954,15.0
2018-09-11 18:48:42.450,-0.31466676924,-0.249311331952,-0.638017051533,-0.0164304897189,-0.32031917572,-0.339701026678,1.22583125,1.22583125,13.07226445,1.83131408691,19.3516845703,1.0724298954,-0.0348664969206,-0.322220921516,-0.325449973345,1.37000000477,-294.127075195,25.1428833008,133.40115118027,-2.60070967674,-2.1829414368,-19.3124027252,-2.36538720131,1.07186114788,15.0
2018-09-11 18:48:42.500,-0.31466676924,-0.249311331952,-0.638017051533,-0.0164304897189,-0.32031917572,-0.339701026678,1.22583125,1.22583125,13.07226445,1.83131408691,19.3516845703,1.0724298954,-0.0348664969206,-0.322220921516,-0.325449973345,1.27999997139,-313.687896729,26.1515350342,125.46117281914,-2.4372866153699997,-2.564266204900001,-19.2736358643,-2.91728210449,1.07539916039,15.0
2018-09-11 18:48:42.550,-0.31466676924,-0.249311331952,-0.638017051533,-0.0164304897189,-0.32031917572,-0.339701026678,1.22583125,1.22583125,13.07226445,1.83131408691,19.3516845703,1.0724298954,-0.0348664969206,-0.322220921516,-0.325449973345,1.27999997139,-313.687896729,26.1515350342,125.46117281914,-2.4372866153699997,-2.564266204900001,-19.2736358643,-2.91728210449,1.07539916039,15.0
2018-09-11 18:48:42.600,-0.31466676924,-0.249311331952,-0.638017051533,-0.0164304897189,-0.32031917572,-0.339701026678,1.22583125,1.22583125,13.07226445,1.83131408691,19.3516845703,1.0724298954,-0.0348664969206,-0.322220921516,-0.325449973345,1.17999994755,-313.687896729,27.1393508911,126.46117281914,-2.64728665352,-2.5542640687000002,-19.1719341278,-3.65613293648,1.07714760303,15.0
2018-09-11 18:48:42.650,-0.31466676924,-0.249311331952,-0.638017051533,-0.0164304897189,-0.32031917572,-0.339701026678,1.22583125,1.22583125,13.07226445,3.99070525169,19.1148452759,1.06768679619,-0.0164304897189,-0.32031917572,-0.339701026678,1.17999994755,-313.687896729,27.1393508911,126.46117281914,-2.64728665352,-2.5542640687000002,-19.1719341278,-3.65613293648,1.07714760303,15.0
2018-09-11 18:48:42.700,-0.31466676924,-0.249311331952,-0.638017051533,-0.0164304897189,-0.32031917572,-0.339701026678,1.22583125,1.22583125,13.07226445,3.99070525169,19.1148452759,1.06768679619,-0.0164304897189,-0.32031917572,-0.339701026678,1.07999992371,-327.226074219,28.0488128662,127.46117281914,-2.85728657246,-2.5542640687000002,-19.0167160034,-4.53120040894,1.05638098717,15.0
2018-09-11 18:48:42.750,-0.31466676924,-0.249311331952,-0.638017051533,-0.0164304897189,-0.32031917572,-0.339701026678,1.22583125,1.22583125,13.07226445,3.99070525169,19.1148452759,1.06768679619,-0.0164304897189,-0.32031917572,-0.339701026678,1.07999992371,-327.226074219,28.0488128662,127.46117281914,-2.85728657246,-2.5542640687000002,-19.0167160034,-4.53120040894,1.05638098717,15.0
2018-09-11 18:48:42.800,-0.337383204872,-0.226116705226,-0.576060226282,-0.0241860188544,-0.332815974951,-0.329916864634,1.10815145,0.93163175,13.1605243,3.99070525169,19.1148452759,1.06768679619,-0.0164304897189,-0.32031917572,-0.339701026678,0.979999959469,-327.226074219,28.9304275513,128.46117281914,-3.05728662014,-2.544265747099999,-18.7563457489,-5.58459663391,1.04795765877,15.0
2018-09-11 18:48:42.850,-0.337383204872,-0.226116705226,-0.576060226282,-0.0241860188544,-0.332815974951,-0.329916864634,1.10815145,0.93163175,13.1605243,3.99070525169,19.1148452759,1.06768679619,-0.0164304897189,-0.32031917572,-0.339701026678,0.979999959469,-327.226074219,28.9304275513,128.46117281914,-3.05728662014,-2.544265747099999,-18.7563457489,-5.58459663391,1.04795765877,15.0
2018-09-11 18:48:42.900,-0.337383204872,-0.226116705226,-0.576060226282,-0.0241860188544,-0.332815974951,-0.329916864634,1.10815145,0.93163175,13.1605243,6.09702014923,18.6038150787,1.03589498997,-0.0241860188544,-0.332815974951,-0.329916864634,0.879999995232,-345.012664795,29.7658691406,120.4323530197,-2.913816988471,-3.1563873290999993,-18.5561237335,-6.278652668,1.0210185051,15.0
2018-09-11 18:48:42.950,-0.337383204872,-0.226116705226,-0.576060226282,-0.0241860188544,-0.332815974951,-0.329916864634,1.10815145,0.93163175,13.1605243,6.09702014923,18.6038150787,1.03589498997,-0.0241860188544,-0.332815974951,-0.329916864634,0.77999997139,-345.012664795,30.5868377686,121.4323530197,-3.1038169860869997,-3.1563873290999993,-18.3181686401,-6.98153209686,1.01093971729,15.0
2018-09-11 18:48:43.000,-0.337383204872,-0.226116705226,-0.576060226282,-0.0241860188544,-0.332815974951,-0.329916864634,1.10815145,0.93163175,13.1605243,6.09702014923,18.6038150787,1.03589498997,-0.0241860188544,-0.332815974951,-0.329916864634,0.77999997139,-345.012664795,30.5868377686,121.4323530197,-3.1038169860869997,-3.1563873290999993,-18.2561225891,-7.15845727921,1.00487649441,15.0
2018-09-11 18:48:43.050,-0.337383204872,-0.226116705226,-0.576060226282,-0.0241860188544,-0.332815974951,-0.329916864634,1.10815145,0.93163175,13.1605243,6.09702014923,18.6038150787,1.03589498997,-0.0241860188544,-0.332815974951,-0.329916864634,0.680000007153,-358.369262695,31.3770294189,122.4323530197,-3.313816964629,-3.1563873290999993,-17.9824542999,-7.86392974854,0.999183654785,15.0
2018-09-11 18:48:43.100,-0.337383204872,-0.226116705226,-0.576060226282,-0.0241860188544,-0.332815974951,-0.329916864634,1.10815145,0.93163175,13.1605243,8.20455646515,17.8442993164,0.998417258263,-0.0241860188544,-0.332815974951,-0.329916864634,0.680000007153,-358.369262695,31.3770294189,122.4323530197,-3.313816964629,-3.1563873290999993,-17.9111366272,-8.03683948517,1.0030913353,15.0
2018-09-11 18:48:43.150,-0.337383204872,-0.226116705226,-0.576060226282,-0.0241860188544,-0.332815974951,-0.329916864634,1.10815145,0.93163175,13.1605243,8.20455646515,17.8442993164,0.998417258263,-0.0241860188544,-0.332815974951,-0.329916864634,0.680000007153,-358.369262695,31.3770294189,122.4323530197,-3.313816964629,-3.1563873290999993,-17.9111366272,-8.03683948517,1.0030913353,15.0
2018-09-11 18:48:43.200,-0.337383204872,-0.226116705226,-0.576060226282,-0.0241860188544,-0.332815974951,-0.329916864634,1.10815145,0.93163175,13.1605243,8.20455646515,17.8442993164,0.998417258263,-0.0241860188544,-0.332815974951,-0.329916864634,0.579999983311,-358.369262695,32.1212921143,124.4323530197,-3.523816943172,-3.1563873290999993,-17.515296936,-8.90308380127,0.997198343277,15.0
2018-09-11 18:48:43.250,-0.360324968608,-0.191254414621,-0.500809475689,-0.0526421070099,-0.346198171377,-0.316672831774,0.93163175,1.06892485,13.42530385,8.20455646515,17.8442993164,0.998417258263,-0.0241860188544,-0.332815974951,-0.329916864634,0.489999979734,-376.821899414,32.8172683716,113.7710647583,-3.7909003198159996,-3.388206482000001,-17.2586669922,-9.41444015503,0.991712749004,15.0
2018-09-11 18:48:43.300,-0.360324968608,-0.191254414621,-0.500809475689,-0.0526421070099,-0.346198171377,-0.316672831774,0.93163175,1.06892485,13.42530385,8.20455646515,17.8442993164,0.998417258263,-0.0241860188544,-0.332815974951,-0.329916864634,0.489999979734,-376.821899414,32.8172683716,113.7710647583,-3.7909003198159996,-3.388206482000001,-17.084154129,-9.75097179413,0.987904429436,15.0
2018-09-11 18:48:43.350,-0.360324968608,-0.191254414621,-0.500809475689,-0.0526421070099,-0.346198171377,-0.316672831774,0.93163175,1.06892485,13.42530385,10.2528438568,16.7922096252,0.998555958271,-0.0526421070099,-0.346198171377,-0.316672831774,0.399999976158,-376.821899414,33.4726409912,114.7710647583,-3.9809003155693996,-3.388206482000001,-16.7922096252,-10.2528438568,0.998555958271,15.0
2018-09-11 18:48:43.400,-0.360324968608,-0.191254414621,-0.500809475689,-0.0526421070099,-0.346198171377,-0.316672831774,0.93163175,1.06892485,13.42530385,10.2528438568,16.7922096252,0.998555958271,-0.0526421070099,-0.346198171377,-0.316672831774,0.399999976158,-376.821899414,33.4726409912,114.7710647583,-3.9809003155693996,-3.3782081604,-16.3917713165,-10.8989038467,0.984869003296,15.0
2018-09-11 18:48:43.450,-0.360324968608,-0.191254414621,-0.500809475689,-0.0526421070099,-0.346198171377,-0.316672831774,0.93163175,1.06892485,13.42530385,10.2528438568,16.7922096252,0.998555958271,-0.0526421070099,-0.346198171377,-0.316672831774,0.399999976158,-376.821899414,33.4726409912,114.7710647583,-3.9809003155693996,-3.3782081604,-16.3917713165,-10.8989038467,0.984869003296,15.0
2018-09-11 18:48:43.500,-0.360324968608,-0.191254414621,-0.500809475689,-0.0526421070099,-0.346198171377,-0.316672831774,0.93163175,1.06892485,13.42530385,10.2528438568,16.7922096252,0.998555958271,-0.0526421070099,-0.346198171377,-0.316672831774,0.310000002384,-387.329467773,34.0796585083,116.7710647583,-4.190900310876,-3.3782081604,-16.0864143372,-11.3601493835,0.977106928825,15.0
2018-09-11 18:48:43.550,-0.37092012255,-0.165513699788,-0.444155724376,-0.0418046191335,-0.303687900305,-0.330106943846,0.8825985,0.9414384,13.2585908,11.9763364792,15.6554470062,0.9486515522,-0.0418046191335,-0.303687900305,-0.330106943846,0.229999989271,-387.329467773,34.6429901123,109.5070953369,-4.154705673457,-3.1591529845999986,-15.7654695511,-11.8304252625,0.95791721344,15.0
2018-09-11 18:48:43.600,-0.37092012255,-0.165513699788,-0.444155724376,-0.0418046191335,-0.303687900305,-0.330106943846,0.8825985,0.9414384,13.2585908,11.9763364792,15.6554470062,0.9486515522,-0.0418046191335,-0.303687900305,-0.330106943846,0.229999989271,-387.329467773,34.6429901123,109.5070953369,-4.154705673457,-3.1591529845999986,-15.7654695511,-11.8304252625,0.95791721344,15.0
2018-09-11 18:48:43.650,-0.37092012255,-0.165513699788,-0.444155724376,-0.0418046191335,-0.303687900305,-0.330106943846,0.8825985,0.9414384,13.2585908,11.9763364792,15.6554470062,0.9486515522,-0.0418046191335,-0.303687900305,-0.330106943846,0.140000000596,-407.168945312,35.1518325806,110.5070953369,-4.344705700875,-3.149154663099999,-15.1823921204,-12.5809316635,0.941810309887,15.0
2018-09-11 18:48:43.700,-0.37092012255,-0.165513699788,-0.444155724376,-0.0418046191335,-0.303687900305,-0.330106943846,0.8825985,0.9414384,13.2585908,11.9763364792,15.6554470062,0.9486515522,-0.0418046191335,-0.303687900305,-0.330106943846,0.140000000596,-407.168945312,35.1518325806,110.5070953369,-4.344705700875,-3.149154663099999,-14.9431781769,-12.8821125031,0.934815168381,15.0
2018-09-11 18:48:43.750,-0.37092012255,-0.165513699788,-0.444155724376,-0.0418046191335,-0.303687900305,-0.330106943846,0.8825985,0.9414384,13.2585908,11.9763364792,15.6554470062,0.9486515522,-0.0418046191335,-0.303687900305,-0.330106943846,0.0599999986589,-407.168945312,35.6282958984,112.5070953369,-4.504705667496999,-3.139152526800004,-14.5969247818,-13.2887916565,0.90266174078,15.0
2018-09-11 18:48:43.800,-0.37092012255,-0.165513699788,-0.444155724376,-0.0418046191335,-0.303687900305,-0.330106943846,0.8825985,0.9414384,13.2585908,11.9763364792,15.6554470062,0.9486515522,-0.0418046191335,-0.303687900305,-0.330106943846,0.0599999986589,-407.168945312,35.6282958984,112.5070953369,-4.504705667496999,-3.139152526800004,-14.3463611603,-13.573677063,0.881514847279,15.0
2018-09-11 18:48:43.850,-0.37092012255,-0.165513699788,-0.444155724376,-0.0418046191335,-0.303687900305,-0.330106943846,0.8825985,0.9414384,13.2585908,13.8515787125,14.0902118683,0.864267170429,-0.0418046191335,-0.303687900305,-0.330106943846,-0.00999999977648,-425.57144165,36.0616836548,113.5070953369,-4.664705693723,-3.139152526800004,-13.9713830948,-13.9797229767,0.852036297321,15.0
2018-09-11 18:48:43.900,-0.37092012255,-0.165513699788,-0.444155724376,-0.0418046191335,-0.303687900305,-0.330106943846,0.8825985,0.9414384,13.2585908,13.8515787125,14.0902118683,0.864267170429,-0.0418046191335,-0.303687900305,-0.330106943846,-0.00999999977648,-425.57144165,36.0616836548,113.5070953369,-4.664705693723,-3.139152526800004,-13.7316379547,-14.22838974,0.825104355812,15.0
2018-09-11 18:48:43.950,-0.37092012255,-0.165513699788,-0.444155724376,-0.0418046191335,-0.303687900305,-0.330106943846,0.8825985,0.9414384,13.2585908,13.8515787125,14.0902118683,0.864267170429,-0.0418046191335,-0.303687900305,-0.330106943846,-0.0799999982119,-425.57144165,36.4660720825,114.5070953369,-4.78470563889,-3.129154205299997,-13.3390712738,-14.6003875732,0.808343410492,15.0
2018-09-11 18:48:44.000,-0.379531959956,-0.132046399485,-0.364557527585,-0.0671457648277,-0.299638241529,-0.318446606398,0.79433865,0.75511205,13.09187775,13.8515787125,14.0902118683,0.864267170429,-0.0418046191335,-0.303687900305,-0.330106943846,-0.0799999982119,-425.57144165,36.4660720825,103.5426063538,-4.19607806206,-2.6177406310999984,-13.0826444626,-14.843047142,0.77821457386,15.0
2018-09-11 18:48:44.050,-0.379531959956,-0.132046399485,-0.364557527585,-0.0671457648277,-0.299638241529,-0.318446606398,0.79433865,0.75511205,13.09187775,13.8515787125,14.0902118683,0.864267170429,-0.0418046191335,-0.303687900305,-0.330106943846,-0.0799999982119,-425.57144165,36.4660720825,103.5426063538,-4.19607806206,-2.6177406310999984,-13.0826444626,-14.843047142,0.77821457386,15.0
2018-09-11 18:48:44.100,-0.379531959956,-0.132046399485,-0.364557527585,-0.0671457648277,-0.299638241529,-0.318446606398,0.79433865,0.75511205,13.09187775,15.3217477798,12.5429096222,0.731656610966,-0.0671457648277,-0.299638241529,-0.318446606398,-0.149999991059,-442.28704834,36.8098983765,105.5426063538,-4.33607804775,-2.607738494900005,-12.277762413,-15.5469722748,0.711675703526,15.0
2018-09-11 18:48:44.150,-0.379531959956,-0.132046399485,-0.364557527585,-0.0671457648277,-0.299638241529,-0.318446606398,0.79433865,0.75511205,13.09187775,15.3217477798,12.5429096222,0.731656610966,-0.0671457648277,-0.299638241529,-0.318446606398,-0.149999991059,-442.28704834,36.8098983765,105.5426063538,-4.33607804775,-2.607738494900005,-12.277762413,-15.5469722748,0.711675703526,15.0
2018-09-11 18:48:44.200,-0.379531959956,-0.132046399485,-0.364557527585,-0.0671457648277,-0.299638241529,-0.318446606398,0.79433865,0.75511205,13.09187775,15.3217477798,12.5429096222,0.731656610966,-0.0671457648277,-0.299638241529,-0.318446606398,-0.209999993443,-442.28704834,37.1260604858,106.5426063538,-4.44607806206,-2.607738494900005,-11.7167768478,-15.9877958298,0.681995749474,15.0
2018-09-11 18:48:44.250,-0.379531959956,-0.132046399485,-0.364557527585,-0.0671457648277,-0.299638241529,-0.318446606398,0.79433865,0.75511205,13.09187775,15.3217477798,12.5429096222,0.731656610966,-0.0671457648277,-0.299638241529,-0.318446606398,-0.259999990463,-454.249389648,37.3954162598,108.5426063538,-4.55607807636,-2.5977401733000036,-11.1412715912,-16.4102859497,0.665665209293,15.0
2018-09-11 18:48:44.300,-0.379531959956,-0.132046399485,-0.364557527585,-0.0671457648277,-0.299638241529,-0.318446606398,0.79433865,0.75511205,13.09187775,15.3217477798,12.5429096222,0.731656610966,-0.0671457648277,-0.299638241529,-0.318446606398,-0.259999990463,-454.249389648,37.3954162598,108.5426063538,-4.55607807636,-2.5977401733000036,-10.9945659637,-16.5127696991,0.663155019283,15.0
2018-09-11 18:48:44.350,-0.379531959956,-0.132046399485,-0.364557527585,-0.0671457648277,-0.299638241529,-0.318446606398,0.79433865,0.75511205,13.09187775,16.8139133453,10.5528421402,0.637344300747,-0.0671457648277,-0.299638241529,-0.318446606398,-0.259999990463,-454.249389648,37.3954162598,108.5426063538,-4.55607807636,-2.5977401733000036,-10.9945659637,-16.5127696991,0.663155019283,15.0
2018-09-11 18:48:44.400,-0.379531959956,-0.132046399485,-0.364557527585,-0.0671457648277,-0.299638241529,-0.318446606398,0.79433865,0.75511205,13.09187775,16.8139133453,10.5528421402,0.637344300747,-0.0671457648277,-0.299638241529,-0.318446606398,-0.319999992847,-454.249389648,37.6373291016,109.5426063538,-4.67607808113,-2.587741851800004,-10.2608222961,-16.9984664917,0.607296347618,15.0
2018-09-11 18:48:44.450,-0.387480035791,-0.0953006331885,-0.26946722372,0.0378199219704,-0.298922181129,-0.327001184225,0.4118793,0.83356525,12.5721253,16.8139133453,10.5528421402,0.637344300747,-0.0671457648277,-0.299638241529,-0.318446606398,-0.319999992847,-454.249389648,37.6373291016,109.5426063538,-4.67607808113,-2.587741851800004,-10.2608222961,-16.9984664917,0.607296347618,15.0
2018-09-11 18:48:44.500,-0.387480035791,-0.0953006331885,-0.26946722372,0.0378199219704,-0.298922181129,-0.327001184225,0.4118793,0.83356525,12.5721253,16.8139133453,10.5528421402,0.637344300747,-0.0671457648277,-0.299638241529,-0.318446606398,-0.359999984503,-471.351806641,37.8283309937,98.13957214359999,-3.99416351318,-2.2581596375000004,-9.50074005127,-17.4521446228,0.511891007423,15.0
2018-09-11 18:48:44.550,-0.387480035791,-0.0953006331885,-0.26946722372,0.0378199219704,-0.298922181129,-0.327001184225,0.4118793,0.83356525,12.5721253,17.6931991577,9.06229972839,0.448698163033,0.0378199219704,-0.298922181129,-0.327001184225,-0.399999976158,-471.351806641,37.9842681885,100.13957214359999,-4.01416361332,-2.2581596375000004,-9.06229972839,-17.6931991577,0.448698163033,15.0
2018-09-11 18:48:44.600,-0.387480035791,-0.0953006331885,-0.26946722372,0.0378199219704,-0.298922181129,-0.327001184225,0.4118793,0.83356525,12.5721253,17.6931991577,9.06229972839,0.448698163033,0.0378199219704,-0.298922181129,-0.327001184225,-0.399999976158,-471.351806641,37.9842681885,100.13957214359999,-4.01416361332,-2.2581596375000004,-8.76031780243,-17.8512306213,0.39552885294,15.0
2018-09-11 18:48:44.650,-0.387480035791,-0.0953006331885,-0.26946722372,0.0378199219704,-0.298922181129,-0.327001184225,0.4118793,0.83356525,12.5721253,17.6931991577,9.06229972839,0.448698163033,0.0378199219704,-0.298922181129,-0.327001184225,-0.439999997616,-479.350860596,38.103012085,101.13957214359999,-4.01416361332,-2.2581596375000004,-8.45402812958,-18.0041046143,0.348363280296,15.0
2018-09-11 18:48:44.700,-0.387480035791,-0.0953006331885,-0.26946722372,0.0378199219704,-0.298922181129,-0.327001184225,0.4118793,0.83356525,12.5721253,17.6931991577,9.06229972839,0.448698163033,0.0378199219704,-0.298922181129,-0.327001184225,-0.439999997616,-479.350860596,38.103012085,101.13957214359999,-4.01416361332,-2.2581596375000004,-7.82009744644,-18.3051548004,0.2683416605,15.0
2018-09-11 18:48:44.750,-0.395151817913,-0.0711106206097,-0.204836377312,-0.0717221796513,-0.314542979002,-0.311718016863,0.3530394,0.9022118,12.48386545,17.6931991577,9.06229972839,0.448698163033,0.0378199219704,-0.298922181129,-0.327001184225,-0.469999998808,-479.350860596,38.1874160767,102.13957214359999,-4.02416360378,-2.2581596375000004,-7.67388629913,-18.3696670532,0.250365555286,15.0
2018-09-11 18:48:44.800,-0.395151817913,-0.0711106206097,-0.204836377312,-0.0717221796513,-0.314542979002,-0.311718016863,0.3530394,0.9022118,12.48386545,18.587348938,7.17725276947,0.208294972777,-0.0717221796513,-0.314542979002,-0.311718016863,-0.469999998808,-479.350860596,38.1874160767,95.9706954956,-3.6516247987800003,-2.571643829300001,-7.17725276947,-18.587348938,0.208294972777,15.0
2018-09-11 18:48:44.850,-0.395151817913,-0.0711106206097,-0.204836377312,-0.0717221796513,-0.314542979002,-0.311718016863,0.3530394,0.9022118,12.48386545,18.587348938,7.17725276947,0.208294972777,-0.0717221796513,-0.314542979002,-0.311718016863,-0.489999979734,-493.070037842,38.2265014648,95.9706954956,-3.6516247987800003,-2.571643829300001,-6.70009899139,-18.7831993103,0.169174253941,15.0
2018-09-11 18:48:44.900,-0.395151817913,-0.0711106206097,-0.204836377312,-0.0717221796513,-0.314542979002,-0.311718016863,0.3530394,0.9022118,12.48386545,18.587348938,7.17725276947,0.208294972777,-0.0717221796513,-0.314542979002,-0.311718016863,-0.489999979734,-493.070037842,38.2265014648,95.9706954956,-3.6616247892400002,-2.571643829300001,-6.53913354874,-18.8426628113,0.161439448595,15.0
2018-09-11 18:48:44.950,-0.395151817913,-0.0711106206097,-0.204836377312,-0.0717221796513,-0.314542979002,-0.311718016863,0.3530394,0.9022118,12.48386545,18.587348938,7.17725276947,0.208294972777,-0.0717221796513,-0.314542979002,-0.311718016863,-0.509999990463,-493.070037842,38.2390899658,96.9706954956,-3.70162475109,-2.571643829300001,-5.91035461426,-19.0763072968,0.110786236823,15.0
2018-09-11 18:48:45.000,-0.395151817913,-0.0711106206097,-0.204836377312,-0.0717221796513,-0.314542979002,-0.311718016863,0.3530394,0.9022118,12.48386545,18.587348938,7.17725276947,0.208294972777,-0.0717221796513,-0.314542979002,-0.311718016863,-0.509999990463,-493.070037842,38.2390899658,96.9706954956,-3.70162475109,-2.5616416931000003,-5.59616184235,-19.1799983978,0.0796546787024,15.0
2018-09-11 18:48:45.050,-0.395151817913,-0.0711106206097,-0.204836377312,-0.0717221796513,-0.314542979002,-0.311718016863,0.3530394,0.9022118,12.48386545,19.3312397003,5.12293577194,0.0292488280684,-0.0717221796513,-0.314542979002,-0.311718016863,-0.519999980927,-507.220825195,38.217338562,98.9706954956,-3.69162476063,-2.5616416931000003,-5.28048706055,-19.2812976837,0.0467618778348,15.0
2018-09-11 18:48:45.100,-0.391240726907,-0.0450136526935,-0.134247102301,-0.0501559078693,-0.297345012426,-0.365527302027,0.38245935,0.91201845,12.4740588,19.3312397003,5.12293577194,0.0292488280684,-0.0717221796513,-0.314542979002,-0.311718016863,-0.519999980927,-507.220825195,38.217338562,98.9706954956,-3.69162476063,-2.5616416931000003,-4.95476865768,-19.3781223297,0.0212148018181,15.0
2018-09-11 18:48:45.150,-0.391240726907,-0.0450136526935,-0.134247102301,-0.0501559078693,-0.297345012426,-0.365527302027,0.38245935,0.91201845,12.4740588,19.3312397003,5.12293577194,0.0292488280684,-0.0717221796513,-0.314542979002,-0.311718016863,-0.52999997139,-507.220825195,38.154624939,91.2272262573,-2.98830854893,-1.6103401184000035,-4.26973342896,-19.572681427,-0.0146483648568,15.0
2018-09-11 18:48:45.200,-0.391240726907,-0.0450136526935,-0.134247102301,-0.0501559078693,-0.297345012426,-0.365527302027,0.38245935,0.91201845,12.4740588,19.3312397003,5.12293577194,0.0292488280684,-0.0717221796513,-0.314542979002,-0.311718016863,-0.52999997139,-507.220825195,38.154624939,91.2272262573,-2.98830854893,-1.6103401184000035,-4.08748006821,-19.6201610565,-0.0146721061319,15.0
2018-09-11 18:48:45.250,-0.391240726907,-0.0450136526935,-0.134247102301,-0.0501559078693,-0.297345012426,-0.365527302027,0.38245935,0.91201845,12.4740588,19.3312397003,5.12293577194,0.0292488280684,-0.0717221796513,-0.314542979002,-0.311718016863,-0.509999990463,-509.838104248,38.060043335,92.2272262573,-2.94830858708,-1.6103401184000035,-3.36439800262,-19.7931137085,-0.0166290327907,15.0
2018-09-11 18:48:45.300,-0.391240726907,-0.0450136526935,-0.134247102301,-0.0501559078693,-0.297345012426,-0.365527302027,0.38245935,0.91201845,12.4740588,19.8681983948,3.0026538372,-0.0137665672228,-0.0501559078693,-0.297345012426,-0.365527302027,-0.509999990463,-509.838104248,38.060043335,92.2272262573,-2.94830858708,-1.6103401184000035,-3.0026538372,-19.8681983948,-0.0137665672228,15.0
2018-09-11 18:48:45.350,-0.391240726907,-0.0450136526935,-0.134247102301,-0.0501559078693,-0.297345012426,-0.365527302027,0.38245935,0.91201845,12.4740588,19.8681983948,3.0026538372,-0.0137665672228,-0.0501559078693,-0.297345012426,-0.365527302027,-0.489999979734,-509.838104248,37.923614502,94.2272262573,-2.90830850602,-1.6103401184000035,-2.44531345367,-19.9692325592,0.00768711138517,15.0
2018-09-11 18:48:45.400,-0.391240726907,-0.0450136526935,-0.134247102301,-0.0501559078693,-0.297345012426,-0.365527302027,0.38245935,0.91201845,12.4740588,19.8681983948,3.0026538372,-0.0137665672228,-0.0501559078693,-0.297345012426,-0.365527302027,-0.489999979734,-509.838104248,37.923614502,94.2272262573,-2.90830850602,-1.6103401184000035,-2.25521683693,-19.9995212555,0.012456253171,15.0
