%time,field.orientation.x,field.orientation.y,field.orientation.z,field.angular_velocity.x,field.angular_velocity.y,field.angular_velocity.z,field.linear_acceleration.x,field.linear_acceleration.y,field.linear_acceleration.z,field.twist.linear.x,field.twist.linear.y,field.twist.linear.z,field.twist.angular.x,field.twist.angular.y,field.twist.angular.z,field.alt_error,field.aspd_error,field.xtrack_error,delta_yaw,delta_pitch,delta_roll,delta_x,delta_y,delta_z,delta_roll_airspeed
2018-07-21 01:05:25.050,,,,,,,,,,21.3981399536,14.2055568695,1.7093654871,0.130147561431,-0.435943514109,0.20942287147,-0.5,-897.40045166,-36.0112304688,-189.7900466919,2.5880250930800006,93.7500152587,-27.555492401099997,-30.30620670318,2.363749027249998,-8.9740047455
2018-07-21 01:05:25.100,,,,,,,,,,21.3981399536,14.2055568695,1.7093654871,0.130147561431,-0.435943514109,0.20942287147,-0.5,-897.40045166,-36.0112304688,-189.7900466919,2.31802511216,93.4400177002,-27.8599367142,-29.63418674468,3.4640569686899982,-8.9740047455
2018-07-21 01:05:25.150,,,,,,,,,,21.3981399536,14.2055568695,1.7093654871,0.130147561431,-0.435943514109,0.20942287147,-0.829999983311,-914.201538086,-33.5357093811,-190.7900466919,3.62802505494,93.4700164794,-27.8935642242,-29.48482799528,3.719036579129998,-9.1420154572
2018-07-21 01:05:25.200,,,,,,,,,,19.4778518677,14.8614454269,4.90411996841,0.130147561431,-0.435943514109,0.20942287147,-0.829999983311,-914.201538086,-33.5357093811,-190.7900466919,3.61802482605,93.2900161743,-21.862177848770003,-34.2091779709,4.303529739379999,-9.1420154572
2018-07-21 01:05:25.250,,,,,,,,,,19.4778518677,14.8614454269,4.90411996841,0.130147561431,-0.435943514109,0.20942287147,-1.31999993324,-928.78515625,56.575138092,-149.7900466919,3.7580251693799998,6.070018768300002,-21.65208721157,-33.634560585,5.417090415949999,-8.287851333599999
2018-07-21 01:05:25.300,,,,,,,,,,19.4778518677,14.8614454269,4.90411996841,0.130147561431,-0.435943514109,0.20942287147,-1.31999993324,-928.78515625,56.575138092,-137.28668975829999,-10.51467609405,-45.15778732302,-21.31738185887,-33.1591825485,6.242279529569999,-8.1476840973
2018-07-21 01:05:25.350,-0.0552263483152,0.122385409768,-0.28958449412,1.49052727222,-0.466057986021,0.305598318577,-0.392266,0.85317855,22.09438245,19.4778518677,14.8614454269,4.90411996841,0.130147561431,-0.435943514109,0.20942287147,-1.97999989986,-814.768432617,56.0734558105,-138.28668975829999,-11.024676322929999,-44.91778945922,-21.31738185887,-33.1591825485,6.242279529569999,-8.1476840973
2018-07-21 01:05:25.400,-0.0552263483152,0.122385409768,-0.28958449412,1.49052727222,-0.466057986021,0.305598318577,-0.392266,0.85317855,22.09438245,18.222038269,14.0106334686,6.87817525864,1.49052727222,-0.466057986021,0.305598318577,-1.97999989986,-814.768432617,56.0734558105,-138.28668975829999,-11.09467601775,-44.59778976442,-20.928963661170002,-32.648982048,6.878175258639999,-8.1476840973
2018-07-21 01:05:25.450,-0.0552263483152,0.122385409768,-0.28958449412,1.49052727222,-0.466057986021,0.305598318577,-0.392266,0.85317855,22.09438245,18.222038269,14.0106334686,6.87817525864,1.49052727222,-0.466057986021,0.305598318577,-2.76999998093,-792.278076172,55.6064147949,-138.28668975829999,-12.52467608451,-44.42778778072,-20.75442218777,-32.395447731,7.104361534119999,-7.9227809906
2018-07-21 01:05:25.500,-0.0552263483152,0.122385409768,-0.28958449412,1.49052727222,-0.466057986021,0.305598318577,-0.392266,0.85317855,22.09438245,18.222038269,14.0106334686,6.87817525864,1.49052727222,-0.466057986021,0.305598318577,-3.63999986649,-771.004516602,55.1740188599,-139.28668975829999,-13.99467611312,-44.14778900142,-20.674606323269998,-32.2553701401,7.234256267549999,-7.9227809906
2018-07-21 01:05:25.550,-0.0552263483152,0.122385409768,-0.28958449412,1.49052727222,-0.466057986021,0.305598318577,-0.392266,0.85317855,22.09438245,18.222038269,14.0106334686,6.87817525864,1.49052727222,-0.466057986021,0.305598318577,-3.63999986649,-771.004516602,55.1740188599,-139.28668975829999,-13.99467611312,-44.14778900142,-20.442468643170002,-31.844807624799998,7.573561668399999,-7.7100448608
2018-07-21 01:05:25.600,-0.0552263483152,0.122385409768,-0.28958449412,1.49052727222,-0.466057986021,0.305598318577,-0.392266,0.85317855,22.09438245,18.222038269,14.0106334686,6.87817525864,1.49052727222,-0.466057986021,0.305598318577,-3.63999986649,-771.004516602,55.1740188599,-139.28668975829999,-13.98467612266,-44.00778961182,-20.24010562897,-31.401476860099997,7.864007472989999,-7.7100448608
2018-07-21 01:05:25.650,0.0044816216382,0.197426140542,-0.286696320038,-0.698858141899,-0.0731593519449,-0.225516721606,-1.24544455,0.87279185,15.0237878,16.5412635803,13.1167755127,8.11990737915,1.49052727222,-0.466057986021,0.305598318577,-4.57999992371,-743.097106934,54.7625617981,-140.28668975829999,-15.434676051132,-43.88778686522,-20.03510570527,-30.968207359300003,8.11990737915,-7.430971145600001
2018-07-21 01:05:25.700,0.0044816216382,0.197426140542,-0.286696320038,-0.698858141899,-0.0731593519449,-0.225516721606,-1.24544455,0.87279185,15.0237878,16.5412635803,13.1167755127,8.11990737915,1.49052727222,-0.466057986021,0.305598318577,-4.57999992371,-743.097106934,54.7625617981,-138.556968689,-21.686669461418,-34.256506443060005,-19.87427234647,-30.5369234085,8.31342220306,-7.430971145600001
2018-07-21 01:05:25.750,0.0044816216382,0.197426140542,-0.286696320038,-0.698858141899,-0.0731593519449,-0.225516721606,-1.24544455,0.87279185,15.0237878,16.5412635803,13.1167755127,8.11990737915,1.49052727222,-0.466057986021,0.305598318577,-5.56999969482,-713.54296875,54.3419456482,-139.556968689,-23.17666947841,-34.18650674816,-19.785220146169998,-30.2652187347,8.4160861969,-7.1354293823
2018-07-21 01:05:25.800,0.0044816216382,0.197426140542,-0.286696320038,-0.698858141899,-0.0731593519449,-0.225516721606,-1.24544455,0.87279185,15.0237878,16.5412635803,13.1167755127,8.11990737915,1.49052727222,-0.466057986021,0.305598318577,-5.56999969482,-713.54296875,54.3419456482,-139.556968689,-23.16666936873,-34.11650323866,-19.67291259767,-29.985833168,8.50221157074,-7.1354293823
2018-07-21 01:05:25.850,0.0044816216382,0.197426140542,-0.286696320038,-0.698858141899,-0.0731593519449,-0.225516721606,-1.24544455,0.87279185,15.0237878,15.076921463,12.5458679199,8.52148151398,-0.698858141899,-0.0731593519449,-0.225516721606,-6.57999992371,-671.997436523,53.9322280884,-139.556968689,-24.676669359199998,-34.026506900760005,-19.46419811247,-29.503865242,8.52148151398,-6.719974517800001
2018-07-21 01:05:25.900,0.0044816216382,0.197426140542,-0.286696320038,-0.698858141899,-0.0731593519449,-0.225516721606,-1.24544455,0.87279185,15.0237878,15.076921463,12.5458679199,8.52148151398,-0.698858141899,-0.0731593519449,-0.225516721606,-6.57999992371,-671.997436523,53.9322280884,-139.556968689,-24.676669359199998,-33.98650598526,-19.46419811247,-29.503865242,8.52148151398,-6.719974517800001
2018-07-21 01:05:25.950,0.0044816216382,0.197426140542,-0.286696320038,-0.698858141899,-0.0731593519449,-0.225516721606,-1.24544455,0.87279185,15.0237878,15.076921463,12.5458679199,8.52148151398,-0.698858141899,-0.0731593519449,-0.225516721606,-7.58999967575,-608.538635254,53.5133476257,-140.556968689,-26.236669540389997,-33.95650339126,-19.33586692807,-29.1897125244,8.45847892761,-6.085386276200001
2018-07-21 01:05:26.000,0.0411936340457,0.217565057113,-0.249905830662,-0.183669865131,-0.00365143781528,-0.0689818263054,-1.24544455,1.1361159676099999e-15,9.2770909,15.076921463,12.5458679199,8.52148151398,-0.698858141899,-0.0731593519449,-0.225516721606,-8.59000015259,-545.853210449,53.0835113525,-144.9267234802,-27.59770965579,-29.743237495400003,-19.253499984770002,-28.9846763611,8.40383529663,-6.085386276200001
2018-07-21 01:05:26.050,0.0411936340457,0.217565057113,-0.249905830662,-0.183669865131,-0.00365143781528,-0.0689818263054,-1.24544455,1.1361159676099999e-15,9.2770909,15.076921463,12.5458679199,8.52148151398,-0.698858141899,-0.0731593519449,-0.225516721606,-8.59000015259,-545.853210449,53.0835113525,-144.9267234802,-27.59770965579,-29.743237495400003,-19.126745223969998,-28.655972480800003,8.33671188354,-5.458532333400001
2018-07-21 01:05:26.100,0.0411936340457,0.217565057113,-0.249905830662,-0.183669865131,-0.00365143781528,-0.0689818263054,-1.24544455,1.1361159676099999e-15,9.2770909,13.8109664917,12.0659599304,8.21761894226,-0.183669865131,-0.00365143781528,-0.0689818263054,-8.59000015259,-545.853210449,53.0835113525,-144.9267234802,-29.21770954135,-29.743237495400003,-19.01815986637,-28.3423957825,8.24992752075,-5.458532333400001
2018-07-21 01:05:26.150,0.0411936340457,0.217565057113,-0.249905830662,-0.183669865131,-0.00365143781528,-0.0689818263054,-1.24544455,1.1361159676099999e-15,9.2770909,13.8109664917,12.0659599304,8.21761894226,-0.183669865131,-0.00365143781528,-0.0689818263054,-9.55999946594,-491.02935791,52.6645774841,-144.9267234802,-30.89770936969,-29.843239784300003,-18.92352867127,-28.0349693298,8.15463447571,-4.910293579099999
2018-07-21 01:05:26.200,0.0411936340457,0.217565057113,-0.249905830662,-0.183669865131,-0.00365143781528,-0.0689818263054,-1.24544455,1.1361159676099999e-15,9.2770909,13.8109664917,12.0659599304,8.21761894226,-0.183669865131,-0.00365143781528,-0.0689818263054,-9.55999946594,-491.02935791,52.6645774841,-144.9267234802,-30.89770936969,-29.843239784300003,-18.88885593417,-27.9287176132,8.11897373199,-4.910293579099999
2018-07-21 01:05:26.250,0.0411936340457,0.217565057113,-0.249905830662,-0.183669865131,-0.00365143781528,-0.0689818263054,-1.24544455,1.1361159676099999e-15,9.2770909,13.8109664917,12.0659599304,8.21761894226,-0.183669865131,-0.00365143781528,-0.0689818263054,-10.5,-440.949066162,52.2209854126,-145.9267234802,-32.61770915988,-30.0632371903,-18.71640014647,-27.4486494064,7.894943714139999,-4.409490585299999
2018-07-21 01:05:26.300,0.0411936340457,0.217565057113,-0.249905830662,-0.183669865131,-0.00365143781528,-0.0689818263054,-1.24544455,1.1361159676099999e-15,9.2770909,13.8109664917,12.0659599304,8.21761894226,-0.183669865131,-0.00365143781528,-0.0689818263054,-10.5,-440.949066162,52.2209854126,-145.9267234802,-32.61770915988,-30.0632371903,-18.71640014647,-27.4486494064,7.894943714139999,-4.409490585299999
2018-07-21 01:05:26.350,0.0703175802399,0.211158040694,-0.264014333254,-0.242753878236,0.136015295982,0.249573081732,-1.2160246,-0.7649187,7.9237732,12.7662467957,11.7236099243,7.71747732162,-0.183669865131,-0.00365143781528,-0.0689818263054,-11.4099998474,-385.088745117,51.7691574097,-145.9267234802,-33.3777093888,-30.243237495400003,-18.64194011687,-27.1931905747,7.717477321619999,-3.8508872986
2018-07-21 01:05:26.400,0.0703175802399,0.211158040694,-0.264014333254,-0.242753878236,0.136015295982,0.249573081732,-1.2160246,-0.7649187,7.9237732,12.7662467957,11.7236099243,7.71747732162,-0.183669865131,-0.00365143781528,-0.0689818263054,-11.4099998474,-385.088745117,51.7691574097,-143.7496643066,-31.481678962700002,-27.0468101501,-18.57514095307,-26.8610391617,7.414345741269999,-3.8508872986
2018-07-21 01:05:26.450,0.0703175802399,0.211158040694,-0.264014333254,-0.242753878236,0.136015295982,0.249573081732,-1.2160246,-0.7649187,7.9237732,12.7662467957,11.7236099243,7.71747732162,-0.183669865131,-0.00365143781528,-0.0689818263054,-12.279999733,-319.892120361,51.2990531921,-144.7496643066,-33.3416795731,-27.2568092346,-18.57514095307,-26.8610391617,7.414345741269999,-3.8508872986
2018-07-21 01:05:26.500,0.0703175802399,0.211158040694,-0.264014333254,-0.242753878236,0.136015295982,0.249573081732,-1.2160246,-0.7649187,7.9237732,12.7662467957,11.7236099243,7.71747732162,-0.183669865131,-0.00365143781528,-0.0689818263054,-13.0999994278,-260.58026123,50.8243637085,-145.7496643066,-33.3316793442,-27.4068107605,-18.49700736997,-26.4930038452,6.9828438758899996,-2.605802535999999
2018-07-21 01:05:26.550,0.0703175802399,0.211158040694,-0.264014333254,-0.242753878236,0.136015295982,0.249573081732,-1.2160246,-0.7649187,7.9237732,12.7662467957,11.7236099243,7.71747732162,-0.183669865131,-0.00365143781528,-0.0689818263054,-13.0999994278,-260.58026123,50.8243637085,-145.7496643066,-35.2716789246,-27.616809845,-18.48005294797,-26.2734260559,6.717901229859999,-2.605802535999999
2018-07-21 01:05:26.600,0.0703175802399,0.211158040694,-0.264014333254,-0.242753878236,0.136015295982,0.249573081732,-1.2160246,-0.7649187,7.9237732,11.7683143616,11.5493488312,6.63672399521,-0.242753878236,0.136015295982,0.249573081732,-13.8699998856,-199.161911011,50.3250198364,-145.7496643066,-37.2916793823,-27.836811065699997,-18.48005294797,-26.2734260559,6.717901229859999,-2.605802535999999
2018-07-21 01:05:26.650,0.0703175802399,0.211158040694,-0.264014333254,-0.242753878236,0.136015295982,0.249573081732,-1.2160246,-0.7649187,7.9237732,11.7683143616,11.5493488312,6.63672399521,-0.242753878236,0.136015295982,0.249573081732,-13.8699998856,-199.161911011,50.3250198364,-145.7496643066,-37.281679153400006,-27.9868125916,-18.457380294769997,-25.9793920517,6.363623619079999,-1.9916191101000003
2018-07-21 01:05:26.700,0.0703175802399,0.211158040694,-0.264014333254,-0.242753878236,0.136015295982,0.249573081732,-1.2160246,-0.7649187,7.9237732,11.7683143616,11.5493488312,6.63672399521,-0.242753878236,0.136015295982,0.249573081732,-13.8699998856,-199.161911011,50.3250198364,-145.7496643066,-37.281679153400006,-28.1368103027,-18.44431781767,-25.7816743851,6.075503826139999,-1.4203796386999983
2018-07-21 01:05:26.750,0.126141269759,0.188153961584,-0.298009518854,-0.0787045583129,0.232131257653,0.24552680552,-1.0002783,-0.16671305,5.87418335,11.7683143616,11.5493488312,6.63672399521,-0.242753878236,0.136015295982,0.249573081732,-14.5799999237,-142.037963867,49.8046684265,-142.3917236328,-34.2284908295,-22.3302021026,-18.44261455537,-25.666037559499998,5.856179237369999,-1.4203796386999983
2018-07-21 01:05:26.800,0.126141269759,0.188153961584,-0.298009518854,-0.0787045583129,0.232131257653,0.24552680552,-1.0002783,-0.16671305,5.87418335,11.0755643845,11.5074491501,5.49662256241,-0.0787045583129,0.232131257653,0.24552680552,-14.5799999237,-142.037963867,49.8046684265,-142.3917236328,-34.2284908295,-22.480203628500004,-18.425779342669998,-25.5025081635,5.496622562409999,-1.4203796386999983
2018-07-21 01:05:26.850,0.126141269759,0.188153961584,-0.298009518854,-0.0787045583129,0.232131257653,0.24552680552,-1.0002783,-0.16671305,5.87418335,11.0755643845,11.5074491501,5.49662256241,-0.0787045583129,0.232131257653,0.24552680552,-15.2299995422,-90.3167724609,49.2760810852,-142.3917236328,-36.3984909058,-22.7902011871,-18.42560672757,-25.35592556,5.118738651279999,-0.9031677245999994
2018-07-21 01:05:26.900,0.126141269759,0.188153961584,-0.298009518854,-0.0787045583129,0.232131257653,0.24552680552,-1.0002783,-0.16671305,5.87418335,11.0755643845,11.5074491501,5.49662256241,-0.0787045583129,0.232131257653,0.24552680552,-15.2299995422,-90.3167724609,49.2760810852,-142.3917236328,-36.3984909058,-22.7902011871,-18.42560672757,-25.35592556,5.118738651279999,-0.9031677245999994
2018-07-21 01:05:26.950,0.126141269759,0.188153961584,-0.298009518854,-0.0787045583129,0.232131257653,0.24552680552,-1.0002783,-0.16671305,5.87418335,11.0755643845,11.5074491501,5.49662256241,-0.0787045583129,0.232131257653,0.24552680552,-15.8099994659,-45.3386306763,48.7228393555,-143.3917236328,-38.6584892273,-23.140203475899998,-18.42607784267,-25.204842567500002,4.756314277649999,-0.4533863067999988
2018-07-21 01:05:27.000,0.126141269759,0.188153961584,-0.298009518854,-0.0787045583129,0.232131257653,0.24552680552,-1.0002783,-0.16671305,5.87418335,11.0755643845,11.5074491501,5.49662256241,-0.0787045583129,0.232131257653,0.24552680552,-16.3199996948,5.49488067627,48.1632156372,-143.3917236328,-38.5984897614,-23.2702045441,-18.437851905869998,-25.1111888886,4.4892458915699995,-0.4533863067999988
2018-07-21 01:05:27.050,0.126141269759,0.188153961584,-0.298009518854,-0.0787045583129,0.232131257653,0.24552680552,-1.0002783,-0.16671305,5.87418335,10.5502519608,11.5316724777,4.06411314011,-0.0787045583129,0.232131257653,0.24552680552,-16.3199996948,5.49488067627,48.1632156372,-143.3917236328,-38.4984893799,-23.380201339699997,-18.45848655697,-24.932919502300003,3.927625179289999,0.05494880680000058
2018-07-21 01:05:27.100,0.126141269759,0.188153961584,-0.298009518854,-0.0787045583129,0.232131257653,0.24552680552,-1.0002783,-0.16671305,5.87418335,10.5502519608,11.5316724777,4.06411314011,-0.0787045583129,0.232131257653,0.24552680552,-16.3199996948,5.49488067627,48.1632156372,-143.3917236328,-38.4984893799,-23.380201339699997,-18.45848655697,-24.932919502300003,3.927625179289999,0.05494880680000058
2018-07-21 01:05:27.150,0.198289790754,0.133104788607,-0.330955645096,-0.277949184179,0.318781763315,0.216195806861,-0.9022118,-0.02941995,3.8245935,10.5502519608,11.5316724777,4.06411314011,-0.0787045583129,0.232131257653,0.24552680552,-16.75,59.0836524963,47.5816574097,-144.3917236328,-38.188489914,-23.610204696599997,-18.50117683407,-24.7188444138,3.2456889152499993,0.5908365250000003
2018-07-21 01:05:27.200,0.198289790754,0.133104788607,-0.330955645096,-0.277949184179,0.318781763315,0.216195806861,-0.9022118,-0.02941995,3.8245935,10.5502519608,11.5316724777,4.06411314011,-0.0787045583129,0.232131257653,0.24552680552,-16.75,59.0836524963,47.5816574097,-144.3917236328,-38.188489914,-23.610204696599997,-18.50117683407,-24.7188444138,3.2456889152499993,0.5908365250000003
2018-07-21 01:05:27.250,0.198289790754,0.133104788607,-0.330955645096,-0.277949184179,0.318781763315,0.216195806861,-0.9022118,-0.02941995,3.8245935,10.0625600815,11.6307430267,2.35353040695,-0.277949184179,0.318781763315,0.216195806861,-17.109998703,105.567550659,47.0000991821,-141.608089447,-28.38788890843,-17.9343204498,-18.53738975527,-24.527169227599998,2.4998183250399992,1.0556755066
2018-07-21 01:05:27.300,0.198289790754,0.133104788607,-0.330955645096,-0.277949184179,0.318781763315,0.216195806861,-0.9022118,-0.02941995,3.8245935,10.0625600815,11.6307430267,2.35353040695,-0.277949184179,0.318781763315,0.216195806861,-17.109998703,105.567550659,47.0000991821,-141.608089447,-28.27788829803,-17.974321365300003,-18.56067848207,-24.4492483139,2.225681781769999,1.0556755066
2018-07-21 01:05:27.350,0.198289790754,0.133104788607,-0.330955645096,-0.277949184179,0.318781763315,0.216195806861,-0.9022118,-0.02941995,3.8245935,10.0625600815,11.6307430267,2.35353040695,-0.277949184179,0.318781763315,0.216195806861,-17.3899993896,141.119476318,46.3875007629,-142.608089447,-28.16788959503,-18.0143222808,-18.58890533447,-24.36787700654,1.9502203464499992,1.4111948013000006
2018-07-21 01:05:27.400,0.198289790754,0.133104788607,-0.330955645096,-0.277949184179,0.318781763315,0.216195806861,-0.9022118,-0.02941995,3.8245935,10.0625600815,11.6307430267,2.35353040695,-0.277949184179,0.318781763315,0.216195806861,-17.5799999237,163.563446045,45.7675933838,-142.608089447,-27.91788959503,-18.0543193817,-18.61950016027,-24.2875328064,1.691744565959999,1.4111948013000006
2018-07-21 01:05:27.450,0.248438706582,0.0951464199594,-0.340785660594,-0.175447225571,0.291123539209,0.185183048248,-0.85317855,-0.1569064,3.9814999,10.0625600815,11.6307430267,2.35353040695,-0.277949184179,0.318781763315,0.216195806861,-17.5799999237,163.563446045,45.7675933838,-142.5580329895,-21.539561167347003,-14.133317947399998,-18.67438983917,-24.16580200196,1.303636670109999,1.6356344223000008
2018-07-21 01:05:27.500,0.248438706582,0.0951464199594,-0.340785660594,-0.175447225571,0.291123539209,0.185183048248,-0.85317855,-0.1569064,3.9814999,10.0625600815,11.6307430267,2.35353040695,-0.277949184179,0.318781763315,0.216195806861,-17.5799999237,163.563446045,45.7675933838,-142.5580329895,-21.539561167347003,-14.133317947399998,-18.71252250667,-24.08803749085,1.037667274479999,1.6356344223000008
2018-07-21 01:05:27.550,0.248438706582,0.0951464199594,-0.340785660594,-0.175447225571,0.291123539209,0.185183048248,-0.85317855,-0.1569064,3.9814999,9.54985523224,11.8508691788,0.656089246273,-0.175447225571,0.291123539209,0.185183048248,-17.7199993134,189.089675903,45.1203041077,-143.5580329895,-21.329560175547,-14.123319625799997,-18.78820514677,-23.941970825200002,0.5307492017749991,1.8908967972
2018-07-21 01:05:27.600,0.248438706582,0.0951464199594,-0.340785660594,-0.175447225571,0.291123539209,0.185183048248,-0.85317855,-0.1569064,3.9814999,9.54985523224,11.8508691788,0.656089246273,-0.175447225571,0.291123539209,0.185183048248,-17.7199993134,189.089675903,45.1203041077,-143.5580329895,-21.299561396247,-14.113317489599996,-18.804157257070003,-23.907732009900002,0.40395450591999915,1.8908967972
2018-07-21 01:05:27.650,0.248438706582,0.0951464199594,-0.340785660594,-0.175447225571,0.291123539209,0.185183048248,-0.85317855,-0.1569064,3.9814999,9.54985523224,11.8508691788,0.656089246273,-0.175447225571,0.291123539209,0.185183048248,-17.7899990082,210.771652222,44.4657020569,-143.5580329895,-21.139561548847002,-14.033319473199999,-18.902357101470002,-23.7364807129,-0.24354077875600086,2.1077165604
2018-07-21 01:05:27.700,0.248438706582,0.0951464199594,-0.340785660594,-0.175447225571,0.291123539209,0.185183048248,-0.85317855,-0.1569064,3.9814999,9.54985523224,11.8508691788,0.656089246273,-0.175447225571,0.291123539209,0.185183048248,-17.7899990082,210.771652222,44.4657020569,-143.5580329895,-21.139561548847002,-14.033319473199999,-18.902357101470002,-23.7364807129,-0.24354077875600086,2.1077165604
2018-07-21 01:05:27.750,0.248438706582,0.0951464199594,-0.340785660594,-0.175447225571,0.291123539209,0.185183048248,-0.85317855,-0.1569064,3.9814999,9.17421913147,12.0823841095,-0.713468015194,-0.175447225571,0.291123539209,0.185183048248,-17.7899990082,227.677627563,43.8037872314,-144.5580329895,-21.059561625147,-13.9333171844,-19.00071430207,-23.601162910470002,-0.7134680151940009,2.2767763137999992
2018-07-21 01:05:27.800,0.248438706582,0.0951464199594,-0.340785660594,-0.175447225571,0.291123539209,0.185183048248,-0.85317855,-0.1569064,3.9814999,9.17421913147,12.0823841095,-0.713468015194,-0.175447225571,0.291123539209,0.185183048248,-17.7899990082,227.677627563,43.8037872314,-144.5580329895,-21.049561396247,-13.903318405099999,-19.02953433987,-23.566345214850003,-0.8342235088350008,2.2767763137999992
2018-07-21 01:05:27.850,0.289831340026,0.0479529837932,-0.374347503586,-0.0921715795994,0.168061628938,0.389364808798,-0.6276256,-0.3334261,4.6287388,9.17421913147,12.0823841095,-0.713468015194,-0.175447225571,0.291123539209,0.185183048248,-17.7299995422,236.906433105,43.114490509,-144.5580329895,-20.969561472547,-13.763319015499999,-19.156270027170002,-23.41504287721,-1.2791038751600008,2.3690643311000006
2018-07-21 01:05:27.900,0.289831340026,0.0479529837932,-0.374347503586,-0.0921715795994,0.168061628938,0.389364808798,-0.6276256,-0.3334261,4.6287388,9.17421913147,12.0823841095,-0.713468015194,-0.175447225571,0.291123539209,0.185183048248,-17.7299995422,236.906433105,43.114490509,-142.178817749,-13.157610893250002,-11.0821914673,-19.26377391817,-23.30166053773,-1.587005853650001,2.3690643311000006
2018-07-21 01:05:27.950,0.289831340026,0.0479529837932,-0.374347503586,-0.0921715795994,0.168061628938,0.389364808798,-0.6276256,-0.3334261,4.6287388,9.17421913147,12.0823841095,-0.713468015194,-0.175447225571,0.291123539209,0.185183048248,-17.6199989319,243.370239258,42.397808075,-143.178817749,-13.05761241915,-10.942192077599998,-19.26377391817,-23.30166053773,-1.587005853650001,2.3690643311000006
2018-07-21 01:05:28.000,0.289831340026,0.0479529837932,-0.374347503586,-0.0921715795994,0.168061628938,0.389364808798,-0.6276256,-0.3334261,4.6287388,8.71463012695,12.5118560791,-2.02153110504,-0.0921715795994,0.168061628938,0.389364808798,-17.4499988556,253.182403564,41.6701583862,-143.178817749,-13.007611274750001,-10.852191925,-19.472653388970002,-23.103424072270002,-2.1096653938300007,2.5318241119000007
2018-07-21 01:05:28.050,0.289831340026,0.0479529837932,-0.374347503586,-0.0921715795994,0.168061628938,0.389364808798,-0.6276256,-0.3334261,4.6287388,8.71463012695,12.5118560791,-2.02153110504,-0.0921715795994,0.168061628938,0.389364808798,-17.4499988556,253.182403564,41.6701583862,-143.178817749,-12.92761135105,-10.692192077599998,-19.60183429717,-22.985408782969998,-2.407692432400001,2.5318241119000007
2018-07-21 01:05:28.100,0.289831340026,0.0479529837932,-0.374347503586,-0.0921715795994,0.168061628938,0.389364808798,-0.6276256,-0.3334261,4.6287388,8.71463012695,12.5118560791,-2.02153110504,-0.0921715795994,0.168061628938,0.389364808798,-17.4499988556,253.182403564,41.6701583862,-143.178817749,-12.92761135105,-10.692192077599998,-19.60183429717,-22.985408782969998,-2.407692432400001,2.5318241119000007
2018-07-21 01:05:28.150,0.289831340026,0.0479529837932,-0.374347503586,-0.0921715795994,0.168061628938,0.389364808798,-0.6276256,-0.3334261,4.6287388,8.71463012695,12.5118560791,-2.02153110504,-0.0921715795994,0.168061628938,0.389364808798,-17.2399997711,245.610427856,40.9023590088,-144.178817749,-12.857611656150002,-10.4821929931,-19.819899559070002,-22.794170379649998,-2.788104057310001,2.4561042786
2018-07-21 01:05:28.200,0.289831340026,0.0479529837932,-0.374347503586,-0.0921715795994,0.168061628938,0.389364808798,-0.6276256,-0.3334261,4.6287388,8.71463012695,12.5118560791,-2.02153110504,-0.0921715795994,0.168061628938,0.389364808798,-17.2399997711,245.610427856,40.9023590088,-144.178817749,-12.857611656150002,-10.4821929931,-19.819899559070002,-22.794170379649998,-2.788104057310001,2.4561042786
2018-07-21 01:05:28.250,0.289831340026,0.0479529837932,-0.374347503586,-0.0921715795994,0.168061628938,0.389364808798,-0.6276256,-0.3334261,4.6287388,8.12451934814,13.1991186142,-3.19903850555,-0.0921715795994,0.168061628938,0.389364808798,-16.9699993134,235.531707764,40.1162872314,-144.178817749,-12.80761241915,-10.242191314700001,-20.18585014347,-22.49906253816,-3.271116971970001,2.3553171158
2018-07-21 01:05:28.300,0.289831340026,0.0479529837932,-0.374347503586,-0.0921715795994,0.168061628938,0.389364808798,-0.6276256,-0.3334261,4.6287388,8.12451934814,13.1991186142,-3.19903850555,-0.0921715795994,0.168061628938,0.389364808798,-16.9699993134,235.531707764,40.1162872314,-144.178817749,-12.80761241915,-10.242191314700001,-20.18585014347,-22.49906253816,-3.271116971970001,2.3553171158
2018-07-21 01:05:28.350,0.289831340026,0.0479529837932,-0.374347503586,-0.0921715795994,0.168061628938,0.389364808798,-0.6276256,-0.3334261,4.6287388,8.12451934814,13.1991186142,-3.19903850555,-0.0921715795994,0.168061628938,0.389364808798,-16.6700000763,212.370483398,39.2763671875,-144.178817749,-12.887612342850002,-10.032192230200003,-20.499351501470002,-22.261735916150002,-3.508011341090001,2.1237049103000007
2018-07-21 01:05:28.400,0.320912944359,0.019427723861,-0.467060035213,-0.0468374118209,-0.107395164669,0.434296935797,-0.4707192,-0.61781895,7.9629998,8.12451934814,13.1991186142,-3.19903850555,-0.0921715795994,0.168061628938,0.389364808798,-16.6700000763,212.370483398,39.2763671875,-133.752910614,-5.008640289299999,-8.7805442811,-20.76238059997,-22.05457544328,-3.667917966840001,2.1237049103000007
2018-07-21 01:05:28.450,0.320912944359,0.019427723861,-0.467060035213,-0.0468374118209,-0.107395164669,0.434296935797,-0.4707192,-0.61781895,7.9629998,7.48497438431,14.0114822388,-3.77238845825,-0.0468374118209,-0.107395164669,0.434296935797,-16.3199996948,181.065658569,38.3816795349,-134.752910614,-5.0186405182,-8.710544586200001,-20.84596920017,-21.98135948182,-3.7187995910600007,1.8106565475000007
2018-07-21 01:05:28.500,0.320912944359,0.019427723861,-0.467060035213,-0.0468374118209,-0.107395164669,0.434296935797,-0.4707192,-0.61781895,7.9629998,7.48497438431,14.0114822388,-3.77238845825,-0.0468374118209,-0.107395164669,0.434296935797,-16.3199996948,181.065658569,38.3816795349,-134.752910614,-4.988641738899998,-8.640541076699996,-21.01319026947,-21.84346914292,-3.824043035510001,1.8106565475000007
2018-07-21 01:05:28.550,0.320912944359,0.019427723861,-0.467060035213,-0.0468374118209,-0.107395164669,0.434296935797,-0.4707192,-0.61781895,7.9629998,7.48497438431,14.0114822388,-3.77238845825,-0.0468374118209,-0.107395164669,0.434296935797,-15.9600000381,151.579864502,37.4550170898,-135.752910614,-4.938640594499999,-8.5305442811,-21.26633358007,-21.63647890092,-3.956559896470001,1.5157985686999993
2018-07-21 01:05:28.600,0.320912944359,0.019427723861,-0.467060035213,-0.0468374118209,-0.107395164669,0.434296935797,-0.4707192,-0.61781895,7.9629998,7.48497438431,14.0114822388,-3.77238845825,-0.0468374118209,-0.107395164669,0.434296935797,-15.9600000381,151.579864502,37.4550170898,-135.752910614,-4.9286403656000015,-8.420543670699999,-21.50955867767,-21.4266281128,-4.082577705380001,1.5157985686999993
2018-07-21 01:05:28.650,0.320912944359,0.019427723861,-0.467060035213,-0.0468374118209,-0.107395164669,0.434296935797,-0.4707192,-0.61781895,7.9629998,7.48497438431,14.0114822388,-3.77238845825,-0.0468374118209,-0.107395164669,0.434296935797,-15.5799999237,111.567977905,36.4571838379,-135.752910614,-4.9286403656000015,-8.3205413819,-21.77438354497,-21.18920516969,-4.200793266300001,1.1156797408999992
2018-07-21 01:05:28.700,0.330130673721,0.0246129506946,-0.527058522115,-0.109906069934,-0.146865040064,0.407919406891,-0.4707192,0.392266,9.5712904,6.5936126709,15.0303125381,-4.29380512238,-0.0468374118209,-0.107395164669,0.434296935797,-15.5799999237,111.567977905,36.4571838379,-135.752910614,-4.938640594499999,-8.260543823299997,-21.948642730670002,-21.0205564499,-4.293805122380001,1.1156797408999992
2018-07-21 01:05:28.750,0.330130673721,0.0246129506946,-0.527058522115,-0.109906069934,-0.146865040064,0.407919406891,-0.4707192,0.392266,9.5712904,6.5936126709,15.0303125381,-4.29380512238,-0.0468374118209,-0.107395164669,0.434296935797,-15.1700000763,78.3495941162,35.3908729553,-128.7806072235,-2.4628677368,-7.977550506600004,-22.120256423969998,-20.84158849717,-4.384148597720001,0.7834959030000004
2018-07-21 01:05:28.800,0.330130673721,0.0246129506946,-0.527058522115,-0.109906069934,-0.146865040064,0.407919406891,-0.4707192,0.392266,9.5712904,6.5936126709,15.0303125381,-4.29380512238,-0.0468374118209,-0.107395164669,0.434296935797,-14.7399997711,49.0177154541,34.2761764526,-128.7806072235,-2.2628669738999996,-7.847549438500003,-22.36361408237,-20.58162879945,-4.523740291600001,0.7834959030000004
2018-07-21 01:05:28.850,0.330130673721,0.0246129506946,-0.527058522115,-0.109906069934,-0.146865040064,0.407919406891,-0.4707192,0.392266,9.5712904,6.5936126709,15.0303125381,-4.29380512238,-0.0468374118209,-0.107395164669,0.434296935797,-14.7399997711,49.0177154541,34.2761764526,-128.7806072235,-2.2628669738999996,-7.847549438500003,-22.59185695647,-20.33009576798,-4.6514754295300005,0.49017715449999955
2018-07-21 01:05:28.900,0.330130673721,0.0246129506946,-0.527058522115,-0.109906069934,-0.146865040064,0.407919406891,-0.4707192,0.392266,9.5712904,6.5936126709,15.0303125381,-4.29380512238,-0.0468374118209,-0.107395164669,0.434296935797,-14.7399997711,49.0177154541,34.2761764526,-128.7806072235,-2.2628669738999996,-7.7975502014,-22.75286674497,-20.14667510987,-4.7234091758700005,0.49017715449999955
2018-07-21 01:05:28.950,0.330130673721,0.0246129506946,-0.527058522115,-0.109906069934,-0.146865040064,0.407919406891,-0.4707192,0.392266,9.5712904,5.41589832306,16.0863208771,-4.82484006882,-0.109906069934,-0.146865040064,0.407919406891,-14.2899999619,12.9518508911,33.1030464172,-129.7806072235,-0.5828666686999995,-7.767551422100006,-22.91902446747,-19.94365167619,-4.795085906980001,0.12951850890000038
2018-07-21 01:05:29.000,0.330130673721,0.0246129506946,-0.527058522115,-0.109906069934,-0.146865040064,0.407919406891,-0.4707192,0.392266,9.5712904,5.41589832306,16.0863208771,-4.82484006882,-0.109906069934,-0.146865040064,0.407919406891,-13.8199996948,-16.8964385986,31.86419487,-129.7806072235,-0.562868118299999,-7.727550506600004,-23.25861454007,-19.53209495545,-4.885949134830001,-0.16896438599999897
2018-07-21 01:05:29.050,0.330130673721,0.0246129506946,-0.527058522115,-0.109906069934,-0.146865040064,0.407919406891,-0.4707192,0.392266,9.5712904,5.41589832306,16.0863208771,-4.82484006882,-0.109906069934,-0.146865040064,0.407919406891,-13.8199996948,-16.8964385986,31.86419487,-129.7806072235,1.0671329497999977,-7.727550506600004,-23.52100849157,-19.19495248795,-4.955468177800001,-0.16896438599999897
2018-07-21 01:05:29.100,0.332317703622,0.0417135672338,-0.588701994864,-0.0519825816154,-0.240588486195,0.287076354027,-0.67665885,0.3726527,11.28745415,5.41589832306,16.0863208771,-4.82484006882,-0.109906069934,-0.146865040064,0.407919406891,-13.8199996948,-16.8964385986,31.86419487,-129.7806072235,1.0671329497999977,-7.727550506600004,-23.52100849157,-19.19495248795,-4.955468177800001,-0.16896438599999897
2018-07-21 01:05:29.150,0.332317703622,0.0417135672338,-0.588701994864,-0.0519825816154,-0.240588486195,0.287076354027,-0.67665885,0.3726527,11.28745415,5.41589832306,16.0863208771,-4.82484006882,-0.109906069934,-0.146865040064,0.407919406891,-13.3400001526,-49.8960494995,30.5669116974,-121.74585533140001,3.9423923493000004,-7.830062866299997,-23.52100849157,-19.19495248795,-4.955468177800001,-0.16896438599999897
2018-07-21 01:05:29.200,0.332317703622,0.0417135672338,-0.588701994864,-0.0519825816154,-0.240588486195,0.287076354027,-0.67665885,0.3726527,11.28745415,3.95181703568,17.2027606964,-5.04256296158,-0.0519825816154,-0.240588486195,0.287076354027,-13.3400001526,-49.8960494995,30.5669116974,-121.74585533140001,3.9423923493000004,-7.830062866299997,-24.03597927097,-18.49928951264,-5.037746906280001,-0.4989604949999986
2018-07-21 01:05:29.250,0.332317703622,0.0417135672338,-0.588701994864,-0.0519825816154,-0.240588486195,0.287076354027,-0.67665885,0.3726527,11.28745415,3.95181703568,17.2027606964,-5.04256296158,-0.0519825816154,-0.240588486195,0.287076354027,-12.8499994278,-81.1494827271,29.2002429962,-122.74585533140001,5.4223918915,-7.9200630188000005,-24.36528491977,-18.02000761033,-5.0618424415600005,-0.8114948272999989
2018-07-21 01:05:29.300,0.332317703622,0.0417135672338,-0.588701994864,-0.0519825816154,-0.240588486195,0.287076354027,-0.67665885,0.3726527,11.28745415,3.95181703568,17.2027606964,-5.04256296158,-0.0519825816154,-0.240588486195,0.287076354027,-12.8499994278,-81.1494827271,29.2002429962,-122.74585533140001,5.4223918915,-7.9200630188000005,-24.36528491977,-18.02000761033,-5.0618424415600005,-0.8114948272999989
2018-07-21 01:05:29.350,0.332317703622,0.0417135672338,-0.588701994864,-0.0519825816154,-0.240588486195,0.287076354027,-0.67665885,0.3726527,11.28745415,3.95181703568,17.2027606964,-5.04256296158,-0.0519825816154,-0.240588486195,0.287076354027,-12.8499994278,-81.1494827271,29.2002429962,-122.74585533140001,5.4223918915,-8.060062408500002,-24.36528491977,-18.02000761033,-5.0618424415600005,-0.8114948272999989
2018-07-21 01:05:29.400,0.332317703622,0.0417135672338,-0.588701994864,-0.0519825816154,-0.240588486195,0.287076354027,-0.67665885,0.3726527,11.28745415,3.95181703568,17.2027606964,-5.04256296158,-0.0519825816154,-0.240588486195,0.287076354027,-12.3599996567,-112.467956543,27.7678260803,-122.74585533140001,6.7723922729999995,-8.060062408500002,-24.78333759307,-17.3647119999,-5.028323650360001,-1.124679565400001
2018-07-21 01:05:29.450,0.332317703622,0.0417135672338,-0.588701994864,-0.0519825816154,-0.240588486195,0.287076354027,-0.67665885,0.3726527,11.28745415,2.46508860588,18.122636795,-5.07897901535,-0.0519825816154,-0.240588486195,0.287076354027,-11.8699998856,-138.856323242,26.2724113464,-123.74585533140001,7.9423923493,-8.180065155099996,-25.04096698757,-16.89203238488,-5.078979015350001,-1.3885631560999983
2018-07-21 01:05:29.500,0.332317703622,0.0417135672338,-0.588701994864,-0.0519825816154,-0.240588486195,0.287076354027,-0.67665885,0.3726527,11.28745415,2.46508860588,18.122636795,-5.07897901535,-0.0519825816154,-0.240588486195,0.287076354027,-11.8699998856,-138.856323242,26.2724113464,-123.74585533140001,7.9423923493,-8.2500648499,-25.16407871247,-16.64936709405,-5.1125397682200004,-1.3885631560999983
2018-07-21 01:05:29.550,0.310146050474,0.0788372562855,-0.643180679901,-0.0495172664523,-0.29621475935,0.193544536829,-0.83356525,0.10787315,11.38552065,2.46508860588,18.122636795,-5.07897901535,-0.0519825816154,-0.240588486195,0.287076354027,-11.3800001144,-142.713348389,24.7249488831,-123.74585533140001,8.802392006,-8.340065002499998,-25.29325008397,-16.39891660214,-5.097838401790001,-1.4271335602000015
2018-07-21 01:05:29.600,0.310146050474,0.0788372562855,-0.643180679901,-0.0495172664523,-0.29621475935,0.193544536829,-0.83356525,0.10787315,11.38552065,2.46508860588,18.122636795,-5.07897901535,-0.0519825816154,-0.240588486195,0.287076354027,-11.3800001144,-142.713348389,24.7249488831,-114.63447570801,6.3545827866,-9.371150970399995,-25.46950244907,-16.01498281957,-5.1094107627900005,-1.4271335602000015
2018-07-21 01:05:29.650,0.310146050474,0.0788372562855,-0.643180679901,-0.0495172664523,-0.29621475935,0.193544536829,-0.83356525,0.10787315,11.38552065,2.46508860588,18.122636795,-5.07897901535,-0.0519825816154,-0.240588486195,0.287076354027,-10.8800001144,-160.412780762,23.0980567932,-115.63447570801,7.17458343505,-9.481147766100001,-25.70555210117,-15.47186732293,-5.0562062263500005,-1.6041278838999986
2018-07-21 01:05:29.700,0.310146050474,0.0788372562855,-0.643180679901,-0.0495172664523,-0.29621475935,0.193544536829,-0.83356525,0.10787315,11.38552065,0.907066106796,18.8435401917,-5.03688335419,-0.0495172664523,-0.29621475935,0.193544536829,-10.8800001144,-160.412780762,23.0980567932,-115.63447570801,7.17458343505,-9.561149597099998,-25.70555210117,-15.47186732293,-5.0562062263500005,-1.6041278838999986
2018-07-21 01:05:29.750,0.310146050474,0.0788372562855,-0.643180679901,-0.0495172664523,-0.29621475935,0.193544536829,-0.83356525,0.10787315,11.38552065,0.907066106796,18.8435401917,-5.03688335419,-0.0495172664523,-0.29621475935,0.193544536829,-10.3999996185,-186.565582275,21.4419307709,-116.63447570801,7.9845829009900005,-9.6911506653,-25.91617298127,-14.926176190385,-4.992922782900001,-1.865655899
2018-07-21 01:05:29.800,0.310146050474,0.0788372562855,-0.643180679901,-0.0495172664523,-0.29621475935,0.193544536829,-0.83356525,0.10787315,11.38552065,0.907066106796,18.8435401917,-5.03688335419,-0.0495172664523,-0.29621475935,0.193544536829,-10.3999996185,-186.565582275,21.4419307709,-116.63447570801,7.9845829009900005,-9.6911506653,-26.01082515717,-14.639292210349,-4.946612834930001,-1.865655899
2018-07-21 01:05:29.850,0.310146050474,0.0788372562855,-0.643180679901,-0.0495172664523,-0.29621475935,0.193544536829,-0.83356525,0.10787315,11.38552065,0.907066106796,18.8435401917,-5.03688335419,-0.0495172664523,-0.29621475935,0.193544536829,-9.92000007629,-211.537750244,19.7364902496,-117.63447570801,8.74458312988,-9.811149597099998,-26.14318561557,-14.208641961225,-4.886180877690001,-2.1153774261000002
2018-07-21 01:05:29.900,0.310146050474,0.0788372562855,-0.643180679901,-0.0495172664523,-0.29621475935,0.193544536829,-0.83356525,0.10787315,11.38552065,0.907066106796,18.8435401917,-5.03688335419,-0.0495172664523,-0.29621475935,0.193544536829,-9.92000007629,-211.537750244,19.7364902496,-117.63447570801,8.74458312988,-9.881149291999996,-26.22475147247,-13.916602075108,-4.820073604580001,-2.1153774261000002
2018-07-21 01:05:29.950,0.310146050474,0.0788372562855,-0.643180679901,-0.0495172664523,-0.29621475935,0.193544536829,-0.83356525,0.10787315,11.38552065,-0.955742061138,19.421579361,-4.74033069611,-0.0495172664523,-0.29621475935,0.193544536829,-9.46000003815,-237.769317627,17.9680328369,-117.63447570801,9.5145831108,-9.991149902300002,-26.33990955357,-13.471201717862,-4.740330696110001,-2.3776931762999993
2018-07-21 01:05:30.000,0.310146050474,0.0788372562855,-0.643180679901,-0.0495172664523,-0.29621475935,0.193544536829,-0.83356525,0.10787315,11.38552065,-0.955742061138,19.421579361,-4.74033069611,-0.0495172664523,-0.29621475935,0.193544536829,-9.46000003815,-237.769317627,17.9680328369,-117.63447570801,9.5145831108,-9.991149902300002,-26.37077236177,-13.3193563223,-4.695036888120001,-2.3776931762999993
2018-07-21 01:05:30.050,0.274193524342,0.130300731286,-0.705826594909,-0.0654206052423,-0.364568322897,0.282831966877,-0.99047165,-0.53936575,13.95486295,-0.955742061138,19.421579361,-4.74033069611,-0.0495172664523,-0.29621475935,0.193544536829,-9.01000022888,-259.71697998,16.1602954865,-107.2176502943,6.14497184749,-10.692871093699999,-26.50718021397,-12.55603921414,-4.510561466220001,-2.5971698761000006
2018-07-21 01:05:30.100,0.274193524342,0.130300731286,-0.705826594909,-0.0654206052423,-0.364568322897,0.282831966877,-0.99047165,-0.53936575,13.95486295,-0.955742061138,19.421579361,-4.74033069611,-0.0495172664523,-0.29621475935,0.193544536829,-9.01000022888,-259.71697998,16.1602954865,-107.2176502943,6.14497184749,-10.692871093699999,-26.50718021397,-12.55603921414,-4.510561466220001,-2.5971698761000006
2018-07-21 01:05:30.150,0.274193524342,0.130300731286,-0.705826594909,-0.0654206052423,-0.364568322897,0.282831966877,-0.99047165,-0.53936575,13.95486295,-0.955742061138,19.421579361,-4.74033069611,-0.0495172664523,-0.29621475935,0.193544536829,-8.57999992371,-280.34954834,14.3096323013,-108.2176502943,6.83497190471,-10.792869567900006,-26.59174442287,-11.932381629950001,-4.348067283630001,-2.8034954071000016
2018-07-21 01:05:30.200,0.274193524342,0.130300731286,-0.705826594909,-0.0654206052423,-0.364568322897,0.282831966877,-0.99047165,-0.53936575,13.95486295,-0.955742061138,19.421579361,-4.74033069611,-0.0495172664523,-0.29621475935,0.193544536829,-8.57999992371,-280.34954834,14.3096323013,-108.2176502943,6.83497190471,-10.862869262700002,-26.62207126617,-11.46247744561,-4.230898380280001,-2.8034954071000016
2018-07-21 01:05:30.250,0.274193524342,0.130300731286,-0.705826594909,-0.0654206052423,-0.364568322897,0.282831966877,-0.99047165,-0.53936575,13.95486295,-2.96446633339,19.7037410736,-4.23089838028,-0.0654206052423,-0.364568322897,0.282831966877,-8.17000007629,-292.824157715,12.4123859406,-108.2176502943,7.40497207638,-10.932868957500006,-26.63896274567,-11.005168199549999,-4.0997686386100005,-2.9282417297000016
2018-07-21 01:05:30.300,0.274193524342,0.130300731286,-0.705826594909,-0.0654206052423,-0.364568322897,0.282831966877,-0.99047165,-0.53936575,13.95486295,-2.96446633339,19.7037410736,-4.23089838028,-0.0654206052423,-0.364568322897,0.282831966877,-8.17000007629,-292.824157715,12.4123859406,-108.2176502943,7.40497207638,-10.932868957500006,-26.63896274567,-11.005168199549999,-4.0997686386100005,-2.9282417297000016
2018-07-21 01:05:30.350,0.252320502868,0.159020293288,-0.74212301185,-0.0468373186886,-0.357182383537,0.290110468864,-0.79433865,-0.04903325,13.71950335,-2.96446633339,19.7037410736,-4.23089838028,-0.0654206052423,-0.364568322897,0.282831966877,-7.7999997139,-300.151428223,10.5059661865,-109.2176502943,7.84497165676,-11.002868652300002,-26.64237689977,-10.53670692445,-3.964054346080001,-3.0015144348000007
2018-07-21 01:05:30.400,0.252320502868,0.159020293288,-0.74212301185,-0.0468373186886,-0.357182383537,0.290110468864,-0.79433865,-0.04903325,13.71950335,-2.96446633339,19.7037410736,-4.23089838028,-0.0654206052423,-0.364568322897,0.282831966877,-7.7999997139,-300.151428223,10.5059661865,-102.100730896,5.699623107960001,-11.052543640200007,-26.63173198697,-10.226612091069999,-3.883237361910001,-3.0015144348000007
2018-07-21 01:05:30.450,0.252320502868,0.159020293288,-0.74212301185,-0.0468373186886,-0.357182383537,0.290110468864,-0.79433865,-0.04903325,13.71950335,-4.67148447037,19.6722259521,-3.73214054108,-0.0468373186886,-0.357182383537,0.290110468864,-7.44000005722,-307.465179443,8.54929924011,-103.100730896,6.059623241470001,-11.142543792700003,-26.59055614467,-9.75545930863,-3.732140541080001,-3.0746517181
2018-07-21 01:05:30.500,0.252320502868,0.159020293288,-0.74212301185,-0.0468373186886,-0.357182383537,0.290110468864,-0.79433865,-0.04903325,13.71950335,-4.67148447037,19.6722259521,-3.73214054108,-0.0468373186886,-0.357182383537,0.290110468864,-7.44000005722,-307.465179443,8.54929924011,-103.100730896,6.059623241470001,-11.142543792700003,-26.53869342807,-9.28245592118,-3.598314046860001,-3.0746517181
2018-07-21 01:05:30.550,0.252320502868,0.159020293288,-0.74212301185,-0.0468373186886,-0.357182383537,0.290110468864,-0.79433865,-0.04903325,13.71950335,-4.67148447037,19.6722259521,-3.73214054108,-0.0468373186886,-0.357182383537,0.290110468864,-7.10999965668,-324.43560791,6.5734333992,-104.100730896,6.40962314611,-11.192543029800007,-26.49434375767,-8.97644138337,-3.498492002490001,-3.2443561553999984
2018-07-21 01:05:30.600,0.230791165058,0.186925826326,-0.77672856176,-0.0840199440718,-0.327742964029,0.310660004616,-1.0002783,-0.50013915,14.24906245,-4.67148447037,19.6722259521,-3.73214054108,-0.0468373186886,-0.357182383537,0.290110468864,-7.10999965668,-324.43560791,6.5734333992,-104.100730896,6.40962314611,-11.242542266900003,-26.40049076077,-8.50863456727,-3.361871957780001,-3.2443561553999984
2018-07-21 01:05:30.650,0.230791165058,0.186925826326,-0.77672856176,-0.0840199440718,-0.327742964029,0.310660004616,-1.0002783,-0.50013915,14.24906245,-4.67148447037,19.6722259521,-3.73214054108,-0.0468373186886,-0.357182383537,0.290110468864,-6.7999997139,-332.540313721,4.58108854294,-96.7577552795,4.797985315330001,-10.971206665100006,-26.25369548797,-7.90684032441,-3.1952245235400007,-3.3254032134999996
2018-07-21 01:05:30.700,0.230791165058,0.186925826326,-0.77672856176,-0.0840199440718,-0.327742964029,0.310660004616,-1.0002783,-0.50013915,14.24906245,-6.81409597397,19.253288269,-3.09418964386,-0.0840199440718,-0.327742964029,0.310660004616,-6.51999998093,-342.391601562,2.5695412159,-97.7577552795,5.077985286720001,-11.0112075806,-26.25369548797,-7.90684032441,-3.1952245235400007,-3.3254032134999996
2018-07-21 01:05:30.750,0.230791165058,0.186925826326,-0.77672856176,-0.0840199440718,-0.327742964029,0.310660004616,-1.0002783,-0.50013915,14.24906245,-6.81409597397,19.253288269,-3.09418964386,-0.0840199440718,-0.327742964029,0.310660004616,-6.51999998093,-342.391601562,2.5695412159,-97.7577552795,5.077985286720001,-11.0112075806,-26.09182262417,-7.31840181352,-3.019513607030001,-3.4239158630000013
2018-07-21 01:05:30.800,0.230791165058,0.186925826326,-0.77672856176,-0.0840199440718,-0.327742964029,0.310660004616,-1.0002783,-0.50013915,14.24906245,-6.81409597397,19.253288269,-3.09418964386,-0.0840199440718,-0.327742964029,0.310660004616,-6.51999998093,-342.391601562,2.5695412159,-97.7577552795,5.077985286720001,-11.051204681400002,-25.98096370697,-7.01747369767,-2.899757862090001,-3.4239158630000013
2018-07-21 01:05:30.850,0.230791165058,0.186925826326,-0.77672856176,-0.0840199440718,-0.327742964029,0.310660004616,-1.0002783,-0.50013915,14.24906245,-6.81409597397,19.253288269,-3.09418964386,-0.0840199440718,-0.327742964029,0.310660004616,-6.25999975204,-347.441467285,0.578946053982,-98.7577552795,5.327985286720001,-11.101207733199999,-25.75392627717,-6.41747856141,-2.699258327480001,-3.4744148254000002
2018-07-21 01:05:30.900,0.230791165058,0.186925826326,-0.77672856176,-0.0840199440718,-0.327742964029,0.310660004616,-1.0002783,-0.50013915,14.24906245,-6.81409597397,19.253288269,-3.09418964386,-0.0840199440718,-0.327742964029,0.310660004616,-6.25999975204,-347.441467285,0.578946053982,-98.7577552795,5.327985286720001,-11.101207733199999,-25.75392627717,-6.41747856141,-2.699258327480001,-3.4744148254000002
2018-07-21 01:05:30.950,0.230791165058,0.186925826326,-0.77672856176,-0.0840199440718,-0.327742964029,0.310660004616,-1.0002783,-0.50013915,14.24906245,-8.44294071198,18.6543636322,-2.56625032425,-0.0840199440718,-0.327742964029,0.310660004616,-6.02999973297,-349.279022217,-1.43816828728,-99.7577552795,5.497985363010001,-11.1312065125,-25.57269382477,-5.98400306702,-2.5662503242500008,-3.4927902222
2018-07-21 01:05:31.000,0.198264845063,0.218533384579,-0.820227623054,-0.118161961436,-0.298441678286,0.31726539135,-0.980665,-0.48052585,14.54326195,-8.44294071198,18.6543636322,-2.56625032425,-0.0840199440718,-0.327742964029,0.310660004616,-5.81999969482,-347.026245117,-3.45440769196,-89.6530513763,3.2061207294400003,-10.942504882800002,-25.28043460847,-5.418799400339999,-2.380140781400001,-3.470262527500001
2018-07-21 01:05:31.050,0.198264845063,0.218533384579,-0.820227623054,-0.118161961436,-0.298441678286,0.31726539135,-0.980665,-0.48052585,14.54326195,-8.44294071198,18.6543636322,-2.56625032425,-0.0840199440718,-0.327742964029,0.310660004616,-5.81999969482,-347.026245117,-3.45440769196,-89.6530513763,3.23612070083,-10.962505340500002,-25.13274669647,-5.149967193609999,-2.307026624680001,-3.470262527500001
2018-07-21 01:05:31.100,0.198264845063,0.218533384579,-0.820227623054,-0.118161961436,-0.298441678286,0.31726539135,-0.980665,-0.48052585,14.54326195,-8.44294071198,18.6543636322,-2.56625032425,-0.0840199440718,-0.327742964029,0.310660004616,-5.81999969482,-347.026245117,-3.45440769196,-89.6530513763,3.23612070083,-10.962505340500002,-25.13274669647,-5.149967193609999,-2.307026624680001,-3.470262527500001
2018-07-21 01:05:31.150,0.198264845063,0.218533384579,-0.820227623054,-0.118161961436,-0.298441678286,0.31726539135,-0.980665,-0.48052585,14.54326195,-8.44294071198,18.6543636322,-2.56625032425,-0.0840199440718,-0.327742964029,0.310660004616,-5.63999986649,-348.869689941,-5.43601131439,-90.6530513763,3.27612066269,-10.992504119800003,-24.64880084987,-4.3453702927,-2.076017379760001,-3.488697051999999
2018-07-21 01:05:31.200,0.198264845063,0.218533384579,-0.820227623054,-0.118161961436,-0.298441678286,0.31726539135,-0.980665,-0.48052585,14.54326195,-8.44294071198,18.6543636322,-2.56625032425,-0.0840199440718,-0.327742964029,0.310660004616,-5.63999986649,-348.869689941,-5.43601131439,-90.6530513763,3.27612066269,-10.992504119800003,-24.64880084987,-4.3453702927,-2.076017379760001,-3.488697051999999
2018-07-21 01:05:31.250,0.198264845063,0.218533384579,-0.820227623054,-0.118161961436,-0.298441678286,0.31726539135,-0.980665,-0.48052585,14.54326195,-10.4663124084,17.4598560333,-1.98889124393,-0.118161961436,-0.298441678286,0.31726539135,-5.48000001907,-344.651611328,-7.42677974701,-91.6530513763,3.29612064361,-11.012504577600005,-24.37818622587,-3.9606313706,-1.9888912439300008,-3.4465160369999985
2018-07-21 01:05:31.300,0.198264845063,0.218533384579,-0.820227623054,-0.118161961436,-0.298441678286,0.31726539135,-0.980665,-0.48052585,14.54326195,-10.4663124084,17.4598560333,-1.98889124393,-0.118161961436,-0.298441678286,0.31726539135,-5.48000001907,-344.651611328,-7.42677974701,-91.6530513763,3.30612063408,-11.0325050354,-24.02071666717,-3.4782161712999997,-1.900543689730001,-3.4465160369999985
2018-07-21 01:05:31.350,0.198264845063,0.218533384579,-0.820227623054,-0.118161961436,-0.298441678286,0.31726539135,-0.980665,-0.48052585,14.54326195,-10.4663124084,17.4598560333,-1.98889124393,-0.118161961436,-0.298441678286,0.31726539135,-5.32999992371,-334.548950195,-9.40663814545,-92.6530513763,3.2061207294400003,-11.0325050354,-23.92841434477,-3.3540067672999996,-1.877748250960001,-3.3454895019999995
2018-07-21 01:05:31.400,0.198264845063,0.218533384579,-0.820227623054,-0.118161961436,-0.298441678286,0.31726539135,-0.980665,-0.48052585,14.54326195,-11.4966020584,16.6348609924,-1.83983922005,-0.118161961436,-0.298441678286,0.31726539135,-5.32999992371,-334.548950195,-9.40663814545,-92.6530513763,3.2061207294400003,-11.0325050354,-23.65041065217,-3.0364675521999995,-1.846621394160001,-3.3454895019999995
2018-07-21 01:05:31.450,0.173226937482,0.257229423808,-0.858032774602,-0.109411306679,-0.233490541577,0.323230236769,-0.8825985,-0.02941995,11.76798,-11.4966020584,16.6348609924,-1.83983922005,-0.118161961436,-0.298441678286,0.31726539135,-5.19000005722,-316.131408691,-11.3582372665,-92.6530513763,3.00612068176,-11.0425071716,-23.36115741727,-2.7256793976000004,-1.8216656446500008,-3.1613140106000017
2018-07-21 01:05:31.500,0.173226937482,0.257229423808,-0.858032774602,-0.109411306679,-0.233490541577,0.323230236769,-0.8825985,-0.02941995,11.76798,-11.4966020584,16.6348609924,-1.83983922005,-0.118161961436,-0.298441678286,0.31726539135,-5.19000005722,-316.131408691,-11.3582372665,-81.6229362488,1.6009883880599998,-9.004398345999995,-23.26472949987,-2.6237564087000003,-1.828101038930001,-3.1613140106000017
2018-07-21 01:05:31.550,0.173226937482,0.257229423808,-0.858032774602,-0.109411306679,-0.233490541577,0.323230236769,-0.8825985,-0.02941995,11.76798,-11.4966020584,16.6348609924,-1.83983922005,-0.118161961436,-0.298441678286,0.31726539135,-5.0499997139,-296.005615234,-13.2916240692,-82.6229362488,1.3609883785199997,-9.014396667499994,-22.76969432827,-2.1169795990000004,-1.8411275148400008,-2.9600563049
2018-07-21 01:05:31.600,0.173226937482,0.257229423808,-0.858032774602,-0.109411306679,-0.233490541577,0.323230236769,-0.8825985,-0.02941995,11.76798,-11.4966020584,16.6348609924,-1.83983922005,-0.118161961436,-0.298441678286,0.31726539135,-4.90000009537,-280.0703125,-15.1830615997,-83.6229362488,1.1209883689899995,-9.014396667499994,-22.76969432827,-2.1169795990000004,-1.8411275148400008,-2.9600563049
2018-07-21 01:05:31.650,0.173226937482,0.257229423808,-0.858032774602,-0.109411306679,-0.233490541577,0.323230236769,-0.8825985,-0.02941995,11.76798,-12.821187973,15.3010120392,-1.81141579151,-0.109411306679,-0.233490541577,0.323230236769,-4.90000009537,-280.0703125,-15.1830615997,-83.6229362488,1.1209883689899995,-9.014396667499994,-22.33038520817,-1.7124776839999996,-1.8152990341200008,-2.800703048700001
2018-07-21 01:05:31.700,0.173226937482,0.257229423808,-0.858032774602,-0.109411306679,-0.233490541577,0.323230236769,-0.8825985,-0.02941995,11.76798,-12.821187973,15.3010120392,-1.81141579151,-0.109411306679,-0.233490541577,0.323230236769,-4.90000009537,-280.0703125,-15.1830615997,-83.6229362488,1.1209883689899995,-9.024398803799997,-22.10207653047,-1.4961795806999998,-1.7886452674900009,-2.800703048700001
2018-07-21 01:05:31.750,0.173226937482,0.257229423808,-0.858032774602,-0.109411306679,-0.233490541577,0.323230236769,-0.8825985,-0.02941995,11.76798,-12.821187973,15.3010120392,-1.81141579151,-0.109411306679,-0.233490541577,0.323230236769,-4.75999975204,-274.49987793,-17.0663089752,-84.6229362488,0.9309883117699993,-9.034397125299996,-21.74862670897,-1.1666669846000008,-1.739791989330001,-2.7449989318999997
2018-07-21 01:05:31.800,0.173226937482,0.257229423808,-0.858032774602,-0.109411306679,-0.233490541577,0.323230236769,-0.8825985,-0.02941995,11.76798,-12.821187973,15.3010120392,-1.81141579151,-0.109411306679,-0.233490541577,0.323230236769,-4.75999975204,-274.49987793,-17.0663089752,-84.6229362488,0.9409885406499994,-9.034397125299996,-21.61471462247,-1.0574131011999999,-1.7128220796600009,-2.7449989318999997
2018-07-21 01:05:31.850,0.173226937482,0.257229423808,-0.858032774602,-0.109411306679,-0.233490541577,0.323230236769,-0.8825985,-0.02941995,11.76798,-12.821187973,15.3010120392,-1.81141579151,-0.109411306679,-0.233490541577,0.323230236769,-4.63000011444,-278.961364746,-18.8975696564,-84.6229362488,0.8409881591800001,-9.044395446799996,-21.61471462247,-1.0574131011999999,-1.7128220796600009,-2.7449989318999997
2018-07-21 01:05:31.900,0.149748827191,0.291140806357,-0.886537047571,-0.115315012634,-0.254115492105,0.290141701698,-0.7453054,-0.0784532,13.73911665,-14.0547647476,13.796664238,-1.62880134583,-0.115315012634,-0.254115492105,0.290141701698,-4.63000011444,-278.961364746,-18.8975696564,-84.6229362488,0.8409881591800001,-9.044395446799996,-20.836963653570002,-0.4600830077999998,-1.6246618032500009,-2.7896137237999987
2018-07-21 01:05:31.950,0.149748827191,0.291140806357,-0.886537047571,-0.115315012634,-0.254115492105,0.290141701698,-0.7453054,-0.0784532,13.73911665,-14.0547647476,13.796664238,-1.62880134583,-0.115315012634,-0.254115492105,0.290141701698,-4.50999975204,-286.818511963,-20.6768398285,-74.9674110413,0.10083007812000044,-6.875370025599999,-20.58085727697,-0.2689504622999994,-1.6275056600600009,-2.8681850432999987
2018-07-21 01:05:32.000,0.149748827191,0.291140806357,-0.886537047571,-0.115315012634,-0.254115492105,0.290141701698,-0.7453054,-0.0784532,13.73911665,-14.0547647476,13.796664238,-1.62880134583,-0.115315012634,-0.254115492105,0.290141701698,-4.38000011444,-290.554229736,-22.4452152252,-75.9674110413,0.11083030699999963,-6.8853683472,-20.03117370607,0.09165382379999976,-1.595206737520001,-2.9055423737000012
2018-07-21 01:05:32.050,0.149748827191,0.291140806357,-0.886537047571,-0.115315012634,-0.254115492105,0.290141701698,-0.7453054,-0.0784532,13.73911665,-14.0547647476,13.796664238,-1.62880134583,-0.115315012634,-0.254115492105,0.290141701698,-4.38000011444,-290.554229736,-22.4452152252,-75.9674110413,0.12083005905000022,-6.895370483400001,-19.63239765167,0.3376836776999994,-1.585004925730001,-2.9055423737000012
2018-07-21 01:05:32.100,0.149748827191,0.291140806357,-0.886537047571,-0.115315012634,-0.254115492105,0.290141701698,-0.7453054,-0.0784532,13.73911665,-14.0547647476,13.796664238,-1.62880134583,-0.115315012634,-0.254115492105,0.290141701698,-4.38000011444,-290.554229736,-22.4452152252,-75.9674110413,0.12083005905000022,-6.895370483400001,-19.63239765167,0.3376836776999994,-1.585004925730001,-2.9055423737000012
2018-07-21 01:05:32.150,0.149748827191,0.291140806357,-0.886537047571,-0.115315012634,-0.254115492105,0.290141701698,-0.7453054,-0.0784532,13.73911665,-15.0010519028,12.314658165,-1.60439538956,-0.115315012634,-0.254115492105,0.290141701698,-4.25999975204,-277.533538818,-24.1405944824,-75.9674110413,0.02083015441999958,-6.895370483400001,-19.23298835757,0.5741081238000003,-1.604395389560001,-2.775335311900001
2018-07-21 01:05:32.200,0.149748827191,0.291140806357,-0.886537047571,-0.115315012634,-0.254115492105,0.290141701698,-0.7453054,-0.0784532,13.73911665,-15.0010519028,12.314658165,-1.60439538956,-0.115315012634,-0.254115492105,0.290141701698,-4.25999975204,-277.533538818,-24.1405944824,-75.9674110413,0.02083015441999958,-6.9053688049,-18.66869926457,0.8709697723000005,-1.6101688146600008,-2.7974452971999995
2018-07-21 01:05:32.250,0.149748827191,0.291140806357,-0.886537047571,-0.115315012634,-0.254115492105,0.290141701698,-0.7453054,-0.0784532,13.73911665,-15.0010519028,12.314658165,-1.60439538956,-0.115315012634,-0.254115492105,0.290141701698,-4.13999986649,-279.744537354,-25.807718277,-76.9674110413,0.0008301734899998081,-6.9053688049,-18.25129318237,1.0797920226999995,-1.631074070930001,-2.7974452971999995
2018-07-21 01:05:32.300,0.149748827191,0.291140806357,-0.886537047571,-0.115315012634,-0.254115492105,0.290141701698,-0.7453054,-0.0784532,13.73911665,-15.0010519028,12.314658165,-1.60439538956,-0.115315012634,-0.254115492105,0.290141701698,-4.13999986649,-279.744537354,-25.807718277,-76.9674110413,0.0008301734899998081,-6.9053688049,-18.25129318237,1.0797920226999995,-1.631074070930001,-2.7974452971999995
2018-07-21 01:05:32.350,0.121116782675,0.317397233797,-0.906516068977,0.0031061663758,-0.23840162158,0.300054490566,-0.95124505,-0.2745862,12.1014061,-15.0010519028,12.314658165,-1.60439538956,-0.115315012634,-0.254115492105,0.290141701698,-4.00999975204,-270.494659424,-27.4292316437,-68.1589393616,-0.86227011681,-5.336933135999999,-17.835515022270002,1.2799310683999998,-1.643649697300001,-2.7049465179000016
2018-07-21 01:05:32.400,0.121116782675,0.317397233797,-0.906516068977,0.0031061663758,-0.23840162158,0.300054490566,-0.95124505,-0.2745862,12.1014061,-15.9377498627,10.3560676575,-1.68234074116,0.0031061663758,-0.23840162158,0.300054490566,-4.00999975204,-270.494659424,-27.4292316437,-68.1589393616,-0.86227011681,-5.336933135999999,-17.274397850070002,1.5108060837000004,-1.6823407411600009,-2.7049465179000016
