%time,field.orientation.x,field.orientation.y,field.orientation.z,field.angular_velocity.x,field.angular_velocity.y,field.angular_velocity.z,field.linear_acceleration.x,field.linear_acceleration.y,field.linear_acceleration.z,field.twist.linear.x,field.twist.linear.y,field.twist.linear.z,field.twist.angular.x,field.twist.angular.y,field.twist.angular.z,field.alt_error,field.aspd_error,field.xtrack_error,delta_yaw,delta_pitch,delta_roll,delta_x,delta_y,delta_z,delta_roll_airspeed
2018-10-05 19:31:57.500,,,,,,,,,,,,,,,,-64.7099990845,-2307.73120117,0.0,80.785697937,-8.05618882179,14.151241302499997,-3.82125377655,21.1228256226,3.20704865456,15.0
2018-10-05 19:31:57.550,,,,,,,,,,-21.1306190491,3.95687937737,3.22098350525,0.24808332324,-0.1528224051,0.123729474843,-64.7099990845,-2307.73120117,0.0,80.785697937,-8.17618882656,14.691240310699996,-3.56031370163,21.1216545105,3.19300746918,15.0
2018-10-05 19:31:57.600,,,,,,,,,,-21.1306190491,3.95687937737,3.22098350525,0.24808332324,-0.1528224051,0.123729474843,-65.0599975586,-2307.73120117,0.0,80.785697937,-8.20618879795,17.071241378799996,-2.84819173813,21.0924758911,3.27995538712,15.0
2018-10-05 19:31:57.650,,,,,,,,,,-21.1306190491,3.95687937737,3.22098350525,0.24808332324,-0.1528224051,0.123729474843,-65.0599975586,-2307.73120117,0.0,80.785697937,-8.20618879795,17.071241378799996,-2.84819173813,21.0924758911,3.27995538712,15.0
2018-10-05 19:31:57.700,,,,,,,,,,-21.1306190491,3.95687937737,3.22098350525,0.24808332324,-0.1528224051,0.123729474843,-65.4199981689,-2289.93261719,0.0,80.785697937,-8.226188778880001,20.841239929199997,-2.47405695915,21.0630607605,3.157954216,15.0
2018-10-05 19:31:57.750,,,,,,,,,,-21.0538978577,2.40578484535,3.09897255898,0.24808332324,-0.1528224051,0.123729474843,-0.280000001192,-2289.93261719,-42.2484321594,178.785697937,-9.146188735960001,58.911239624,-2.35098791122,21.0495166779,3.0439696312,15.0
2018-10-05 19:31:57.800,,,,,,,,,,-21.0538978577,2.40578484535,3.09897255898,0.24808332324,-0.1528224051,0.123729474843,-0.280000001192,-2289.93261719,-42.2484321594,183.79524230959998,-8.74251770973,53.0590171814,-2.07410264015,20.9845848083,2.92088532448,15.0
2018-10-05 19:31:57.850,-0.0460468063987,0.263022233559,-0.962370130966,0.581272780895,-0.0846121758223,0.259894758463,0.3530394,-0.9022118,9.07115125,-21.0538978577,2.40578484535,3.09897255898,0.24808332324,-0.1528224051,0.123729474843,-0.610000014305,-779.993041992,-40.2021942139,182.79524230959998,-13.22251749039,55.1290168763,-1.94583106041,20.9287052155,2.86502528191,15.0
2018-10-05 19:31:57.900,-0.0460468063987,0.263022233559,-0.962370130966,0.581272780895,-0.0846121758223,0.259894758463,0.3530394,-0.9022118,9.07115125,-21.0538978577,2.40578484535,3.09897255898,0.24808332324,-0.1528224051,0.123729474843,-0.610000014305,-779.993041992,-40.2021942139,182.79524230959998,-13.22251749039,55.1290168763,-1.94583106041,20.9287052155,2.86502528191,15.0
2018-10-05 19:31:57.950,-0.0460468063987,0.263022233559,-0.962370130966,0.581272780895,-0.0846121758223,0.259894758463,0.3530394,-0.9022118,9.07115125,-21.0538978577,2.40578484535,3.09897255898,0.24808332324,-0.1528224051,0.123729474843,-0.610000014305,-779.993041992,-40.2021942139,182.79524230959998,-13.46251773834,58.0690174103,-1.73866415024,20.8344211578,2.80654549599,15.0
2018-10-05 19:31:58.000,-0.0460468063987,0.263022233559,-0.962370130966,0.581272780895,-0.0846121758223,0.259894758463,0.3530394,-0.9022118,9.07115125,-20.7083530426,1.49020349979,2.93668222427,0.581272780895,-0.0846121758223,0.259894758463,-0.930000007153,-769.400024414,-38.1099739075,182.79524230959998,-14.362517833710001,60.6290168763,-1.42656350136,20.6663188934,2.98357486725,15.0
2018-10-05 19:31:58.050,-0.0460468063987,0.263022233559,-0.962370130966,0.581272780895,-0.0846121758223,0.259894758463,0.3530394,-0.9022118,9.07115125,-20.7083530426,1.49020349979,2.93668222427,0.581272780895,-0.0846121758223,0.259894758463,-0.930000007153,-769.400024414,-38.1099739075,182.79524230959998,-14.12251758575,60.0890178681,-1.36584925652,20.620059967,3.0260746479,15.0
2018-10-05 19:31:58.100,-0.0460468063987,0.263022233559,-0.962370130966,0.581272780895,-0.0846121758223,0.259894758463,0.3530394,-0.9022118,9.07115125,-20.7083530426,1.49020349979,2.93668222427,0.581272780895,-0.0846121758223,0.259894758463,-1.25999999046,-769.400024414,-36.052482605,181.79524230959998,-14.062517642980001,61.3290176392,-1.21023333073,20.4396419525,3.05072236061,15.0
2018-10-05 19:31:58.150,-0.0460468063987,0.263022233559,-0.962370130966,0.581272780895,-0.0846121758223,0.259894758463,0.3530394,-0.9022118,9.07115125,-20.7083530426,1.49020349979,2.93668222427,0.581272780895,-0.0846121758223,0.259894758463,-1.25999999046,-769.400024414,-36.052482605,181.79524230959998,-14.07251787186,61.989017486600005,-1.19332921505,20.3961811066,3.0449860096,15.0
2018-10-05 19:31:58.200,-0.0460468063987,0.263022233559,-0.962370130966,0.581272780895,-0.0846121758223,0.259894758463,0.3530394,-0.9022118,9.07115125,-20.7083530426,1.49020349979,2.93668222427,0.581272780895,-0.0846121758223,0.259894758463,-1.59999990463,-769.400024414,-34.0168762207,181.79524230959998,-14.30251789093,64.6690177918,-1.17180323601,20.2235050201,2.91286635399,15.0
2018-10-05 19:31:58.250,-0.0460468063987,0.263022233559,-0.962370130966,0.581272780895,-0.0846121758223,0.259894758463,0.3530394,-0.9022118,9.07115125,-20.1859874725,1.17218315601,2.86181378365,0.581272780895,-0.0846121758223,0.259894758463,-1.94999992847,-742.668518066,-32.0133171082,181.79524230959998,-14.53251743317,66.4590187073,-1.17649722099,20.1046085358,2.79607534409,15.0
2018-10-05 19:31:58.300,-0.0359734937733,-0.0263938991102,-0.99899811544,1.07383811474,0.0909585431218,0.0605394132435,-1.2552512,0.588399,8.2768126,-20.1859874725,1.17218315601,2.86181378365,0.581272780895,-0.0846121758223,0.259894758463,-1.94999992847,-742.668518066,-32.0133171082,186.2890930176,-12.04220247268,38.13357973101,-1.17649722099,20.1046085358,2.79607534409,15.0
2018-10-05 19:31:58.350,-0.0359734937733,-0.0263938991102,-0.99899811544,1.07383811474,0.0909585431218,0.0605394132435,-1.2552512,0.588399,8.2768126,-20.1859874725,1.17218315601,2.86181378365,0.581272780895,-0.0846121758223,0.259894758463,-1.94999992847,-742.668518066,-32.0133171082,186.2890930176,-12.04220247268,38.13357973101,-1.19699978828,19.9828071594,2.67586565018,15.0
2018-10-05 19:31:58.400,-0.0359734937733,-0.0263938991102,-0.99899811544,1.07383811474,0.0909585431218,0.0605394132435,-1.2552512,0.588399,8.2768126,-20.1859874725,1.17218315601,2.86181378365,0.581272780895,-0.0846121758223,0.259894758463,-2.27999997139,-742.668518066,-30.0180587769,186.2890930176,-12.34220266342,37.83358049391,-1.30032086372,19.8153991699,2.49989819527,15.0
2018-10-05 19:31:58.450,-0.0359734937733,-0.0263938991102,-0.99899811544,1.07383811474,0.0909585431218,0.0605394132435,-1.2552512,0.588399,8.2768126,-19.771156311,1.33355784416,2.46077370644,1.07383811474,0.0909585431218,0.0605394132435,-2.59999990463,-699.376098633,-28.0623588562,186.2890930176,-12.622202396390001,39.62358140941,-1.33355784416,19.771156311,2.46077370644,15.0
2018-10-05 19:31:58.500,-0.0359734937733,-0.0263938991102,-0.99899811544,1.07383811474,0.0909585431218,0.0605394132435,-1.2552512,0.588399,8.2768126,-19.771156311,1.33355784416,2.46077370644,1.07383811474,0.0909585431218,0.0605394132435,-2.90999984741,-699.376098633,-26.1222515106,186.2890930176,-12.612202167509999,39.74358034131,-1.5154594183,19.6041584015,2.42938756943,15.0
2018-10-05 19:31:58.550,-0.0359734937733,-0.0263938991102,-0.99899811544,1.07383811474,0.0909585431218,0.0605394132435,-1.2552512,0.588399,8.2768126,-19.771156311,1.33355784416,2.46077370644,1.07383811474,0.0909585431218,0.0605394132435,-2.90999984741,-699.376098633,-26.1222515106,186.2890930176,-13.13220262527,39.75358247761,-1.56300210953,19.5626029968,2.42527103424,15.0
2018-10-05 19:31:58.600,-0.0359734937733,-0.0263938991102,-0.99899811544,1.07383811474,0.0909585431218,0.0605394132435,-1.2552512,0.588399,8.2768126,-19.771156311,1.33355784416,2.46077370644,1.07383811474,0.0909585431218,0.0605394132435,-2.90999984741,-699.376098633,-26.1222515106,186.2890930176,-13.122202396390001,39.76358079911,-1.85605823994,19.3736553192,2.27183675766,15.0
2018-10-05 19:31:58.650,-0.0191281483497,-0.178242195796,-0.983777237537,0.614236235619,0.0861809551716,-0.167258650064,-1.22583125,0.392266,8.3944924,-19.771156311,1.33355784416,2.46077370644,1.07383811474,0.0909585431218,0.0605394132435,-2.90999984741,-699.376098633,-26.1222515106,186.2890930176,-13.122202396390001,39.76358079911,-1.85605823994,19.3736553192,2.27183675766,15.0
2018-10-05 19:31:58.700,-0.0191281483497,-0.178242195796,-0.983777237537,0.614236235619,0.0861809551716,-0.167258650064,-1.22583125,0.392266,8.3944924,-19.771156311,1.33355784416,2.46077370644,1.07383811474,0.0909585431218,0.0605394132435,-3.22000002861,-663.071044922,-24.1759395599,184.8424224854,-11.51798152924,22.240554809600003,-2.10586190224,19.2346134186,2.13438200951,15.0
2018-10-05 19:31:58.750,-0.0191281483497,-0.178242195796,-0.983777237537,0.614236235619,0.0861809551716,-0.167258650064,-1.22583125,0.392266,8.3944924,-19.1694545746,2.26515054703,2.08831453323,0.614236235619,0.0861809551716,-0.167258650064,-3.22000002861,-663.071044922,-24.1759395599,184.8424224854,-11.51798152924,22.240554809600003,-2.10586190224,19.2346134186,2.13438200951,15.0
2018-10-05 19:31:58.800,-0.0191281483497,-0.178242195796,-0.983777237537,0.614236235619,0.0861809551716,-0.167258650064,-1.22583125,0.392266,8.3944924,-19.1694545746,2.26515054703,2.08831453323,0.614236235619,0.0861809551716,-0.167258650064,-3.51999998093,-624.027648926,-22.2701396942,184.8424224854,-12.05798149114,22.240554809600003,-2.3520526886,19.1303195953,2.081823349,15.0
2018-10-05 19:31:58.850,-0.0191281483497,-0.178242195796,-0.983777237537,0.614236235619,0.0861809551716,-0.167258650064,-1.22583125,0.392266,8.3944924,-19.1694545746,2.26515054703,2.08831453323,0.614236235619,0.0861809551716,-0.167258650064,-3.80999994278,-624.027648926,-20.3490371704,184.8424224854,-12.69798088074,22.250553131100002,-2.3520526886,19.1303195953,2.081823349,15.0
2018-10-05 19:31:58.900,-0.0191281483497,-0.178242195796,-0.983777237537,0.614236235619,0.0861809551716,-0.167258650064,-1.22583125,0.392266,8.3944924,-19.1694545746,2.26515054703,2.08831453323,0.614236235619,0.0861809551716,-0.167258650064,-3.80999994278,-624.027648926,-20.3490371704,184.8424224854,-12.67798137664,22.250553131100002,-3.06325554848,18.8787345886,1.86423659325,15.0
2018-10-05 19:31:58.950,-0.0191281483497,-0.178242195796,-0.983777237537,0.614236235619,0.0861809551716,-0.167258650064,-1.22583125,0.392266,8.3944924,-18.8494281769,3.14274668694,1.79209756851,0.614236235619,0.0861809551716,-0.167258650064,-4.09999990463,-624.027648926,-18.4329681396,185.8424224854,-13.28798103334,22.250553131100002,-3.22633481026,18.8209896088,1.72589790821,15.0
2018-10-05 19:31:59.000,-0.0191281483497,-0.178242195796,-0.983777237537,0.614236235619,0.0861809551716,-0.167258650064,-1.22583125,0.392266,8.3944924,-18.8494281769,3.14274668694,1.79209756851,0.614236235619,0.0861809551716,-0.167258650064,-4.09999990463,-624.027648926,-18.4329681396,185.8424224854,-13.25798130034,22.250553131100002,-3.48471140862,18.7327957153,1.52680790424,15.0
2018-10-05 19:31:59.050,-0.0191281483497,-0.178242195796,-0.983777237537,0.614236235619,0.0861809551716,-0.167258650064,-1.22583125,0.392266,8.3944924,-18.8494281769,3.14274668694,1.79209756851,0.614236235619,0.0861809551716,-0.167258650064,-4.34999990463,-599.689697266,-16.5143203735,185.8424224854,-13.76798152924,22.240554809600003,-3.67069649696,18.6755466461,1.41952395439,15.0
2018-10-05 19:31:59.100,0.00248741533929,-0.308849215617,-0.950135267077,0.409346818924,0.030310023576,-0.224598199129,-1.1179581,0.51975245,8.433719,-18.8494281769,3.14274668694,1.79209756851,0.614236235619,0.0861809551716,-0.167258650064,-4.34999990463,-599.689697266,-16.5143203735,182.3991699219,-9.9370692968,6.8476791382,-3.86858773232,18.6160507202,1.32750821114,15.0
2018-10-05 19:31:59.150,0.00248741533929,-0.308849215617,-0.950135267077,0.409346818924,0.030310023576,-0.224598199129,-1.1179581,0.51975245,8.433719,-18.8494281769,3.14274668694,1.79209756851,0.614236235619,0.0861809551716,-0.167258650064,-4.34999990463,-599.689697266,-16.5143203735,182.3991699219,-9.9370692968,6.8476791382,-3.86858773232,18.6160507202,1.32750821114,15.0
2018-10-05 19:31:59.200,0.00248741533929,-0.308849215617,-0.950135267077,0.409346818924,0.030310023576,-0.224598199129,-1.1179581,0.51975245,8.433719,-18.5271224976,4.18487596512,1.16933858395,0.409346818924,0.030310023576,-0.224598199129,-4.57999992371,-599.689697266,-14.734834671,183.3991699219,-10.477069258699998,6.8376770019999995,-4.18487596512,18.5271224976,1.16933858395,15.0
2018-10-05 19:31:59.250,0.00248741533929,-0.308849215617,-0.950135267077,0.409346818924,0.030310023576,-0.224598199129,-1.1179581,0.51975245,8.433719,-18.5271224976,4.18487596512,1.16933858395,0.409346818924,0.030310023576,-0.224598199129,-4.76999998093,-571.638671875,-12.8423042297,183.3991699219,-10.927069068000002,6.807678222699998,-4.67863035202,18.3803520203,0.848840773106,15.0
2018-10-05 19:31:59.300,0.00248741533929,-0.308849215617,-0.950135267077,0.409346818924,0.030310023576,-0.224598199129,-1.1179581,0.51975245,8.433719,-18.5271224976,4.18487596512,1.16933858395,0.409346818924,0.030310023576,-0.224598199129,-4.76999998093,-571.638671875,-12.8423042297,183.3991699219,-10.927069068000002,6.807678222699998,-4.67863035202,18.3803520203,0.848840773106,15.0
2018-10-05 19:31:59.350,0.00248741533929,-0.308849215617,-0.950135267077,0.409346818924,0.030310023576,-0.224598199129,-1.1179581,0.51975245,8.433719,-18.5271224976,4.18487596512,1.16933858395,0.409346818924,0.030310023576,-0.224598199129,-4.76999998093,-571.638671875,-12.8423042297,183.3991699219,-10.927069068000002,6.807678222699998,-4.67863035202,18.3803520203,0.848840773106,15.0
2018-10-05 19:31:59.400,0.00248741533929,-0.308849215617,-0.950135267077,0.409346818924,0.030310023576,-0.224598199129,-1.1179581,0.51975245,8.433719,-18.1792583466,5.33011722565,0.318096756935,0.409346818924,0.030310023576,-0.224598199129,-4.92999982834,-571.638671875,-10.9358482361,184.3991699219,-11.2870696783,6.737678527899995,-5.33011722565,18.1792583466,0.318096756935,15.0
2018-10-05 19:31:59.450,0.0166228076545,-0.349649394725,-0.933213641868,0.236311987042,-0.0156233292073,-0.24187964201,-1.1964113,0.46091255,7.34518085,-18.1792583466,5.33011722565,0.318096756935,0.409346818924,0.030310023576,-0.224598199129,-5.03999996185,-554.51184082,-9.07461166382,184.3991699219,-11.527069449399999,6.7176780701,-5.53324651718,18.1180877686,0.185164883733,15.0
2018-10-05 19:31:59.500,0.0166228076545,-0.349649394725,-0.933213641868,0.236311987042,-0.0156233292073,-0.24187964201,-1.1964113,0.46091255,7.34518085,-18.1792583466,5.33011722565,0.318096756935,0.409346818924,0.030310023576,-0.224598199129,-5.03999996185,-554.51184082,-9.07461166382,180.9329910278,-8.26547813419,1.9060554503999967,-5.92079544067,18.005607605,-0.0903636366129,15.0
2018-10-05 19:31:59.550,0.0166228076545,-0.349649394725,-0.933213641868,0.236311987042,-0.0156233292073,-0.24187964201,-1.1964113,0.46091255,7.34518085,-18.1792583466,5.33011722565,0.318096756935,0.409346818924,0.030310023576,-0.224598199129,-5.03999996185,-554.51184082,-9.07461166382,180.9329910278,-8.26547813419,1.9060554503999967,-5.92079544067,18.005607605,-0.0903636366129,15.0
2018-10-05 19:31:59.600,0.0166228076545,-0.349649394725,-0.933213641868,0.236311987042,-0.0156233292073,-0.24187964201,-1.1964113,0.46091255,7.34518085,-18.1792583466,5.33011722565,0.318096756935,0.409346818924,0.030310023576,-0.224598199129,-5.11999988556,-554.51184082,-7.19826126099,181.9329910278,-8.45547866819,1.8560562133999952,-6.43012523651,17.8552379608,-0.445641160011,15.0
2018-10-05 19:31:59.650,0.0166228076545,-0.349649394725,-0.933213641868,0.236311987042,-0.0156233292073,-0.24187964201,-1.1964113,0.46091255,7.34518085,-17.7922897339,6.63754224777,-0.580803632736,0.236311987042,-0.0156233292073,-0.24187964201,-5.13999986649,-541.425720215,-5.32337188721,181.9329910278,-8.51547813419,1.8260574341000009,-6.54659986496,17.8194217682,-0.507285892963,15.0
2018-10-05 19:31:59.700,0.0166228076545,-0.349649394725,-0.933213641868,0.236311987042,-0.0156233292073,-0.24187964201,-1.1964113,0.46091255,7.34518085,-17.7922897339,6.63754224777,-0.580803632736,0.236311987042,-0.0156233292073,-0.24187964201,-5.13999986649,-541.425720215,-5.32337188721,181.9329910278,-8.51547813419,1.8260574341000009,-6.54659986496,17.8194217682,-0.507285892963,15.0
2018-10-05 19:31:59.750,0.0166228076545,-0.349649394725,-0.933213641868,0.236311987042,-0.0156233292073,-0.24187964201,-1.1964113,0.46091255,7.34518085,-17.7922897339,6.63754224777,-0.580803632736,0.236311987042,-0.0156233292073,-0.24187964201,-5.13999986649,-541.425720215,-3.44887924194,182.9329910278,-8.50547885899,1.746055602999995,-6.93850231171,17.7042884827,-0.785385668278,15.0
2018-10-05 19:31:59.800,0.0166228076545,-0.349649394725,-0.933213641868,0.236311987042,-0.0156233292073,-0.24187964201,-1.1964113,0.46091255,7.34518085,-17.7922897339,6.63754224777,-0.580803632736,0.236311987042,-0.0156233292073,-0.24187964201,-5.13999986649,-541.425720215,-3.44887924194,182.9329910278,-8.50547885899,1.7160568237000007,-7.4620885849,17.5482902527,-1.11545801163,15.0
2018-10-05 19:31:59.850,0.0166228076545,-0.349649394725,-0.933213641868,0.236311987042,-0.0156233292073,-0.24187964201,-1.1964113,0.46091255,7.34518085,-17.7922897339,6.63754224777,-0.580803632736,0.236311987042,-0.0156233292073,-0.24187964201,-5.07999992371,-528.948974609,-1.57975006104,182.9329910278,-8.37547874449,1.6860580443999993,-7.55276679993,17.5127849579,-1.19688272476,15.0
2018-10-05 19:31:59.900,0.0240980609441,-0.364528708525,-0.921111416948,0.0291774850339,-0.0645141974092,-0.307175010443,-1.14737805,0.8237586,8.58081875,-17.7922897339,6.63754224777,-0.580803632736,0.236311987042,-0.0156233292073,-0.24187964201,-5.07999992371,-528.948974609,-1.57975006104,177.550201416,-5.2199764251600005,0.12509918210000137,-7.55276679993,17.5127849579,-1.19688272476,15.0
2018-10-05 19:31:59.950,0.0240980609441,-0.364528708525,-0.921111416948,0.0291774850339,-0.0645141974092,-0.307175010443,-1.14737805,0.8237586,8.58081875,-17.361907959,7.99976587296,-1.60808706284,0.0291774850339,-0.0645141974092,-0.307175010443,-5.07999992371,-528.948974609,-1.57975006104,177.550201416,-4.93997669216,-86.6848983765,-7.99976587296,17.361907959,-1.60808706284,15.0
2018-10-05 19:32:00.000,0.0240980609441,-0.364528708525,-0.921111416948,0.0291774850339,-0.0645141974092,-0.307175010443,-1.14737805,0.8237586,8.58081875,-17.361907959,7.99976587296,-1.60808706284,0.0291774850339,-0.0645141974092,-0.307175010443,-5.0,-528.948974609,0.290424346924,178.550201416,-4.93997669216,-86.6548995972,-8.30107212067,17.2647914886,-1.82648444176,15.0
2018-10-05 19:32:00.050,0.0240980609441,-0.364528708525,-0.921111416948,0.0291774850339,-0.0645141974092,-0.307175010443,-1.14737805,0.8237586,8.58081875,-17.361907959,7.99976587296,-1.60808706284,0.0291774850339,-0.0645141974092,-0.307175010443,-5.0,-528.948974609,0.290424346924,178.550201416,-4.93997669216,-86.6548995972,-8.30107212067,17.2647914886,-1.82648444176,15.0
2018-10-05 19:32:00.100,0.0240980609441,-0.364528708525,-0.921111416948,0.0291774850339,-0.0645141974092,-0.307175010443,-1.14737805,0.8237586,8.58081875,-17.361907959,7.99976587296,-1.60808706284,0.0291774850339,-0.0645141974092,-0.307175010443,-4.85999965668,-517.545532227,2.13388824463,179.550201416,-4.659976005560001,-86.6449012757,-8.68313980103,17.1466751099,-1.9386330843,15.0
2018-10-05 19:32:00.150,0.0240980609441,-0.364528708525,-0.921111416948,0.0291774850339,-0.0645141974092,-0.307175010443,-1.14737805,0.8237586,8.58081875,-17.361907959,7.99976587296,-1.60808706284,0.0291774850339,-0.0645141974092,-0.307175010443,-4.85999965668,-517.545532227,2.13388824463,179.550201416,-4.659976005560001,-86.6449012757,-9.07175350189,17.034954071,-1.92531454563,15.0
2018-10-05 19:32:00.200,0.0240980609441,-0.364528708525,-0.921111416948,0.0291774850339,-0.0645141974092,-0.307175010443,-1.14737805,0.8237586,8.58081875,-16.9677410126,9.29695034027,-1.92230188847,0.0291774850339,-0.0645141974092,-0.307175010443,-4.71000003815,-517.545532227,4.00360107422,179.550201416,-4.499976158160001,-86.6548995972,-9.29695034027,16.9677410126,-1.92230188847,15.0
2018-10-05 19:32:00.250,0.0240980609441,-0.364528708525,-0.921111416948,0.0291774850339,-0.0645141974092,-0.307175010443,-1.14737805,0.8237586,8.58081875,-16.9677410126,9.29695034027,-1.92230188847,0.0291774850339,-0.0645141974092,-0.307175010443,-4.53999996185,-509.769256592,5.86243438721,180.550201416,-4.429976463360001,-86.6649017334,-9.6566991806,16.8686199188,-1.8321672678,15.0
2018-10-05 19:32:00.300,0.0499934980643,-0.178702599962,-0.967405048919,-1.86713075638,-0.000546429306269,-0.104529976845,-1.22583125,1.08853815,12.2975391,-16.9677410126,9.29695034027,-1.92230188847,0.0291774850339,-0.0645141974092,-0.307175010443,-4.53999996185,-509.769256592,5.86243438721,180.550201416,-4.4699764251600005,-86.6548995972,-9.78720760345,16.8363800049,-1.76956152916,15.0
2018-10-05 19:32:00.350,0.0499934980643,-0.178702599962,-0.967405048919,-1.86713075638,-0.000546429306269,-0.104529976845,-1.22583125,1.08853815,12.2975391,-16.9677410126,9.29695034027,-1.92230188847,0.0291774850339,-0.0645141974092,-0.307175010443,-4.40000009537,-509.769256592,7.74141311646,176.36338806150002,-3.4908761978200005,-63.824079513499996,-9.78720760345,16.8363800049,-1.76956152916,15.0
2018-10-05 19:32:00.400,0.0499934980643,-0.178702599962,-0.967405048919,-1.86713075638,-0.000546429306269,-0.104529976845,-1.22583125,1.08853815,12.2975391,-16.798582077,9.9805803299,-1.70054936409,-1.86713075638,-0.000546429306269,-0.104529976845,-4.40000009537,-509.769256592,7.74141311646,176.36338806150002,-3.4908761978200005,-63.824079513499996,-9.94150257111,16.8074207306,-1.72881114483,15.0
2018-10-05 19:32:00.450,0.0499934980643,-0.178702599962,-0.967405048919,-1.86713075638,-0.000546429306269,-0.104529976845,-1.22583125,1.08853815,12.2975391,-16.798582077,9.9805803299,-1.70054936409,-1.86713075638,-0.000546429306269,-0.104529976845,-4.25999975204,-513.828063965,9.63536071777,176.36338806150002,-3.39087677002,-63.7640781403,-9.99844074249,16.8003921509,-1.67662513256,15.0
2018-10-05 19:32:00.500,0.0499934980643,-0.178702599962,-0.967405048919,-1.86713075638,-0.000546429306269,-0.104529976845,-1.22583125,1.08853815,12.2975391,-16.798582077,9.9805803299,-1.70054936409,-1.86713075638,-0.000546429306269,-0.104529976845,-4.25999975204,-513.828063965,9.63536071777,176.36338806150002,-3.39087677002,-63.724081039400005,-9.98535251617,16.8105964661,-1.68733930588,15.0
2018-10-05 19:32:00.550,0.0499934980643,-0.178702599962,-0.967405048919,-1.86713075638,-0.000546429306269,-0.104529976845,-1.22583125,1.08853815,12.2975391,-16.798582077,9.9805803299,-1.70054936409,-1.86713075638,-0.000546429306269,-0.104529976845,-4.13999986649,-529.87097168,11.5159492493,177.36338806150002,-3.200876235920001,-63.694078445399995,-9.97198200226,16.8191318512,-1.70455563068,15.0
2018-10-05 19:32:00.600,0.0499934980643,-0.178702599962,-0.967405048919,-1.86713075638,-0.000546429306269,-0.104529976845,-1.22583125,1.08853815,12.2975391,-16.798582077,9.9805803299,-1.70054936409,-1.86713075638,-0.000546429306269,-0.104529976845,-4.13999986649,-529.87097168,11.5159492493,177.36338806150002,-3.1808767319199998,-63.6840801239,-9.91155910492,16.8489894867,-1.72305238247,15.0
2018-10-05 19:32:00.650,0.0499934980643,-0.178702599962,-0.967405048919,-1.86713075638,-0.000546429306269,-0.104529976845,-1.22583125,1.08853815,12.2975391,-16.8727264404,9.82861614227,-1.8255906105,-1.86713075638,-0.000546429306269,-0.104529976845,-4.0,-529.87097168,13.4196853638,177.36338806150002,-2.9008760452200004,-63.6740779877,-9.8564414978,16.8644275665,-1.79207611084,15.0
2018-10-05 19:32:00.700,0.0499934980643,-0.178702599962,-0.967405048919,-1.86713075638,-0.000546429306269,-0.104529976845,-1.22583125,1.08853815,12.2975391,-16.8727264404,9.82861614227,-1.8255906105,-1.86713075638,-0.000546429306269,-0.104529976845,-4.0,-529.87097168,13.4196853638,177.36338806150002,-2.9008760452200004,-63.6740779877,-9.76225185394,16.9056911469,-1.8349840641,15.0
2018-10-05 19:32:00.750,0.0499934980643,-0.178702599962,-0.967405048919,-1.86713075638,-0.000546429306269,-0.104529976845,-1.22583125,1.08853815,12.2975391,-16.8727264404,9.82861614227,-1.8255906105,-1.86713075638,-0.000546429306269,-0.104529976845,-3.84999990463,-529.87097168,15.3211135864,178.36338806150002,-2.6008768081200007,-63.6840801239,-9.59954929352,16.9683380127,-1.92031466961,15.0
2018-10-05 19:32:00.800,0.115793022276,0.122235250883,-0.970143588588,-0.610817432404,-0.0028857504949,0.00525029096752,-1.38273765,-0.06864655,8.3944924,-16.8727264404,9.82861614227,-1.8255906105,-1.86713075638,-0.000546429306269,-0.104529976845,-3.84999990463,-529.87097168,15.3211135864,178.36338806150002,-2.6008768081200007,-63.6840801239,-9.59954929352,16.9683380127,-1.92031466961,15.0
2018-10-05 19:32:00.850,0.115793022276,0.122235250883,-0.970143588588,-0.610817432404,-0.0028857504949,0.00525029096752,-1.38273765,-0.06864655,8.3944924,-16.8727264404,9.82861614227,-1.8255906105,-1.86713075638,-0.000546429306269,-0.104529976845,-3.67999982834,-534.462341309,17.2321090698,175.0842971802,-0.7939319611000002,-27.8517303467,-9.36685752869,17.0451641083,-2.0933816433,15.0
2018-10-05 19:32:00.900,0.115793022276,0.122235250883,-0.970143588588,-0.610817432404,-0.0028857504949,0.00525029096752,-1.38273765,-0.06864655,8.3944924,-17.0741996765,9.2577085495,-2.17751502991,-0.610817432404,-0.0028857504949,0.00525029096752,-3.67999982834,-534.462341309,17.2321090698,175.0842971802,-0.7739315033,-27.8517303467,-9.36685752869,17.0451641083,-2.0933816433,15.0
2018-10-05 19:32:00.950,0.115793022276,0.122235250883,-0.970143588588,-0.610817432404,-0.0028857504949,0.00525029096752,-1.38273765,-0.06864655,8.3944924,-17.0741996765,9.2577085495,-2.17751502991,-0.610817432404,-0.0028857504949,0.00525029096752,-3.67999982834,-534.462341309,17.2321090698,175.0842971802,-0.7739315033,-27.8517303467,-9.208319664,17.0934352875,-2.22026705742,15.0
2018-10-05 19:32:01.000,0.115793022276,0.122235250883,-0.970143588588,-0.610817432404,-0.0028857504949,0.00525029096752,-1.38273765,-0.06864655,8.3944924,-17.0741996765,9.2577085495,-2.17751502991,-0.610817432404,-0.0028857504949,0.00525029096752,-3.28999996185,-536.008422852,21.0271682739,176.0842971802,-0.2939319611000002,-27.841728210499998,-9.02828121185,17.1435661316,-2.34334588051,15.0
2018-10-05 19:32:01.050,0.115793022276,0.122235250883,-0.970143588588,-0.610817432404,-0.0028857504949,0.00525029096752,-1.38273765,-0.06864655,8.3944924,-17.0741996765,9.2577085495,-2.17751502991,-0.610817432404,-0.0028857504949,0.00525029096752,-3.28999996185,-536.008422852,21.0271682739,176.0842971802,0.2760677337999997,-27.841728210499998,-8.75176525116,17.23229599,-2.4742577076,15.0
2018-10-05 19:32:01.100,0.115793022276,0.122235250883,-0.970143588588,-0.610817432404,-0.0028857504949,0.00525029096752,-1.38273765,-0.06864655,8.3944924,-17.0741996765,9.2577085495,-2.17751502991,-0.610817432404,-0.0028857504949,0.00525029096752,-3.28999996185,-536.008422852,21.0271682739,176.0842971802,0.2760677337999997,-27.841728210499998,-8.75176525116,17.23229599,-2.4742577076,15.0
2018-10-05 19:32:01.150,0.115793022276,0.122235250883,-0.970143588588,-0.610817432404,-0.0028857504949,0.00525029096752,-1.38273765,-0.06864655,8.3944924,-17.3663825989,8.34590625763,-2.60109615326,-0.610817432404,-0.0028857504949,0.00525029096752,-3.06999993324,-536.008422852,22.9142074585,176.0842971802,0.8160676956100001,-27.841728210499998,-8.34590625763,17.3663825989,-2.60109615326,15.0
2018-10-05 19:32:01.200,0.115793022276,0.122235250883,-0.970143588588,-0.610817432404,-0.0028857504949,0.00525029096752,-1.38273765,-0.06864655,8.3944924,-17.3663825989,8.34590625763,-2.60109615326,-0.610817432404,-0.0028857504949,0.00525029096752,-3.06999993324,-536.008422852,22.9142074585,176.0842971802,0.8360681533700003,-27.841728210499998,-8.34590625763,17.3663825989,-2.60109615326,15.0
2018-10-05 19:32:01.250,0.115793022276,0.122235250883,-0.970143588588,-0.610817432404,-0.0028857504949,0.00525029096752,-1.38273765,-0.06864655,8.3944924,-17.3663825989,8.34590625763,-2.60109615326,-0.610817432404,-0.0028857504949,0.00525029096752,-2.81999993324,-528.595336914,24.815612793,176.0842971802,1.5160675048699996,-27.831729888899996,-8.00422668457,17.4579124451,-2.75720095634,15.0
2018-10-05 19:32:01.300,0.126066278009,0.239297172077,-0.955852315189,-0.453944385052,-0.131211340427,0.242085784674,-1.3337044,0.1176798,9.1986377,-17.3663825989,8.34590625763,-2.60109615326,-0.610817432404,-0.0028857504949,0.00525029096752,-2.81999993324,-528.595336914,24.815612793,181.4491195679,1.7614784240500008,-14.555948257399997,-7.91121053696,17.4801197052,-2.79105639458,15.0
2018-10-05 19:32:01.350,0.126066278009,0.239297172077,-0.955852315189,-0.453944385052,-0.131211340427,0.242085784674,-1.3337044,0.1176798,9.1986377,-17.3663825989,8.34590625763,-2.60109615326,-0.610817432404,-0.0028857504949,0.00525029096752,-2.81999993324,-528.595336914,24.815612793,181.4491195679,1.7614784240500008,-14.555948257399997,-7.51622581482,17.5997562408,-2.91935992241,15.0
2018-10-05 19:32:01.400,0.126066278009,0.239297172077,-0.955852315189,-0.453944385052,-0.131211340427,0.242085784674,-1.3337044,0.1176798,9.1986377,-17.6867771149,7.1964764595,-3.00065898895,-0.453944385052,-0.131211340427,0.242085784674,-2.55999994278,-528.595336914,26.7433547974,181.4491195679,2.4814786910799995,-14.565946578999998,-7.07108926773,17.7274475098,-3.01875185966,15.0
2018-10-05 19:32:01.450,0.126066278009,0.239297172077,-0.955852315189,-0.453944385052,-0.131211340427,0.242085784674,-1.3337044,0.1176798,9.1986377,-17.6867771149,7.1964764595,-3.00065898895,-0.453944385052,-0.131211340427,0.242085784674,-2.26999998093,-527.160827637,28.6418457031,181.4491195679,3.2014784812700006,-14.565946578999998,-6.85634279251,17.7905788422,-3.07000565529,15.0
2018-10-05 19:32:01.500,0.126066278009,0.239297172077,-0.955852315189,-0.453944385052,-0.131211340427,0.242085784674,-1.3337044,0.1176798,9.1986377,-17.6867771149,7.1964764595,-3.00065898895,-0.453944385052,-0.131211340427,0.242085784674,-2.26999998093,-527.160827637,28.6418457031,181.4491195679,3.2014784812700006,-14.565946578999998,-6.85634279251,17.7905788422,-3.07000565529,15.0
2018-10-05 19:32:01.550,0.126066278009,0.239297172077,-0.955852315189,-0.453944385052,-0.131211340427,0.242085784674,-1.3337044,0.1176798,9.1986377,-17.6867771149,7.1964764595,-3.00065898895,-0.453944385052,-0.131211340427,0.242085784674,-1.97999989986,-527.160827637,30.5224151611,181.4491195679,3.9614787101600006,-14.565946578999998,-6.30319738388,17.9216957092,-3.21575069427,15.0
2018-10-05 19:32:01.600,0.117931241732,0.277721579604,-0.950852983982,-0.170626536012,-0.183159023523,0.25257486105,-1.2944778,-0.06864655,10.6304086,-17.6867771149,7.1964764595,-3.00065898895,-0.453944385052,-0.131211340427,0.242085784674,-1.97999989986,-527.160827637,30.5224151611,186.3854904175,3.9474058150999998,-10.585227966299996,-5.95508909225,18.0037078857,-3.29795956612,15.0
2018-10-05 19:32:01.650,0.117931241732,0.277721579604,-0.950852983982,-0.170626536012,-0.183159023523,0.25257486105,-1.2944778,-0.06864655,10.6304086,-18.0635719299,5.71671295166,-3.34265422821,-0.170626536012,-0.183159023523,0.25257486105,-1.97999989986,-527.160827637,30.5224151611,186.3854904175,3.9474058150999998,-10.585227966299996,-5.95508909225,18.0037078857,-3.29795956612,15.0
2018-10-05 19:32:01.700,0.117931241732,0.277721579604,-0.950852983982,-0.170626536012,-0.183159023523,0.25257486105,-1.2944778,-0.06864655,10.6304086,-18.0635719299,5.71671295166,-3.34265422821,-0.170626536012,-0.183159023523,0.25257486105,-1.65999996662,-528.911193848,32.4213867188,186.3854904175,4.77740573881,-10.615230560299999,-5.59452819824,18.0851593018,-3.36421632767,15.0
2018-10-05 19:32:01.750,0.117931241732,0.277721579604,-0.950852983982,-0.170626536012,-0.183159023523,0.25257486105,-1.2944778,-0.06864655,10.6304086,-18.0635719299,5.71671295166,-3.34265422821,-0.170626536012,-0.183159023523,0.25257486105,-1.65999996662,-528.911193848,32.4213867188,186.3854904175,4.77740573881,-10.615230560299999,-5.1841711998,18.1787090302,-3.39299750328,15.0
2018-10-05 19:32:01.800,0.117931241732,0.277721579604,-0.950852983982,-0.170626536012,-0.183159023523,0.25257486105,-1.2944778,-0.06864655,10.6304086,-18.0635719299,5.71671295166,-3.34265422821,-0.170626536012,-0.183159023523,0.25257486105,-1.32999992371,-528.911193848,34.2944259644,186.3854904175,5.587406158419999,-10.635231017999999,-4.76364660263,18.2720680237,-3.40077567101,15.0
2018-10-05 19:32:01.850,0.117931241732,0.277721579604,-0.950852983982,-0.170626536012,-0.183159023523,0.25257486105,-1.2944778,-0.06864655,10.6304086,-18.0635719299,5.71671295166,-3.34265422821,-0.170626536012,-0.183159023523,0.25257486105,-1.32999992371,-528.911193848,34.2944259644,186.3854904175,5.59740591047,-10.6452293396,-4.60064840317,18.2999668121,-3.3898293972,15.0
2018-10-05 19:32:01.900,0.117931241732,0.277721579604,-0.950852983982,-0.170626536012,-0.183159023523,0.25257486105,-1.2944778,-0.06864655,10.6304086,-18.4153766632,3.98239517212,-3.35692000389,-0.170626536012,-0.183159023523,0.25257486105,-0.989999949932,-535.424255371,36.1861801147,186.3854904175,6.38740587232,-10.695228576599995,-4.14646530151,18.3895454407,-3.37462997437,15.0
2018-10-05 19:32:01.950,0.117931241732,0.277721579604,-0.950852983982,-0.170626536012,-0.183159023523,0.25257486105,-1.2944778,-0.06864655,10.6304086,-18.4153766632,3.98239517212,-3.35692000389,-0.170626536012,-0.183159023523,0.25257486105,-0.989999949932,-535.424255371,36.1861801147,186.3854904175,6.38740587232,-10.695228576599995,-3.83003973961,18.4375190735,-3.34710693359,15.0
2018-10-05 19:32:02.000,0.0875944829176,0.310862590689,-0.946408380733,-0.169139206409,-0.310518622398,0.287850052118,-0.9414384,0.2549729,13.81756985,-18.4153766632,3.98239517212,-3.35692000389,-0.170626536012,-0.183159023523,0.25257486105,-0.659999966621,-535.424255371,38.0294265747,195.01912689210002,6.0345351696,-7.792369842500001,-2.96515464783,18.572555542,-3.26103425026,15.0
2018-10-05 19:32:02.050,0.0875944829176,0.310862590689,-0.946408380733,-0.169139206409,-0.310518622398,0.287850052118,-0.9414384,0.2549729,13.81756985,-18.4153766632,3.98239517212,-3.35692000389,-0.170626536012,-0.183159023523,0.25257486105,-0.319999992847,-535.79119873,39.8933868408,195.01912689210002,6.77453517913,-7.812370300299996,-2.61565923691,18.617609024,-3.22333669662,15.0
2018-10-05 19:32:02.100,0.0875944829176,0.310862590689,-0.946408380733,-0.169139206409,-0.310518622398,0.287850052118,-0.9414384,0.2549729,13.81756985,-18.4153766632,3.98239517212,-3.35692000389,-0.170626536012,-0.183159023523,0.25257486105,-0.319999992847,-535.79119873,39.8933868408,195.01912689210002,6.77453517913,-7.842369079599997,-2.10803341866,18.6685161591,-3.15286302567,15.0
2018-10-05 19:32:02.150,0.0875944829176,0.310862590689,-0.946408380733,-0.169139206409,-0.310518622398,0.287850052118,-0.9414384,0.2549729,13.81756985,-18.6834201813,1.91661977768,-3.12534427643,-0.169139206409,-0.310518622398,0.287850052118,-0.319999992847,-535.79119873,39.8933868408,195.01912689210002,7.44453525543,-7.8623695372999975,-2.10803341866,18.6685161591,-3.15286302567,15.0
2018-10-05 19:32:02.200,0.0875944829176,0.310862590689,-0.946408380733,-0.169139206409,-0.310518622398,0.287850052118,-0.9414384,0.2549729,13.81756985,-18.6834201813,1.91661977768,-3.12534427643,-0.169139206409,-0.310518622398,0.287850052118,0.0,-535.79119873,41.7148132324,195.01912689210002,7.44453525543,-7.8823699950999995,-1.15861356258,18.7391109467,-3.02613639832,15.0
2018-10-05 19:32:02.250,0.0875944829176,0.310862590689,-0.946408380733,-0.169139206409,-0.310518622398,0.287850052118,-0.9414384,0.2549729,13.81756985,-18.6834201813,1.91661977768,-3.12534427643,-0.169139206409,-0.310518622398,0.287850052118,0.0,-535.79119873,41.7148132324,195.01912689210002,7.44453525543,-7.8823699950999995,-1.15861356258,18.7391109467,-3.02613639832,15.0
2018-10-05 19:32:02.300,0.0875944829176,0.310862590689,-0.946408380733,-0.169139206409,-0.310518622398,0.287850052118,-0.9414384,0.2549729,13.81756985,-18.6834201813,1.91661977768,-3.12534427643,-0.169139206409,-0.310518622398,0.287850052118,0.0,-535.79119873,41.7148132324,195.01912689210002,7.44453525543,-7.8823699950999995,-1.15861356258,18.7391109467,-3.02613639832,15.0
2018-10-05 19:32:02.350,0.0491049237169,0.329516438724,-0.940409548017,-0.210079520941,-0.347907662392,0.288636267185,-0.48052585,0.4314926,17.9069429,-18.6834201813,1.91661977768,-3.12534427643,-0.169139206409,-0.310518622398,0.287850052118,0.620000004768,-552.06451416,45.3759765625,194.01912689210002,8.12453508377,-7.962368011499997,-0.118027150631,18.7898979187,-2.79250216484,15.0
2018-10-05 19:32:02.400,0.0491049237169,0.329516438724,-0.940409548017,-0.210079520941,-0.347907662392,0.288636267185,-0.48052585,0.4314926,17.9069429,-18.6834201813,1.91661977768,-3.12534427643,-0.169139206409,-0.310518622398,0.287850052118,0.620000004768,-552.06451416,45.3759765625,202.545425415,6.958000957967,-6.382034301799997,0.848362982273,18.8036422729,-2.50235462189,15.0
2018-10-05 19:32:02.450,0.0491049237169,0.329516438724,-0.940409548017,-0.210079520941,-0.347907662392,0.288636267185,-0.48052585,0.4314926,17.9069429,-18.7985286713,-1.08287775517,-2.43767547607,-0.210079520941,-0.347907662392,0.288636267185,0.879999995232,-552.06451416,47.1573486328,201.545425415,7.368000984192999,-6.402034759499998,1.55683624744,18.7792263031,-2.32829999924,15.0
2018-10-05 19:32:02.500,0.0491049237169,0.329516438724,-0.940409548017,-0.210079520941,-0.347907662392,0.288636267185,-0.48052585,0.4314926,17.9069429,-18.7985286713,-1.08287775517,-2.43767547607,-0.210079520941,-0.347907662392,0.288636267185,0.879999995232,-552.06451416,47.1573486328,201.545425415,7.368000984192999,-6.402034759499998,1.55683624744,18.7792263031,-2.32829999924,15.0
2018-10-05 19:32:02.550,0.0491049237169,0.329516438724,-0.940409548017,-0.210079520941,-0.347907662392,0.288636267185,-0.48052585,0.4314926,17.9069429,-18.7985286713,-1.08287775517,-2.43767547607,-0.210079520941,-0.347907662392,0.288636267185,1.12000000477,-552.06451416,48.9152374268,201.545425415,7.8480009660141,-6.452033996600001,2.5386698246,18.6969585419,-2.25005245209,15.0
2018-10-05 19:32:02.600,0.0491049237169,0.329516438724,-0.940409548017,-0.210079520941,-0.347907662392,0.288636267185,-0.48052585,0.4314926,17.9069429,-18.7985286713,-1.08287775517,-2.43767547607,-0.210079520941,-0.347907662392,0.288636267185,1.35000002384,-578.295349121,50.6536560059,200.545425415,7.8480009660141,-6.492034912099996,2.5386698246,18.6969585419,-2.25005245209,15.0
2018-10-05 19:32:02.650,0.0491049237169,0.329516438724,-0.940409548017,-0.210079520941,-0.347907662392,0.288636267185,-0.48052585,0.4314926,17.9069429,-18.6328010559,-3.16147875786,-2.16336774826,-0.210079520941,-0.347907662392,0.288636267185,1.35000002384,-578.295349121,50.6536560059,200.545425415,8.328000962736,-6.512035369899998,3.56584811211,18.5800571442,-2.10672926903,15.0
2018-10-05 19:32:02.700,0.0094542393754,0.34635866838,-0.929573896212,-0.138739898801,-0.331385225058,0.230114385486,-0.588399,-0.0588399,14.03331615,-18.6328010559,-3.16147875786,-2.16336774826,-0.210079520941,-0.347907662392,0.288636267185,1.35000002384,-578.295349121,50.6536560059,200.545425415,8.328000962736,-4.606697082499998,3.56584811211,18.5800571442,-2.10672926903,15.0
2018-10-05 19:32:02.750,0.0094542393754,0.34635866838,-0.929573896212,-0.138739898801,-0.331385225058,0.230114385486,-0.588399,-0.0588399,14.03331615,-18.6328010559,-3.16147875786,-2.16336774826,-0.210079520941,-0.347907662392,0.288636267185,1.35000002384,-578.295349121,50.6536560059,208.219734192,6.463138282299,-4.606697082499998,4.13073253632,18.4872608185,-2.07466864586,15.0
2018-10-05 19:32:02.800,0.0094542393754,0.34635866838,-0.929573896212,-0.138739898801,-0.331385225058,0.230114385486,-0.588399,-0.0588399,14.03331615,-18.6328010559,-3.16147875786,-2.16336774826,-0.210079520941,-0.347907662392,0.288636267185,1.55999994278,-578.295349121,52.3680419922,208.219734192,6.943138301373,-4.6466979980000005,5.09979152679,18.3015804291,-1.9400806427,15.0
2018-10-05 19:32:02.850,0.0094542393754,0.34635866838,-0.929573896212,-0.138739898801,-0.331385225058,0.230114385486,-0.588399,-0.0588399,14.03331615,-18.6328010559,-3.16147875786,-2.16336774826,-0.210079520941,-0.347907662392,0.288636267185,1.76999998093,-600.982116699,54.0411300659,207.219734192,7.38313829899,-4.656696319599995,5.49128818512,18.2087955475,-1.89652657509,15.0
2018-10-05 19:32:02.900,0.0094542393754,0.34635866838,-0.929573896212,-0.138739898801,-0.331385225058,0.230114385486,-0.588399,-0.0588399,14.03331615,-18.1145935059,-5.8673787117,-1.83692717552,-0.138739898801,-0.331385225058,0.230114385486,1.76999998093,-600.982116699,54.0411300659,207.219734192,7.38313829899,-4.656696319599995,5.49128818512,18.2087955475,-1.89652657509,15.0
2018-10-05 19:32:02.950,0.0094542393754,0.34635866838,-0.929573896212,-0.138739898801,-0.331385225058,0.230114385486,-0.588399,-0.0588399,14.03331615,-18.1145935059,-5.8673787117,-1.83692717552,-0.138739898801,-0.331385225058,0.230114385486,1.9699999094,-608.905029297,55.6533355713,207.219734192,7.78313827515,-4.676696777299995,6.44559431076,17.958650589,-1.72365069389,15.0
2018-10-05 19:32:03.000,-0.0248912156502,0.33461019588,-0.923007063364,0.00920069590211,-0.357920974493,0.338724911213,-0.392266,-0.22555295,14.91591465,-18.1145935059,-5.8673787117,-1.83692717552,-0.138739898801,-0.331385225058,0.230114385486,1.9699999094,-608.905029297,55.6533355713,207.219734192,7.78313827515,-4.686698913599997,6.81071472168,17.8561878204,-1.67406117916,15.0
2018-10-05 19:32:03.050,-0.0248912156502,0.33461019588,-0.923007063364,0.00920069590211,-0.357920974493,0.338724911213,-0.392266,-0.22555295,14.91591465,-18.1145935059,-5.8673787117,-1.83692717552,-0.138739898801,-0.331385225058,0.230114385486,2.14999985695,-608.905029297,57.2613983154,214.439735413,6.73407125473,-5.8867874146000005,7.17319726944,17.7406520844,-1.61215734482,15.0
2018-10-05 19:32:03.100,-0.0248912156502,0.33461019588,-0.923007063364,0.00920069590211,-0.357920974493,0.338724911213,-0.392266,-0.22555295,14.91591465,-18.1145935059,-5.8673787117,-1.83692717552,-0.138739898801,-0.331385225058,0.230114385486,2.14999985695,-608.905029297,57.2613983154,214.439735413,6.724071264259999,-5.8967857361,7.17319726944,17.7406520844,-1.61215734482,15.0
2018-10-05 19:32:03.150,-0.0248912156502,0.33461019588,-0.923007063364,0.00920069590211,-0.357920974493,0.338724911213,-0.392266,-0.22555295,14.91591465,-17.4714126587,-7.90879964828,-1.47047793865,0.00920069590211,-0.357920974493,0.338724911213,2.32999992371,-650.680908203,58.8457946777,213.439735413,7.08407139778,-5.906787872300001,8.09921646118,17.4023475647,-1.4390078783,15.0
2018-10-05 19:32:03.200,-0.0248912156502,0.33461019588,-0.923007063364,0.00920069590211,-0.357920974493,0.338724911213,-0.392266,-0.22555295,14.91591465,-17.4714126587,-7.90879964828,-1.47047793865,0.00920069590211,-0.357920974493,0.338724911213,2.32999992371,-650.680908203,58.8457946777,213.439735413,7.08407139778,-5.916786193900002,8.83961868286,17.0998439789,-1.2940582037,15.0
2018-10-05 19:32:03.250,-0.0248912156502,0.33461019588,-0.923007063364,0.00920069590211,-0.357920974493,0.338724911213,-0.392266,-0.22555295,14.91591465,-17.4714126587,-7.90879964828,-1.47047793865,0.00920069590211,-0.357920974493,0.338724911213,2.48000001907,-650.680908203,60.3757781982,213.439735413,7.40407133102,-5.916786193900002,9.21464729309,16.9247684479,-1.19860565662,15.0
2018-10-05 19:32:03.300,-0.0248912156502,0.33461019588,-0.923007063364,0.00920069590211,-0.357920974493,0.338724911213,-0.392266,-0.22555295,14.91591465,-17.4714126587,-7.90879964828,-1.47047793865,0.00920069590211,-0.357920974493,0.338724911213,2.48000001907,-650.680908203,60.3757781982,213.439735413,7.40407133102,-5.916786193900002,9.21464729309,16.9247684479,-1.19860565662,15.0
2018-10-05 19:32:03.350,-0.0248912156502,0.33461019588,-0.923007063364,0.00920069590211,-0.357920974493,0.338724911213,-0.392266,-0.22555295,14.91591465,-17.4714126587,-7.90879964828,-1.47047793865,0.00920069590211,-0.357920974493,0.338724911213,2.61999988556,-654.978149414,61.8534393311,212.439735413,7.624071359629999,-5.936786651600002,9.21464729309,16.9247684479,-1.19860565662,15.0
2018-10-05 19:32:03.400,-0.0248912156502,0.33461019588,-0.923007063364,0.00920069590211,-0.357920974493,0.338724911213,-0.392266,-0.22555295,14.91591465,-16.4533004761,-10.1486377716,-1.0141838789,0.00920069590211,-0.357920974493,0.338724911213,2.61999988556,-654.978149414,61.8534393311,212.439735413,7.624071359629999,-5.946788787899997,10.6855821609,16.1470432281,-0.904709279537,15.0
2018-10-05 19:32:03.450,-0.0248912156502,0.33461019588,-0.923007063364,0.00920069590211,-0.357920974493,0.338724911213,-0.392266,-0.22555295,14.91591465,-16.4533004761,-10.1486377716,-1.0141838789,0.00920069590211,-0.357920974493,0.338724911213,2.74000000954,-654.978149414,63.2809448242,211.439735413,7.8540713787,-5.956787109400004,10.6855821609,16.1470432281,-0.904709279537,15.0
2018-10-05 19:32:03.500,-0.074383465136,0.329239468467,-0.896332290462,-0.0985816568136,-0.371388226748,0.31440538168,-0.12748645,0.4511059,15.68083335,-16.4533004761,-10.1486377716,-1.0141838789,0.00920069590211,-0.357920974493,0.338724911213,2.83999991417,-659.41619873,64.6772766113,223.420280457,6.478454351430001,-5.605602264399998,11.0329608917,15.9489488602,-0.838782012463,15.0
2018-10-05 19:32:03.550,-0.074383465136,0.329239468467,-0.896332290462,-0.0985816568136,-0.371388226748,0.31440538168,-0.12748645,0.4511059,15.68083335,-16.4533004761,-10.1486377716,-1.0141838789,0.00920069590211,-0.357920974493,0.338724911213,2.83999991417,-659.41619873,64.6772766113,223.420280457,6.66845440865,-5.605602264399998,11.5993118286,15.5826015472,-0.708807587624,15.0
2018-10-05 19:32:03.600,-0.074383465136,0.329239468467,-0.896332290462,-0.0985816568136,-0.371388226748,0.31440538168,-0.12748645,0.4511059,15.68083335,-15.3597583771,-11.9427146912,-0.645527780056,-0.0985816568136,-0.371388226748,0.31440538168,2.83999991417,-659.41619873,64.6772766113,223.420280457,6.6784543991100005,-5.615600585999999,12.1221599579,15.2364015579,-0.607789933681,15.0
2018-10-05 19:32:03.650,-0.074383465136,0.329239468467,-0.896332290462,-0.0985816568136,-0.371388226748,0.31440538168,-0.12748645,0.4511059,15.68083335,-15.3597583771,-11.9427146912,-0.645527780056,-0.0985816568136,-0.371388226748,0.31440538168,2.92999982834,-659.41619873,65.9882736206,223.420280457,6.828454256060001,-5.625598907499999,12.8016738892,14.7300195694,-0.500565946102,15.0
2018-10-05 19:32:03.700,-0.074383465136,0.329239468467,-0.896332290462,-0.0985816568136,-0.371388226748,0.31440538168,-0.12748645,0.4511059,15.68083335,-15.3597583771,-11.9427146912,-0.645527780056,-0.0985816568136,-0.371388226748,0.31440538168,2.92999982834,-659.41619873,65.9882736206,223.420280457,6.828454256060001,-5.625598907499999,12.8016738892,14.7300195694,-0.500565946102,15.0
2018-10-05 19:32:03.750,-0.074383465136,0.329239468467,-0.896332290462,-0.0985816568136,-0.371388226748,0.31440538168,-0.12748645,0.4511059,15.68083335,-15.3597583771,-11.9427146912,-0.645527780056,-0.0985816568136,-0.371388226748,0.31440538168,3.0,-659.41619873,67.2643051147,222.420280457,7.02845430374,-5.6356010436999995,13.4280767441,14.2188940048,-0.454877287149,15.0
2018-10-05 19:32:03.800,-0.074383465136,0.329239468467,-0.896332290462,-0.0985816568136,-0.371388226748,0.31440538168,-0.12748645,0.4511059,15.68083335,-15.3597583771,-11.9427146912,-0.645527780056,-0.0985816568136,-0.371388226748,0.31440538168,3.0,-659.41619873,67.2643051147,222.420280457,7.02845430374,-5.6356010436999995,13.7343606949,13.9535446167,-0.426609069109,15.0
2018-10-05 19:32:03.850,-0.074383465136,0.329239468467,-0.896332290462,-0.0985816568136,-0.371388226748,0.31440538168,-0.12748645,0.4511059,15.68083335,-13.6622781754,-14.0614824295,-0.35489231348,-0.0985816568136,-0.371388226748,0.31440538168,3.05999994278,-652.646606445,68.4690551758,221.420280457,7.1784543991100005,-5.645599365300001,14.0614824295,13.6622781754,-0.35489231348,15.0
2018-10-05 19:32:03.900,-0.074383465136,0.329239468467,-0.896332290462,-0.0985816568136,-0.371388226748,0.31440538168,-0.12748645,0.4511059,15.68083335,-13.6622781754,-14.0614824295,-0.35489231348,-0.0985816568136,-0.371388226748,0.31440538168,3.05999994278,-652.646606445,68.4690551758,221.420280457,7.1784543991100005,-5.645599365300001,14.5323104858,13.2089109421,-0.256031185389,15.0
2018-10-05 19:32:03.950,-0.137282231293,0.334056595483,-0.855099190369,0.110647425056,-0.392135798931,0.272389143705,0.1372931,0.0392266,15.77889985,-13.6622781754,-14.0614824295,-0.35489231348,-0.0985816568136,-0.371388226748,0.31440538168,3.1099998951,-652.646606445,69.5983123779,220.420280457,7.2384541034700005,-5.645599365300001,14.9993743896,12.7342128754,-0.121283195913,15.0
2018-10-05 19:32:04.000,-0.137282231293,0.334056595483,-0.855099190369,0.110647425056,-0.392135798931,0.272389143705,0.1372931,0.0392266,15.77889985,-13.6622781754,-14.0614824295,-0.35489231348,-0.0985816568136,-0.371388226748,0.31440538168,3.1099998951,-652.646606445,69.5983123779,232.713912964,4.817344903945,-2.652404785199998,15.1668634415,12.5623607635,-0.06387758255,15.0
2018-10-05 19:32:04.050,-0.137282231293,0.334056595483,-0.855099190369,0.110647425056,-0.392135798931,0.272389143705,0.1372931,0.0392266,15.77889985,-12.0553197861,-15.6238641739,0.112604908645,0.110647425056,-0.392135798931,0.272389143705,3.12999987602,-650.855224609,70.6734313965,231.713912964,4.727344989775,-2.662406921399999,15.7559356689,11.9060020447,0.152078986168,15.0
2018-10-05 19:32:04.100,-0.137282231293,0.334056595483,-0.855099190369,0.110647425056,-0.392135798931,0.272389143705,0.1372931,0.0392266,15.77889985,-12.0553197861,-15.6238641739,0.112604908645,0.110647425056,-0.392135798931,0.272389143705,3.12999987602,-650.855224609,70.6734313965,231.713912964,4.727344989775,-2.652404785199998,16.1298961639,11.437871933,0.217913627625,15.0
2018-10-05 19:32:04.150,-0.137282231293,0.334056595483,-0.855099190369,0.110647425056,-0.392135798931,0.272389143705,0.1372931,0.0392266,15.77889985,-12.0553197861,-15.6238641739,0.112604908645,0.110647425056,-0.392135798931,0.272389143705,3.12999987602,-650.855224609,71.6908111572,231.713912964,4.7073450088549995,-2.652404785199998,16.3660488129,11.1209783554,0.257965117693,15.0
2018-10-05 19:32:04.200,-0.137282231293,0.334056595483,-0.855099190369,0.110647425056,-0.392135798931,0.272389143705,0.1372931,0.0392266,15.77889985,-12.0553197861,-15.6238641739,0.112604908645,0.110647425056,-0.392135798931,0.272389143705,3.12999987602,-650.855224609,71.6908111572,231.713912964,4.7073450088549995,-2.652404785199998,16.8729190826,10.3890838623,0.439811140299,15.0
2018-10-05 19:32:04.250,-0.137282231293,0.334056595483,-0.855099190369,0.110647425056,-0.392135798931,0.272389143705,0.1372931,0.0392266,15.77889985,-12.0553197861,-15.6238641739,0.112604908645,0.110647425056,-0.392135798931,0.272389143705,3.09999990463,-617.375183105,72.6135253906,230.713912964,4.577345132825,-2.652404785199998,17.1238002777,10.0159320831,0.523297965527,15.0
2018-10-05 19:32:04.300,-0.137282231293,0.334056595483,-0.855099190369,0.110647425056,-0.392135798931,0.272389143705,0.1372931,0.0392266,15.77889985,-9.82840919495,-17.2353210449,0.559900343418,0.110647425056,-0.392135798931,0.272389143705,3.09999990463,-617.375183105,72.6135253906,230.713912964,4.577345132825,-2.652404785199998,17.3577785492,9.64004802704,0.591465592384,15.0
2018-10-05 19:32:04.350,-0.178386860729,0.307480750173,-0.815139593453,-0.164621055126,-0.350684791803,0.274527162313,0.18632635,0.65704555,15.97503285,-9.82840919495,-17.2353210449,0.559900343418,0.110647425056,-0.392135798931,0.272389143705,3.05999994278,-616.738525391,73.4810943604,229.713912964,4.417345046995,-2.652404785199998,17.697927475,9.05871486664,0.691821992397,15.0
2018-10-05 19:32:04.400,-0.178386860729,0.307480750173,-0.815139593453,-0.164621055126,-0.350684791803,0.274527162313,0.18632635,0.65704555,15.97503285,-9.82840919495,-17.2353210449,0.559900343418,0.110647425056,-0.392135798931,0.272389143705,3.05999994278,-616.738525391,73.4810943604,241.800628662,3.082267701623,-3.347167968800001,17.9013004303,8.70040988922,0.716751992702,15.0
2018-10-05 19:32:04.450,-0.178386860729,0.307480750173,-0.815139593453,-0.164621055126,-0.350684791803,0.274527162313,0.18632635,0.65704555,15.97503285,-9.82840919495,-17.2353210449,0.559900343418,0.110647425056,-0.392135798931,0.272389143705,2.99000000954,-616.738525391,74.2863388062,240.800628662,2.952267825603,-3.3371696471999996,18.0886268616,8.34440422058,0.723982453346,15.0
2018-10-05 19:32:04.500,-0.178386860729,0.307480750173,-0.815139593453,-0.164621055126,-0.350684791803,0.274527162313,0.18632635,0.65704555,15.97503285,-7.81234025955,-18.3421936035,0.728207111359,-0.164621055126,-0.350684791803,0.274527162313,2.99000000954,-616.738525391,74.2863388062,240.800628662,2.952267825603,-3.3371696471999996,18.3421936035,7.81234025955,0.728207111359,15.0
2018-10-05 19:32:04.550,-0.178386860729,0.307480750173,-0.815139593453,-0.164621055126,-0.350684791803,0.274527162313,0.18632635,0.65704555,15.97503285,-7.81234025955,-18.3421936035,0.728207111359,-0.164621055126,-0.350684791803,0.274527162313,2.99000000954,-616.738525391,74.2863388062,240.800628662,2.952267825603,-3.3371696471999996,18.3421936035,7.81234025955,0.728207111359,15.0
2018-10-05 19:32:04.600,-0.178386860729,0.307480750173,-0.815139593453,-0.164621055126,-0.350684791803,0.274527162313,0.18632635,0.65704555,15.97503285,-7.81234025955,-18.3421936035,0.728207111359,-0.164621055126,-0.350684791803,0.274527162313,2.92999982834,-602.196105957,75.0341033936,239.800628662,2.892267644403,-3.3171691894999995,18.7882213593,6.7565202713,0.776146054268,15.0
2018-10-05 19:32:04.650,-0.178386860729,0.307480750173,-0.815139593453,-0.164621055126,-0.350684791803,0.274527162313,0.18632635,0.65704555,15.97503285,-7.81234025955,-18.3421936035,0.728207111359,-0.164621055126,-0.350684791803,0.274527162313,2.8599998951,-602.196105957,75.7082214355,238.800628662,2.7722677588430003,-3.3071708678999983,18.9259243011,6.38361501694,0.796552300453,15.0
2018-10-05 19:32:04.700,-0.178386860729,0.307480750173,-0.815139593453,-0.164621055126,-0.350684791803,0.274527162313,0.18632635,0.65704555,15.97503285,-7.81234025955,-18.3421936035,0.728207111359,-0.164621055126,-0.350684791803,0.274527162313,2.8599998951,-602.196105957,75.7082214355,238.800628662,2.7722677588430003,-3.3071708678999983,18.9259243011,6.38361501694,0.796552300453,15.0
2018-10-05 19:32:04.750,-0.222542096467,0.298162323726,-0.778497505932,-0.00466395914555,-0.346865534782,0.268187880516,0.0392266,-0.1765197,14.513842,-7.81234025955,-18.3421936035,0.728207111359,-0.164621055126,-0.350684791803,0.274527162313,2.78999996185,-593.389160156,76.3270645142,246.025909424,0.6071882247900002,-1.306076049799998,19.250667572,5.45994281769,0.857285559177,15.0
2018-10-05 19:32:04.800,-0.222542096467,0.298162323726,-0.778497505932,-0.00466395914555,-0.346865534782,0.268187880516,0.0392266,-0.1765197,14.513842,-5.45994281769,-19.250667572,0.857285559177,-0.00466395914555,-0.346865534782,0.268187880516,2.78999996185,-593.389160156,76.3270645142,246.025909424,0.6071882247900002,-1.306076049799998,19.3619728088,5.08006858826,0.879330813885,15.0
2018-10-05 19:32:04.850,-0.222542096467,0.298162323726,-0.778497505932,-0.00466395914555,-0.346865534782,0.268187880516,0.0392266,-0.1765197,14.513842,-5.45994281769,-19.250667572,0.857285559177,-0.00466395914555,-0.346865534782,0.268187880516,2.72000002861,-593.389160156,76.8919677734,245.025909424,0.46718835831000005,-1.306076049799998,19.4519805908,4.73652124405,0.87688601017,15.0
2018-10-05 19:32:04.900,-0.222542096467,0.298162323726,-0.778497505932,-0.00466395914555,-0.346865534782,0.268187880516,0.0392266,-0.1765197,14.513842,-5.45994281769,-19.250667572,0.857285559177,-0.00466395914555,-0.346865534782,0.268187880516,2.72000002861,-593.389160156,76.8919677734,245.025909424,0.46718835831000005,-1.2960739135000026,19.645658493,3.9847984314,0.98397153616,15.0
2018-10-05 19:32:04.950,-0.222542096467,0.298162323726,-0.778497505932,-0.00466395914555,-0.346865534782,0.268187880516,0.0392266,-0.1765197,14.513842,-5.45994281769,-19.250667572,0.857285559177,-0.00466395914555,-0.346865534782,0.268187880516,2.63999986649,-593.389160156,77.3853378296,244.025909424,0.28718829155000014,-1.2960739135000026,19.6934909821,3.78275799751,1.02420949936,15.0
2018-10-05 19:32:05.000,-0.222542096467,0.298162323726,-0.778497505932,-0.00466395914555,-0.346865534782,0.268187880516,0.0392266,-0.1765197,14.513842,-3.18402528763,-19.8114509583,1.127592206,-0.00466395914555,-0.346865534782,0.268187880516,2.63999986649,-593.389160156,77.3853378296,244.025909424,0.27718830109000026,-1.2960739135000026,19.7716236115,3.38512253761,1.10360240936,15.0
2018-10-05 19:32:05.050,-0.222542096467,0.298162323726,-0.778497505932,-0.00466395914555,-0.346865534782,0.268187880516,0.0392266,-0.1765197,14.513842,-3.18402528763,-19.8114509583,1.127592206,-0.00466395914555,-0.346865534782,0.268187880516,2.53999996185,-646.052368164,77.8268585205,244.025909424,-0.042811632159999835,-1.306076049799998,19.9212703705,2.54316759109,1.22707271576,15.0
2018-10-05 19:32:05.100,-0.222542096467,0.298162323726,-0.778497505932,-0.00466395914555,-0.346865534782,0.268187880516,0.0392266,-0.1765197,14.513842,-3.18402528763,-19.8114509583,1.127592206,-0.00466395914555,-0.346865534782,0.268187880516,2.53999996185,-646.052368164,77.8268585205,244.025909424,-0.042811632159999835,-1.306076049799998,19.9212703705,2.54316759109,1.22707271576,15.0
2018-10-05 19:32:05.150,-0.222542096467,0.298162323726,-0.778497505932,-0.00466395914555,-0.346865534782,0.268187880516,0.0392266,-0.1765197,14.513842,-3.18402528763,-19.8114509583,1.127592206,-0.00466395914555,-0.346865534782,0.268187880516,2.42999982834,-630.919677734,78.1792068481,243.025909424,-0.32281160354999994,-1.326076507499998,20.0618476868,1.49439501762,1.32232069969,15.0
2018-10-05 19:32:05.200,-0.256586837025,0.275308894477,-0.708035447303,0.0468169525266,-0.348085701466,0.435062199831,0.28439285,0.32361945,15.2591474,-3.18402528763,-19.8114509583,1.127592206,-0.00466395914555,-0.346865534782,0.268187880516,2.42999982834,-630.919677734,78.1792068481,243.025909424,-0.32281160354999994,-1.326076507499998,20.0618476868,1.49439501762,1.32232069969,15.0
2018-10-05 19:32:05.250,-0.256586837025,0.275308894477,-0.708035447303,0.0468169525266,-0.348085701466,0.435062199831,0.28439285,0.32361945,15.2591474,-3.18402528763,-19.8114509583,1.127592206,-0.00466395914555,-0.346865534782,0.268187880516,2.29999995232,-630.919677734,78.4735946655,256.12326049800004,-0.03729426860999996,-0.7804260253999971,20.0618476868,1.49439501762,1.32232069969,15.0
2018-10-05 19:32:05.300,-0.256586837025,0.275308894477,-0.708035447303,0.0468169525266,-0.348085701466,0.435062199831,0.28439285,0.32361945,15.2591474,-0.210327059031,-20.1515827179,1.39500808716,0.0468169525266,-0.348085701466,0.435062199831,2.29999995232,-630.919677734,78.4735946655,256.12326049800004,-0.03729426860999996,-0.7804260253999971,20.1515827179,0.210327059031,1.39500808716,15.0
