%time,field.orientation.x,field.orientation.y,field.orientation.z,field.angular_velocity.x,field.angular_velocity.y,field.angular_velocity.z,field.linear_acceleration.x,field.linear_acceleration.y,field.linear_acceleration.z,field.twist.linear.x,field.twist.linear.y,field.twist.linear.z,field.twist.angular.x,field.twist.angular.y,field.twist.angular.z,field.alt_error,field.aspd_error,field.xtrack_error,delta_yaw,delta_pitch,delta_roll,delta_x,delta_y,delta_z,delta_roll_airspeed
2018-10-05 18:48:45.000,,,,,,,,,,,,,,,,0.34999999404,-912.144470215,-34.3108444214,-183.6387939453,1.55307769775,18.748208999599996,-0.377216756344,-24.1852760315,-0.998906373978,15.0
2018-10-05 18:48:45.050,,,,,,,,,,,,,,,,0.34999999404,-912.144470215,-34.3108444214,-183.6387939453,1.833077728744,18.628206253099997,0.138395398855,-24.0381546021,-1.12576830387,15.0
2018-10-05 18:48:45.100,,,,,,,,,,,,,,,,0.459999978542,-900.93347168,-31.9036693573,-183.6387939453,2.083077698942,18.638208389299997,0.433552026749,-23.9541053772,-1.26944184303,15.0
2018-10-05 18:48:45.150,,,,,,,,,,,,,,,,0.459999978542,-900.93347168,-31.9036693573,-183.6387939453,2.113077700134,15.6982059479,0.63601899147,-23.8961734772,-1.35465455055,15.0
2018-10-05 18:48:45.200,,,,,,,,,,23.8961734772,-0.63601899147,-1.35465455055,0.615576267242,-0.0185406859964,-0.180556803942,0.569999992847,-900.93347168,-29.5142669678,-182.6387939453,2.4530777037105,13.528207778899997,0.85161280632,-23.8321647644,-1.43106293678,15.0
2018-10-05 18:48:45.250,,,,,,,,,,23.8961734772,-0.63601899147,-1.35465455055,0.615576267242,-0.0185406859964,-0.180556803942,0.569999992847,-900.93347168,-29.5142669678,-182.6387939453,2.4730776995381,15.828207016,1.20215749741,-23.7287750244,-1.5140850544,15.0
2018-10-05 18:48:45.300,,,,,,,,,,23.8961734772,-0.63601899147,-1.35465455055,0.615576267242,-0.0185406859964,-0.180556803942,0.689999997616,-867.517822266,-27.1425437927,-186.857170105,2.346289828423,2.6214408875000004,1.69559407234,-23.5880336761,-1.56950449944,15.0
2018-10-05 18:48:45.350,-0.329514449253,-0.000768842548549,0.0543637089623,0.156245231628,-0.173264935613,-0.108695536852,-1.1964113,0.4903325,10.93441475,23.8961734772,-0.63601899147,-1.35465455055,0.615576267242,-0.0185406859964,-0.180556803942,0.810000002384,-867.517822266,-24.7870864868,-185.857170105,2.356289833788,3.3914413452000005,1.82462704182,-23.5501403809,-1.56982052326,15.0
2018-10-05 18:48:45.400,-0.329514449253,-0.000768842548549,0.0543637089623,0.156245231628,-0.173264935613,-0.108695536852,-1.1964113,0.4903325,10.93441475,23.5102825165,-1.95600664616,-1.56925332546,0.156245231628,-0.173264935613,-0.108695536852,0.810000002384,-867.517822266,-24.7870864868,-185.857170105,2.616289824251,3.3914413452000005,2.21279573441,-23.4314575195,-1.58093035221,15.0
2018-10-05 18:48:45.450,-0.329514449253,-0.000768842548549,0.0543637089623,0.156245231628,-0.173264935613,-0.108695536852,-1.1964113,0.4903325,10.93441475,23.5102825165,-1.95600664616,-1.56925332546,0.156245231628,-0.173264935613,-0.108695536852,0.810000002384,-867.517822266,-24.7870864868,-185.857170105,2.616289824251,3.3914413452000005,2.46373820305,-23.3566856384,-1.59355986118,15.0
2018-10-05 18:48:45.500,-0.329514449253,-0.000768842548549,0.0543637089623,0.156245231628,-0.173264935613,-0.108695536852,-1.1964113,0.4903325,10.93441475,23.5102825165,-1.95600664616,-1.56925332546,0.156245231628,-0.173264935613,-0.108695536852,0.810000002384,-867.517822266,-24.7870864868,-185.857170105,2.616289824251,3.3914413452000005,2.46373820305,-23.3566856384,-1.59355986118,15.0
2018-10-05 18:48:45.550,-0.329514449253,-0.000768842548549,0.0543637089623,0.156245231628,-0.173264935613,-0.108695536852,-1.1964113,0.4903325,10.93441475,23.5102825165,-1.95600664616,-1.56925332546,0.156245231628,-0.173264935613,-0.108695536852,0.930000007153,-843.352905273,-22.4638500214,-185.857170105,2.896289825443,3.3914413452000005,2.93878722191,-23.2047595978,-1.64015495777,15.0
2018-10-05 18:48:45.600,-0.336380925017,0.0148782168833,0.0864773956543,-0.0202486664057,-0.145337164402,-0.244812831283,-0.89240515,0.6668522,12.03275955,23.5102825165,-1.95600664616,-1.56925332546,0.156245231628,-0.173264935613,-0.108695536852,1.05999994278,-843.352905273,-20.1459693909,-188.91900634770002,2.80507802963,2.4989738464000055,3.47859406471,-23.026802063,-1.64907538891,15.0
2018-10-05 18:48:45.650,-0.336380925017,0.0148782168833,0.0864773956543,-0.0202486664057,-0.145337164402,-0.244812831283,-0.89240515,0.6668522,12.03275955,22.9876899719,-3.60181498528,-1.66487085819,-0.0202486664057,-0.145337164402,-0.244812831283,1.05999994278,-843.352905273,-20.1459693909,-188.91900634770002,2.80507802963,2.4989738464000055,3.47859406471,-23.026802063,-1.64907538891,15.0
2018-10-05 18:48:45.700,-0.336380925017,0.0148782168833,0.0864773956543,-0.0202486664057,-0.145337164402,-0.244812831283,-0.89240515,0.6668522,12.03275955,22.9876899719,-3.60181498528,-1.66487085819,-0.0202486664057,-0.145337164402,-0.244812831283,1.17999994755,-799.186340332,-17.8575267792,-187.91900634770002,3.11507809162,2.4989738464000055,3.85623669624,-22.9024658203,-1.69918048382,15.0
2018-10-05 18:48:45.750,-0.336380925017,0.0148782168833,0.0864773956543,-0.0202486664057,-0.145337164402,-0.244812831283,-0.89240515,0.6668522,12.03275955,22.9876899719,-3.60181498528,-1.66487085819,-0.0202486664057,-0.145337164402,-0.244812831283,1.30999994278,-799.186340332,-15.5805892944,-186.91900634770002,3.11507809162,2.4989738464000055,4.09080553055,-22.8166408539,-1.73624122143,15.0
2018-10-05 18:48:45.800,-0.336380925017,0.0148782168833,0.0864773956543,-0.0202486664057,-0.145337164402,-0.244812831283,-0.89240515,0.6668522,12.03275955,22.9876899719,-3.60181498528,-1.66487085819,-0.0202486664057,-0.145337164402,-0.244812831283,1.30999994278,-799.186340332,-15.5805892944,-186.91900634770002,3.5050780773200003,2.4989738464000055,4.6892786026,-22.5905895233,-1.85196232796,15.0
2018-10-05 18:48:45.850,-0.336380925017,0.0148782168833,0.0864773956543,-0.0202486664057,-0.145337164402,-0.244812831283,-0.89240515,0.6668522,12.03275955,22.9876899719,-3.60181498528,-1.66487085819,-0.0202486664057,-0.145337164402,-0.244812831283,1.30999994278,-799.186340332,-15.5805892944,-186.91900634770002,3.51507806778,2.4989738464000055,4.92200613022,-22.4929256439,-1.89645504951,15.0
2018-10-05 18:48:45.900,-0.347203300627,0.0299087413334,0.131196534132,0.185144707561,-0.186880946159,-0.244133517146,-0.7453054,0.44129925,10.93441475,22.4403781891,-5.04329681396,-1.91896092892,-0.0202486664057,-0.145337164402,-0.244812831283,1.43999993801,-769.550720215,-13.3388996124,-186.91900634770002,3.955078125,2.488971710200005,5.29060029984,-22.3459091187,-1.96620345116,15.0
2018-10-05 18:48:45.950,-0.347203300627,0.0299087413334,0.131196534132,0.185144707561,-0.186880946159,-0.244133517146,-0.7453054,0.44129925,10.93441475,22.4403781891,-5.04329681396,-1.91896092892,-0.0202486664057,-0.145337164402,-0.244812831283,1.43999993801,-769.550720215,-13.3388996124,-186.91900634770002,3.955078125,2.488971710200005,5.29060029984,-22.3459091187,-1.96620345116,15.0
2018-10-05 18:48:46.000,-0.347203300627,0.0299087413334,0.131196534132,0.185144707561,-0.186880946159,-0.244133517146,-0.7453054,0.44129925,10.93441475,22.4403781891,-5.04329681396,-1.91896092892,-0.0202486664057,-0.145337164402,-0.244812831283,1.58999991417,-769.550720215,-11.0978736877,-191.334846497,4.76947283744,1.0622444153000004,5.64149618149,-22.194278717,-2.0471394062,15.0
2018-10-05 18:48:46.050,-0.347203300627,0.0299087413334,0.131196534132,0.185144707561,-0.186880946159,-0.244133517146,-0.7453054,0.44129925,10.93441475,22.4403781891,-5.04329681396,-1.91896092892,-0.0202486664057,-0.145337164402,-0.244812831283,1.58999991417,-769.550720215,-11.0978736877,-191.334846497,4.76947283744,1.0622444153000004,6.04782247543,-22.020116806,-2.06110191345,15.0
2018-10-05 18:48:46.100,-0.347203300627,0.0299087413334,0.131196534132,0.185144707561,-0.186880946159,-0.244133517146,-0.7453054,0.44129925,10.93441475,22.4403781891,-5.04329681396,-1.91896092892,-0.0202486664057,-0.145337164402,-0.244812831283,1.74000000954,-753.123657227,-8.88934707642,-190.334846497,5.22947263717,1.0622444153000004,6.61373472214,-21.7733631134,-2.0568022728,15.0
2018-10-05 18:48:46.150,-0.347203300627,0.0299087413334,0.131196534132,0.185144707561,-0.186880946159,-0.244133517146,-0.7453054,0.44129925,10.93441475,21.7173461914,-6.75213575363,-2.05866408348,0.185144707561,-0.186880946159,-0.244133517146,1.89999997616,-753.123657227,-6.6958694458,-189.334846497,5.26947283744,1.0622444153000004,6.89063215256,-21.6570644379,-2.05953407288,15.0
2018-10-05 18:48:46.200,-0.347203300627,0.0299087413334,0.131196534132,0.185144707561,-0.186880946159,-0.244133517146,-0.7453054,0.44129925,10.93441475,21.7173461914,-6.75213575363,-2.05866408348,0.185144707561,-0.186880946159,-0.244133517146,1.89999997616,-753.123657227,-6.6958694458,-189.334846497,5.719472646710001,1.0622444153000004,7.1922211647,-21.5104675293,-2.0134563446,15.0
2018-10-05 18:48:46.250,-0.347203300627,0.0299087413334,0.131196534132,0.185144707561,-0.186880946159,-0.244133517146,-0.7453054,0.44129925,10.93441475,21.7173461914,-6.75213575363,-2.05866408348,0.185144707561,-0.186880946159,-0.244133517146,2.03999996185,-741.733764648,-4.53200149536,-189.334846497,5.719472646710001,1.072246551500001,7.79401397705,-21.2280673981,-1.94379639626,15.0
2018-10-05 18:48:46.300,-0.347203300627,0.0299087413334,0.131196534132,0.185144707561,-0.186880946159,-0.244133517146,-0.7453054,0.44129925,10.93441475,21.7173461914,-6.75213575363,-2.05866408348,0.185144707561,-0.186880946159,-0.244133517146,2.03999996185,-741.733764648,-4.53200149536,-189.334846497,6.09947276115,1.072246551500001,8.09092235565,-21.0922317505,-1.9214682579,15.0
2018-10-05 18:48:46.350,-0.347203300627,0.0299087413334,0.131196534132,0.185144707561,-0.186880946159,-0.244133517146,-0.7453054,0.44129925,10.93441475,20.9466171265,-8.38430786133,-1.8827059269,0.185144707561,-0.186880946159,-0.244133517146,2.03999996185,-741.733764648,-4.53200149536,-189.334846497,6.09947276115,1.072246551500001,8.38430786133,-20.9466171265,-1.8827059269,15.0
2018-10-05 18:48:46.400,-0.343703637356,0.0591246024995,0.201723946467,0.00440336065367,-0.221951246262,-0.19730861485,-0.28439285,0.50013915,13.32723735,20.9466171265,-8.38430786133,-1.8827059269,0.185144707561,-0.186880946159,-0.244133517146,2.19000005722,-741.733764648,-2.38640213013,-188.334846497,6.47947287559,1.072246551500001,8.65659999847,-20.8042259216,-1.8660030365,15.0
2018-10-05 18:48:46.450,-0.343703637356,0.0591246024995,0.201723946467,0.00440336065367,-0.221951246262,-0.19730861485,-0.28439285,0.50013915,13.32723735,20.9466171265,-8.38430786133,-1.8827059269,0.185144707561,-0.186880946159,-0.244133517146,2.19000005722,-741.733764648,-2.38640213013,-197.21034240699998,6.17430233956,1.0287628174000005,8.95202350616,-20.6464195251,-1.82115530968,15.0
2018-10-05 18:48:46.500,-0.343703637356,0.0591246024995,0.201723946467,0.00440336065367,-0.221951246262,-0.19730861485,-0.28439285,0.50013915,13.32723735,20.9466171265,-8.38430786133,-1.8827059269,0.185144707561,-0.186880946159,-0.244133517146,2.30999994278,-721.628356934,-0.290451049805,-196.21034240699998,6.50430226326,1.0387611389999947,9.52184391022,-20.3334388733,-1.73103368282,15.0
2018-10-05 18:48:46.550,-0.343703637356,0.0591246024995,0.201723946467,0.00440336065367,-0.221951246262,-0.19730861485,-0.28439285,0.50013915,13.32723735,20.9466171265,-8.38430786133,-1.8827059269,0.185144707561,-0.186880946159,-0.244133517146,2.30999994278,-721.628356934,-0.290451049805,-196.21034240699998,6.50430226326,1.0387611389999947,9.52184391022,-20.3334388733,-1.73103368282,15.0
2018-10-05 18:48:46.600,-0.343703637356,0.0591246024995,0.201723946467,0.00440336065367,-0.221951246262,-0.19730861485,-0.28439285,0.50013915,13.32723735,19.9721355438,-10.1483726501,-1.49568867683,0.00440336065367,-0.221951246262,-0.19730861485,2.42999982834,-721.628356934,1.81359100342,-195.21034240699998,6.73430228234,-85.7812347412,10.3218545914,-19.8646583557,-1.41222059727,15.0
2018-10-05 18:48:46.650,-0.343703637356,0.0591246024995,0.201723946467,0.00440336065367,-0.221951246262,-0.19730861485,-0.28439285,0.50013915,13.32723735,19.9721355438,-10.1483726501,-1.49568867683,0.00440336065367,-0.221951246262,-0.19730861485,2.50999999046,-712.089355469,3.87549209595,-194.21034240699998,6.7043025493699995,-85.7812347412,10.6379051208,-19.669708252,-1.25743377209,15.0
2018-10-05 18:48:46.700,-0.343703637356,0.0591246024995,0.201723946467,0.00440336065367,-0.221951246262,-0.19730861485,-0.28439285,0.50013915,13.32723735,19.9721355438,-10.1483726501,-1.49568867683,0.00440336065367,-0.221951246262,-0.19730861485,2.50999999046,-712.089355469,3.87549209595,-194.21034240699998,6.67430233956,1.0387611389999947,11.1901493073,-19.2906532288,-0.92385751009,15.0
2018-10-05 18:48:46.750,-0.343703637356,0.0591246024995,0.201723946467,0.00440336065367,-0.221951246262,-0.19730861485,-0.28439285,0.50013915,13.32723735,19.9721355438,-10.1483726501,-1.49568867683,0.00440336065367,-0.221951246262,-0.19730861485,2.50999999046,-712.089355469,3.87549209595,-194.21034240699998,6.59430241585,1.0387611389999947,11.3009910583,-19.2147598267,-0.849886417389,15.0
2018-10-05 18:48:46.800,-0.242742465889,0.0681271499921,0.251369310581,-1.23962628841,-0.21820782125,-0.0686173141003,-0.10787315,1.0983448,15.40624715,19.9721355438,-10.1483726501,-1.49568867683,0.00440336065367,-0.221951246262,-0.19730861485,2.50999999046,-712.089355469,3.87549209595,-194.21034240699998,6.59430241585,1.0387611389999947,11.3009910583,-19.2147598267,-0.849886417389,15.0
2018-10-05 18:48:46.850,-0.242742465889,0.0681271499921,0.251369310581,-1.23962628841,-0.21820782125,-0.0686173141003,-0.10787315,1.0983448,15.40624715,18.812664032,-11.7559576035,-0.38647916913,-1.23962628841,-0.21820782125,-0.0686173141003,2.56999993324,-712.089355469,5.92433929443,-199.19070434600002,4.44687128067,12.625267028899998,11.7559576035,-18.812664032,-0.38647916913,15.0
2018-10-05 18:48:46.900,-0.242742465889,0.0681271499921,0.251369310581,-1.23962628841,-0.21820782125,-0.0686173141003,-0.10787315,1.0983448,15.40624715,18.812664032,-11.7559576035,-0.38647916913,-1.23962628841,-0.21820782125,-0.0686173141003,2.55999994278,-705.436157227,7.93868637085,-199.19070434600002,4.23687124252,12.625267028899998,11.9166717529,-18.6649055481,-0.240159422159,15.0
2018-10-05 18:48:46.950,-0.242742465889,0.0681271499921,0.251369310581,-1.23962628841,-0.21820782125,-0.0686173141003,-0.10787315,1.0983448,15.40624715,18.812664032,-11.7559576035,-0.38647916913,-1.23962628841,-0.21820782125,-0.0686173141003,2.52999997139,-705.436157227,9.94462585449,-198.19070434600002,4.24687099457,12.625267028899998,11.9166717529,-18.6649055481,-0.240159422159,15.0
2018-10-05 18:48:47.000,-0.242742465889,0.0681271499921,0.251369310581,-1.23962628841,-0.21820782125,-0.0686173141003,-0.10787315,1.0983448,15.40624715,18.812664032,-11.7559576035,-0.38647916913,-1.23962628841,-0.21820782125,-0.0686173141003,2.52999997139,-705.436157227,9.94462585449,-198.19070434600002,4.0768713951099995,12.625267028899998,12.2602596283,-18.2926292419,0.00780464708805,15.0
2018-10-05 18:48:47.050,-0.242742465889,0.0681271499921,0.251369310581,-1.23962628841,-0.21820782125,-0.0686173141003,-0.10787315,1.0983448,15.40624715,18.0529518127,-12.4611053467,0.129413247108,-1.23962628841,-0.21820782125,-0.0686173141003,2.52999997139,-705.436157227,9.94462585449,-198.19070434600002,4.08687114716,12.625267028899998,12.3847236633,-18.1332111359,0.0900663882494,15.0
2018-10-05 18:48:47.100,-0.242742465889,0.0681271499921,0.251369310581,-1.23962628841,-0.21820782125,-0.0686173141003,-0.10787315,1.0983448,15.40624715,18.0529518127,-12.4611053467,0.129413247108,-1.23962628841,-0.21820782125,-0.0686173141003,2.45000004768,-687.150756836,11.8818283081,-197.19070434600002,3.8868713378899997,12.625267028899998,12.6004734039,-17.8964233398,0.189853474498,15.0
2018-10-05 18:48:47.150,-0.24209443866,0.0809226011433,0.300936046196,0.240710943937,-0.116171762347,-0.340083450079,-0.4314926,0.75511205,12.71922505,18.0529518127,-12.4611053467,0.129413247108,-1.23962628841,-0.21820782125,-0.0686173141003,2.45000004768,-687.150756836,11.8818283081,-197.19070434600002,3.8968710899400003,12.625267028899998,12.6744365692,-17.8045043945,0.238350853324,15.0
2018-10-05 18:48:47.200,-0.24209443866,0.0809226011433,0.300936046196,0.240710943937,-0.116171762347,-0.340083450079,-0.4314926,0.75511205,12.71922505,18.0529518127,-12.4611053467,0.129413247108,-1.23962628841,-0.21820782125,-0.0686173141003,2.36999988556,-687.150756836,13.8675575256,-202.31418609600001,3.848052322868,12.252347946199997,12.907992363,-17.5529613495,0.319357246161,15.0
2018-10-05 18:48:47.250,-0.24209443866,0.0809226011433,0.300936046196,0.240710943937,-0.116171762347,-0.340083450079,-0.4314926,0.75511205,12.71922505,18.0529518127,-12.4611053467,0.129413247108,-1.23962628841,-0.21820782125,-0.0686173141003,2.36999988556,-687.150756836,13.8675575256,-202.31418609600001,3.8680523037880006,12.252347946199997,13.1809587479,-17.1936855316,0.386108219624,15.0
2018-10-05 18:48:47.300,-0.24209443866,0.0809226011433,0.300936046196,0.240710943937,-0.116171762347,-0.340083450079,-0.4314926,0.75511205,12.71922505,17.1052761078,-13.2493104935,0.389200717211,0.240710943937,-0.116171762347,-0.340083450079,2.36999988556,-687.150756836,13.8675575256,-202.31418609600001,3.8680523037880006,12.252347946199997,13.1809587479,-17.1936855316,0.386108219624,15.0
2018-10-05 18:48:47.350,-0.24209443866,0.0809226011433,0.300936046196,0.240710943937,-0.116171762347,-0.340083450079,-0.4314926,0.75511205,12.71922505,17.1052761078,-13.2493104935,0.389200717211,0.240710943937,-0.116171762347,-0.340083450079,2.26999998093,-674.762939453,15.7360420227,-201.31418609600001,3.698052227498,12.252347946199997,13.6005172729,-16.6629276276,0.379399716854,15.0
2018-10-05 18:48:47.400,-0.24209443866,0.0809226011433,0.300936046196,0.240710943937,-0.116171762347,-0.340083450079,-0.4314926,0.75511205,12.71922505,17.1052761078,-13.2493104935,0.389200717211,0.240710943937,-0.116171762347,-0.340083450079,2.26999998093,-674.762939453,15.7360420227,-201.31418609600001,3.698052227498,12.252347946199997,13.6005172729,-16.6629276276,0.379399716854,15.0
2018-10-05 18:48:47.450,-0.24209443866,0.0809226011433,0.300936046196,0.240710943937,-0.116171762347,-0.340083450079,-0.4314926,0.75511205,12.71922505,17.1052761078,-13.2493104935,0.389200717211,0.240710943937,-0.116171762347,-0.340083450079,2.16999983788,-674.762939453,17.5768890381,-201.31418609600001,3.5680523514780003,12.252347946199997,13.9480047226,-16.1619720459,0.390884757042,15.0
2018-10-05 18:48:47.500,-0.24209443866,0.0809226011433,0.300936046196,0.240710943937,-0.116171762347,-0.340083450079,-0.4314926,0.75511205,12.71922505,17.1052761078,-13.2493104935,0.389200717211,0.240710943937,-0.116171762347,-0.340083450079,2.16999983788,-674.762939453,17.5768890381,-201.31418609600001,3.5680523514780003,12.252347946199997,13.9480047226,-16.1619720459,0.390884757042,15.0
2018-10-05 18:48:47.550,-0.24209443866,0.0809226011433,0.300936046196,0.240710943937,-0.116171762347,-0.340083450079,-0.4314926,0.75511205,12.71922505,15.8616342545,-14.1624994278,0.40389367938,0.240710943937,-0.116171762347,-0.340083450079,2.05999994278,-687.286376953,19.387878418,-200.31418609600001,3.3880522847180004,12.252347946199997,14.1624994278,-15.8616342545,0.40389367938,15.0
2018-10-05 18:48:47.600,-0.299078744452,0.121717414625,0.356198129782,0.240531697869,-0.177398622036,-0.201559573412,-0.34323275,0.5099458,12.2386992,15.8616342545,-14.1624994278,0.40389367938,0.240710943937,-0.116171762347,-0.340083450079,1.95999991894,-687.286376953,21.1892280579,-199.31418609600001,3.198052227498,12.252347946199997,14.3273563385,-15.6505250931,0.422356754541,15.0
2018-10-05 18:48:47.650,-0.299078744452,0.121717414625,0.356198129782,0.240531697869,-0.177398622036,-0.201559573412,-0.34323275,0.5099458,12.2386992,15.8616342545,-14.1624994278,0.40389367938,0.240710943937,-0.116171762347,-0.340083450079,1.95999991894,-687.286376953,21.1892280579,-207.224243164,3.3675179779574003,4.153434753500001,14.6276388168,-15.194934845,0.464832186699,15.0
2018-10-05 18:48:47.700,-0.299078744452,0.121717414625,0.356198129782,0.240531697869,-0.177398622036,-0.201559573412,-0.34323275,0.5099458,12.2386992,15.8616342545,-14.1624994278,0.40389367938,0.240710943937,-0.116171762347,-0.340083450079,1.86000001431,-664.703552246,22.9318199158,-206.224243164,3.1575179398074003,4.153434753500001,14.8680868149,-14.8389177322,0.493258565664,15.0
2018-10-05 18:48:47.750,-0.299078744452,0.121717414625,0.356198129782,0.240531697869,-0.177398622036,-0.201559573412,-0.34323275,0.5099458,12.2386992,15.8616342545,-14.1624994278,0.40389367938,0.240710943937,-0.116171762347,-0.340083450079,1.86000001431,-664.703552246,22.9318199158,-206.224243164,3.1675179302674,4.153434753500001,15.0273885727,-14.6093816757,0.508242964745,15.0
2018-10-05 18:48:47.800,-0.299078744452,0.121717414625,0.356198129782,0.240531697869,-0.177398622036,-0.201559573412,-0.34323275,0.5099458,12.2386992,14.3824148178,-15.1642494202,0.503287553787,0.240531697869,-0.177398622036,-0.201559573412,1.75999999046,-664.703552246,24.7353630066,-206.224243164,2.9475181400774,4.153434753500001,15.2282590866,-14.2638998032,0.500746905804,15.0
2018-10-05 18:48:47.850,-0.299078744452,0.121717414625,0.356198129782,0.240531697869,-0.177398622036,-0.201559573412,-0.34323275,0.5099458,12.2386992,14.3824148178,-15.1642494202,0.503287553787,0.240531697869,-0.177398622036,-0.201559573412,1.75999999046,-664.703552246,24.7353630066,-206.224243164,2.9575181305374,4.153434753500001,15.3624792099,-14.0407686234,0.48299831152,15.0
2018-10-05 18:48:47.900,-0.299078744452,0.121717414625,0.356198129782,0.240531697869,-0.177398622036,-0.201559573412,-0.34323275,0.5099458,12.2386992,14.3824148178,-15.1642494202,0.503287553787,0.240531697869,-0.177398622036,-0.201559573412,1.75999999046,-664.703552246,24.7353630066,-206.224243164,2.9575181305374,4.153434753500001,15.3624792099,-14.0407686234,0.48299831152,15.0
2018-10-05 18:48:47.950,-0.299078744452,0.121717414625,0.356198129782,0.240531697869,-0.177398622036,-0.201559573412,-0.34323275,0.5099458,12.2386992,14.3824148178,-15.1642494202,0.503287553787,0.240531697869,-0.177398622036,-0.201559573412,1.66999995708,-649.152770996,26.4667167664,-205.224243164,2.7775180637874,4.153434753500001,15.6176490784,-13.5985078812,0.442823082209,15.0
2018-10-05 18:48:48.000,-0.305094586301,0.147598678142,0.404403023396,-0.036940202117,-0.174167469144,-0.255557566881,-0.1372931,0.77472535,12.05237285,14.3824148178,-15.1642494202,0.503287553787,0.240531697869,-0.177398622036,-0.201559573412,1.57999992371,-649.152770996,28.1934700012,-204.224243164,2.6475179493474,4.153434753500001,15.7524805069,-13.3692150116,0.437649279833,15.0
2018-10-05 18:48:48.050,-0.305094586301,0.147598678142,0.404403023396,-0.036940202117,-0.174167469144,-0.255557566881,-0.1372931,0.77472535,12.05237285,14.3824148178,-15.1642494202,0.503287553787,0.240531697869,-0.177398622036,-0.201559573412,1.57999992371,-649.152770996,28.1934700012,-204.224243164,2.6475179493474,4.153434753500001,15.7524805069,-13.3692150116,0.437649279833,15.0
2018-10-05 18:48:48.100,-0.305094586301,0.147598678142,0.404403023396,-0.036940202117,-0.174167469144,-0.255557566881,-0.1372931,0.77472535,12.05237285,12.7547111511,-16.0870628357,0.450151175261,-0.036940202117,-0.174167469144,-0.255557566881,1.5,-647.247680664,29.8733329773,-209.997772217,2.260967537764,2.208137512199997,16.0870628357,-12.7547111511,0.450151175261,15.0
2018-10-05 18:48:48.150,-0.305094586301,0.147598678142,0.404403023396,-0.036940202117,-0.174167469144,-0.255557566881,-0.1372931,0.77472535,12.05237285,12.7547111511,-16.0870628357,0.450151175261,-0.036940202117,-0.174167469144,-0.255557566881,1.41999995708,-647.247680664,31.5392494202,-208.997772217,2.260967537764,2.208137512199997,16.3411254883,-12.2926998138,0.422559708357,15.0
2018-10-05 18:48:48.200,-0.305094586301,0.147598678142,0.404403023396,-0.036940202117,-0.174167469144,-0.255557566881,-0.1372931,0.77472535,12.05237285,12.7547111511,-16.0870628357,0.450151175261,-0.036940202117,-0.174167469144,-0.255557566881,1.41999995708,-647.247680664,31.5392494202,-208.997772217,2.130967423324,2.208137512199997,16.5201835632,-11.9395151138,0.393022239208,15.0
2018-10-05 18:48:48.250,-0.305094586301,0.147598678142,0.404403023396,-0.036940202117,-0.174167469144,-0.255557566881,-0.1372931,0.77472535,12.05237285,12.7547111511,-16.0870628357,0.450151175261,-0.036940202117,-0.174167469144,-0.255557566881,1.41999995708,-647.247680664,31.5392494202,-208.997772217,2.130967423324,2.208137512199997,16.6272945404,-11.7075996399,0.35622382164,15.0
2018-10-05 18:48:48.300,-0.305094586301,0.147598678142,0.404403023396,-0.036940202117,-0.174167469144,-0.255557566881,-0.1372931,0.77472535,12.05237285,11.5855875015,-16.684595108,0.340058356524,-0.036940202117,-0.174167469144,-0.255557566881,1.35000002384,-631.437866211,33.168674469,-208.997772217,2.040967509154,2.208137512199997,16.8511962891,-11.2525501251,0.253976792097,15.0
2018-10-05 18:48:48.350,-0.305094586301,0.147598678142,0.404403023396,-0.036940202117,-0.174167469144,-0.255557566881,-0.1372931,0.77472535,12.05237285,11.5855875015,-16.684595108,0.340058356524,-0.036940202117,-0.174167469144,-0.255557566881,1.29999995232,-631.437866211,34.7742729187,-207.997772217,2.040967509154,2.208137512199997,16.9019355774,-11.1372032166,0.235150948167,15.0
2018-10-05 18:48:48.400,-0.305094586301,0.147598678142,0.404403023396,-0.036940202117,-0.174167469144,-0.255557566881,-0.1372931,0.77472535,12.05237285,11.5855875015,-16.684595108,0.340058356524,-0.036940202117,-0.174167469144,-0.255557566881,1.29999995232,-631.437866211,34.7742729187,-207.997772217,2.040967509154,2.208137512199997,16.9019355774,-11.1372032166,0.235150948167,15.0
2018-10-05 18:48:48.450,-0.300113390375,0.163483101739,0.464772697112,0.0908561274409,-0.192860707641,-0.233324155211,-0.10787315,0.42168595,10.6892485,11.5855875015,-16.684595108,0.340058356524,-0.036940202117,-0.174167469144,-0.255557566881,1.29999995232,-631.437866211,34.7742729187,-207.997772217,2.020967528224,2.208137512199997,17.0804157257,-10.7472476959,0.190463528037,15.0
2018-10-05 18:48:48.500,-0.300113390375,0.163483101739,0.464772697112,0.0908561274409,-0.192860707641,-0.233324155211,-0.10787315,0.42168595,10.6892485,11.5855875015,-16.684595108,0.340058356524,-0.036940202117,-0.174167469144,-0.255557566881,1.25,-627.968017578,36.3501548767,-215.032241821,2.9016728401179996,1.8674736022999952,17.2584266663,-10.3479251862,0.172045186162,15.0
2018-10-05 18:48:48.550,-0.300113390375,0.163483101739,0.464772697112,0.0908561274409,-0.192860707641,-0.233324155211,-0.10787315,0.42168595,10.6892485,9.82649326324,-17.4923839569,0.149380013347,0.0908561274409,-0.192860707641,-0.233324155211,1.20999991894,-627.968017578,37.9167518616,-214.032241821,2.9016728401179996,1.8674736022999952,17.5533275604,-9.68797588348,0.157733365893,15.0
2018-10-05 18:48:48.600,-0.300113390375,0.163483101739,0.464772697112,0.0908561274409,-0.192860707641,-0.233324155211,-0.10787315,0.42168595,10.6892485,9.82649326324,-17.4923839569,0.149380013347,0.0908561274409,-0.192860707641,-0.233324155211,1.20999991894,-627.968017578,37.9167518616,-214.032241821,2.861672878268,1.8674736022999952,17.7178192139,-9.27949428558,0.17811742425,15.0
2018-10-05 18:48:48.650,-0.300113390375,0.163483101739,0.464772697112,0.0908561274409,-0.192860707641,-0.233324155211,-0.10787315,0.42168595,10.6892485,9.82649326324,-17.4923839569,0.149380013347,0.0908561274409,-0.192860707641,-0.233324155211,1.20999991894,-627.968017578,37.9167518616,-214.032241821,2.861672878268,1.8674736022999952,17.7178192139,-9.27949428558,0.17811742425,15.0
2018-10-05 18:48:48.700,-0.300113390375,0.163483101739,0.464772697112,0.0908561274409,-0.192860707641,-0.233324155211,-0.10787315,0.42168595,10.6892485,9.82649326324,-17.4923839569,0.149380013347,0.0908561274409,-0.192860707641,-0.233324155211,1.17999994755,-624.415588379,39.4321632385,-213.032241821,2.761672735218,1.8674736022999952,17.9525585175,-8.68534183502,0.314406663179,15.0
2018-10-05 18:48:48.750,-0.300113390375,0.163483101739,0.464772697112,0.0908561274409,-0.192860707641,-0.233324155211,-0.10787315,0.42168595,10.6892485,9.82649326324,-17.4923839569,0.149380013347,0.0908561274409,-0.192860707641,-0.233324155211,1.17999994755,-624.415588379,39.4321632385,-213.032241821,2.761672735218,1.8674736022999952,18.0373744965,-8.43629646301,0.335788667202,15.0
2018-10-05 18:48:48.800,-0.293037153988,0.183654550231,0.503937773692,-0.0431750267744,-0.127268701792,-0.281119942665,-0.02941995,1.5886773,12.1406327,8.30864620209,-18.0845985413,0.336934924126,0.0908561274409,-0.192860707641,-0.233324155211,1.17999994755,-624.415588379,39.4321632385,-213.032241821,2.761672735218,1.3655319213999988,18.0373744965,-8.43629646301,0.335788667202,15.0
2018-10-05 18:48:48.850,-0.293037153988,0.183654550231,0.503937773692,-0.0431750267744,-0.127268701792,-0.281119942665,-0.02941995,1.5886773,12.1406327,8.30864620209,-18.0845985413,0.336934924126,0.0908561274409,-0.192860707641,-0.233324155211,1.12999999523,-624.415588379,40.9255180359,-218.872116089,2.185033917422,1.3655319213999988,18.2085418701,-7.86188793182,0.284538507462,15.0
2018-10-05 18:48:48.900,-0.293037153988,0.183654550231,0.503937773692,-0.0431750267744,-0.127268701792,-0.281119942665,-0.02941995,1.5886773,12.1406327,8.30864620209,-18.0845985413,0.336934924126,0.0908561274409,-0.192860707641,-0.233324155211,1.07999992371,-618.596435547,42.3631401062,-217.872116089,2.115033864972,1.3655319213999988,18.2085418701,-7.86188793182,0.284538507462,15.0
2018-10-05 18:48:48.950,-0.293037153988,0.183654550231,0.503937773692,-0.0431750267744,-0.127268701792,-0.281119942665,-0.02941995,1.5886773,12.1406327,8.30864620209,-18.0845985413,0.336934924126,0.0908561274409,-0.192860707641,-0.233324155211,1.07999992371,-618.596435547,42.3631401062,-217.872116089,2.115033864972,1.3655319213999988,18.3791332245,-7.28132295609,0.238706558943,15.0
2018-10-05 18:48:49.000,-0.293037153988,0.183654550231,0.503937773692,-0.0431750267744,-0.127268701792,-0.281119942665,-0.02941995,1.5886773,12.1406327,8.30864620209,-18.0845985413,0.336934924126,0.0908561274409,-0.192860707641,-0.233324155211,1.02999997139,-618.596435547,43.8261909485,-216.872116089,2.055033922192,1.3555335998000047,18.3791332245,-7.28132295609,0.238706558943,15.0
2018-10-05 18:48:49.050,-0.293037153988,0.183654550231,0.503937773692,-0.0431750267744,-0.127268701792,-0.281119942665,-0.02941995,1.5886773,12.1406327,6.67207813263,-18.5305747986,0.171613514423,-0.0431750267744,-0.127268701792,-0.281119942665,1.02999997139,-618.596435547,43.8261909485,-216.872116089,2.055033922192,1.345531463600004,18.5305747986,-6.67207813263,0.171613514423,15.0
2018-10-05 18:48:49.100,-0.291220401067,0.1828930705,0.553947740642,0.0371032655239,-0.179837584496,-0.452198773623,-0.2549729,0.9610517,11.52281375,6.67207813263,-18.5305747986,0.171613514423,-0.0431750267744,-0.127268701792,-0.281119942665,0.989999949932,-618.279846191,45.2202796936,-222.354476929,4.3463289737699995,1.6317481994000005,18.6374950409,-6.28281927109,0.134238451719,15.0
2018-10-05 18:48:49.150,-0.291220401067,0.1828930705,0.553947740642,0.0371032655239,-0.179837584496,-0.452198773623,-0.2549729,0.9610517,11.52281375,6.67207813263,-18.5305747986,0.171613514423,-0.0431750267744,-0.127268701792,-0.281119942665,0.949999988079,-618.279846191,46.613948822,-221.354476929,4.35632896423,1.6217460631999998,18.7032184601,-6.01575803757,0.123750030994,15.0
2018-10-05 18:48:49.200,-0.291220401067,0.1828930705,0.553947740642,0.0371032655239,-0.179837584496,-0.452198773623,-0.2549729,0.9610517,11.52281375,6.67207813263,-18.5305747986,0.171613514423,-0.0431750267744,-0.127268701792,-0.281119942665,0.949999988079,-618.279846191,46.613948822,-221.354476929,4.31632888317,1.6117477417000003,18.8044376373,-5.57814407349,0.0907829031348,15.0
2018-10-05 18:48:49.250,-0.291220401067,0.1828930705,0.553947740642,0.0371032655239,-0.179837584496,-0.452198773623,-0.2549729,0.9610517,11.52281375,6.67207813263,-18.5305747986,0.171613514423,-0.0431750267744,-0.127268701792,-0.281119942665,0.919999957085,-617.025024414,47.9639854431,-220.354476929,4.32632899284,1.6017456053999979,18.8044376373,-5.57814407349,0.0907829031348,15.0
2018-10-05 18:48:49.300,-0.291220401067,0.1828930705,0.553947740642,0.0371032655239,-0.179837584496,-0.452198773623,-0.2549729,0.9610517,11.52281375,4.92711353302,-18.9326114655,-0.0612127669156,0.0371032655239,-0.179837584496,-0.452198773623,0.919999957085,-617.025024414,47.9639854431,-220.354476929,4.32632899284,1.6017456053999979,18.9065818787,-5.05600738525,-0.0127496011555,15.0
2018-10-05 18:48:49.350,-0.291220401067,0.1828930705,0.553947740642,0.0371032655239,-0.179837584496,-0.452198773623,-0.2549729,0.9610517,11.52281375,4.92711353302,-18.9326114655,-0.0612127669156,0.0371032655239,-0.179837584496,-0.452198773623,0.919999957085,-617.025024414,47.9639854431,-220.354476929,4.32632899284,1.5917472838999984,18.9740047455,-4.67880058289,-0.118461124599,15.0
2018-10-05 18:48:49.400,-0.286970515753,0.19692695345,0.60658568546,0.0133313350379,-0.255104422569,-0.274096727371,-0.14709975,0.42168595,11.11093445,4.92711353302,-18.9326114655,-0.0612127669156,0.0371032655239,-0.179837584496,-0.452198773623,0.909999966621,-617.025024414,49.3012123108,-228.22442627,5.67001581192,1.163326263400002,19.0462112427,-4.24831962585,-0.172244772315,15.0
2018-10-05 18:48:49.450,-0.286970515753,0.19692695345,0.60658568546,0.0133313350379,-0.255104422569,-0.274096727371,-0.14709975,0.42168595,11.11093445,4.92711353302,-18.9326114655,-0.0612127669156,0.0371032655239,-0.179837584496,-0.452198773623,0.909999966621,-617.025024414,49.3012123108,-228.22442627,5.67001581192,1.163326263400002,19.0846290588,-3.95541858673,-0.192025497556,15.0
2018-10-05 18:48:49.500,-0.286970515753,0.19692695345,0.60658568546,0.0133313350379,-0.255104422569,-0.274096727371,-0.14709975,0.42168595,11.11093445,4.92711353302,-18.9326114655,-0.0612127669156,0.0371032655239,-0.179837584496,-0.452198773623,0.909999966621,-617.025024414,49.3012123108,-228.22442627,5.67001581192,1.163326263400002,19.0846290588,-3.95541858673,-0.192025497556,15.0
2018-10-05 18:48:49.550,-0.286970515753,0.19692695345,0.60658568546,0.0133313350379,-0.255104422569,-0.274096727371,-0.14709975,0.42168595,11.11093445,3.3271613121,-19.1746826172,-0.180405974388,0.0133313350379,-0.255104422569,-0.274096727371,0.919999957085,-618.774597168,50.5876045227,-227.22442627,5.75001585484,1.1833267212000038,19.1746826172,-3.3271613121,-0.180405974388,15.0
2018-10-05 18:48:49.600,-0.286970515753,0.19692695345,0.60658568546,0.0133313350379,-0.255104422569,-0.274096727371,-0.14709975,0.42168595,11.11093445,3.3271613121,-19.1746826172,-0.180405974388,0.0133313350379,-0.255104422569,-0.274096727371,0.930000007153,-618.774597168,51.8487663269,-226.22442627,5.79001581669,1.1833267212000038,19.2098846436,-3.00748586655,-0.150592893362,15.0
2018-10-05 18:48:49.650,-0.286970515753,0.19692695345,0.60658568546,0.0133313350379,-0.255104422569,-0.274096727371,-0.14709975,0.42168595,11.11093445,3.3271613121,-19.1746826172,-0.180405974388,0.0133313350379,-0.255104422569,-0.274096727371,0.930000007153,-618.774597168,51.8487663269,-226.22442627,5.80001580715,1.203327178900004,19.2560424805,-2.35234189034,-0.104762278497,15.0
2018-10-05 18:48:49.700,-0.286970515753,0.19692695345,0.60658568546,0.0133313350379,-0.255104422569,-0.274096727371,-0.14709975,0.42168595,11.11093445,1.85936081409,-19.2803497314,-0.0413293503225,0.0133313350379,-0.255104422569,-0.274096727371,0.949999988079,-579.612365723,53.0467338562,-225.22442627,5.81001591683,1.203327178900004,19.2803497314,-1.85936081409,-0.0413293503225,15.0
2018-10-05 18:48:49.750,-0.286970515753,0.19692695345,0.60658568546,0.0133313350379,-0.255104422569,-0.274096727371,-0.14709975,0.42168595,11.11093445,1.85936081409,-19.2803497314,-0.0413293503225,0.0133313350379,-0.255104422569,-0.274096727371,0.949999988079,-579.612365723,53.0467338562,-225.22442627,5.81001591683,1.2133255005000052,19.2935237885,-1.36461031437,0.0131048988551,15.0
2018-10-05 18:48:49.800,-0.267735081442,0.227176726517,0.65147510272,0.0464912801981,-0.256636112928,-0.240719124675,-0.0196133,0.8629852,13.68027675,1.85936081409,-19.2803497314,-0.0413293503225,0.0133313350379,-0.255104422569,-0.274096727371,0.949999988079,-579.612365723,54.223033905,-232.24949646,4.45063745975,0.7488861084000007,19.2874031067,-1.02916502953,0.0517847165465,15.0
2018-10-05 18:48:49.850,-0.267735081442,0.227176726517,0.65147510272,0.0464912801981,-0.256636112928,-0.240719124675,-0.0196133,0.8629852,13.68027675,1.85936081409,-19.2803497314,-0.0413293503225,0.0133313350379,-0.255104422569,-0.274096727371,0.959999978542,-583.653625488,55.3111839294,-231.24949646,4.43063747882,0.7588844299000002,19.2874031067,-1.02916502953,0.0517847165465,15.0
2018-10-05 18:48:49.900,-0.267735081442,0.227176726517,0.65147510272,0.0464912801981,-0.256636112928,-0.240719124675,-0.0196133,0.8629852,13.68027675,1.85936081409,-19.2803497314,-0.0413293503225,0.0133313350379,-0.255104422569,-0.274096727371,0.959999978542,-583.653625488,55.3111839294,-231.24949646,4.43063747882,0.7588844299000002,19.273109436,-0.407184362411,0.0841234996915,15.0
2018-10-05 18:48:49.950,-0.267735081442,0.227176726517,0.65147510272,0.0464912801981,-0.256636112928,-0.240719124675,-0.0196133,0.8629852,13.68027675,1.85936081409,-19.2803497314,-0.0413293503225,0.0133313350379,-0.255104422569,-0.274096727371,0.959999978542,-583.653625488,55.3111839294,-231.24949646,4.4406374692899995,0.7588844299000002,19.2626171112,0.0881157517433,0.122863411903,15.0
2018-10-05 18:48:50.000,-0.267735081442,0.227176726517,0.65147510272,0.0464912801981,-0.256636112928,-0.240719124675,-0.0196133,0.8629852,13.68027675,-0.0881157517433,-19.2626171112,0.122863411903,0.0464912801981,-0.256636112928,-0.240719124675,0.959999978542,-583.653625488,55.3111839294,-231.24949646,4.4406374692899995,0.7588844299000002,19.2626171112,0.0881157517433,0.122863411903,15.0
2018-10-05 18:48:50.050,-0.267735081442,0.227176726517,0.65147510272,0.0464912801981,-0.256636112928,-0.240719124675,-0.0196133,0.8629852,13.68027675,-0.0881157517433,-19.2626171112,0.122863411903,0.0464912801981,-0.256636112928,-0.240719124675,0.949999988079,-583.653625488,56.4000740051,-230.24949646,4.42063748836,0.7588844299000002,19.1908416748,0.92328119278,0.139354020357,15.0
2018-10-05 18:48:50.100,0.258005109413,-0.251951838297,-0.689374262388,0.0564547292888,-0.259236752987,-0.26915755868,0.0196133,0.5099458,13.0036179,-0.0881157517433,-19.2626171112,0.122863411903,0.0464912801981,-0.256636112928,-0.240719124675,0.930000007153,-578.719909668,57.4309425354,-230.24949646,4.4106374979,0.7588844299000002,19.1542682648,1.23176264763,0.138165459037,15.0
2018-10-05 18:48:50.150,0.258005109413,-0.251951838297,-0.689374262388,0.0564547292888,-0.259236752987,-0.26915755868,0.0196133,0.5099458,13.0036179,-0.0881157517433,-19.2626171112,0.122863411903,0.0464912801981,-0.256636112928,-0.240719124675,0.930000007153,-578.719909668,57.4309425354,122.555541992,4.17308270931,-0.418140411399996,19.1215419769,1.56947338581,0.139300018549,15.0
2018-10-05 18:48:50.200,0.258005109413,-0.251951838297,-0.689374262388,0.0564547292888,-0.259236752987,-0.26915755868,0.0196133,0.5099458,13.0036179,-1.87735795975,-19.0844287872,0.143528267741,0.0564547292888,-0.259236752987,-0.26915755868,0.919999957085,-578.719909668,58.411907196,123.555541992,4.16308271884,-0.418140411399996,19.0251693726,2.23006057739,0.176462516189,15.0
2018-10-05 18:48:50.250,0.258005109413,-0.251951838297,-0.689374262388,0.0564547292888,-0.259236752987,-0.26915755868,0.0196133,0.5099458,13.0036179,-1.87735795975,-19.0844287872,0.143528267741,0.0564547292888,-0.259236752987,-0.26915755868,0.919999957085,-578.719909668,58.411907196,123.555541992,4.16308271884,-0.418140411399996,19.0251693726,2.23006057739,0.176462516189,15.0
2018-10-05 18:48:50.300,0.258005109413,-0.251951838297,-0.689374262388,0.0564547292888,-0.259236752987,-0.26915755868,0.0196133,0.5099458,13.0036179,-1.87735795975,-19.0844287872,0.143528267741,0.0564547292888,-0.259236752987,-0.26915755868,0.899999976158,-572.796447754,59.3298530579,124.555541992,4.12308275699,-0.40813827519999535,18.9332504272,2.74608945847,0.200295761228,15.0
2018-10-05 18:48:50.350,0.258005109413,-0.251951838297,-0.689374262388,0.0564547292888,-0.259236752987,-0.26915755868,0.0196133,0.5099458,13.0036179,-1.87735795975,-19.0844287872,0.143528267741,0.0564547292888,-0.259236752987,-0.26915755868,0.899999976158,-572.796447754,59.3298530579,124.555541992,4.1330827474500005,-0.40813827519999535,18.8135414124,3.39199829102,0.20341514051,15.0
2018-10-05 18:48:50.400,0.243038280027,-0.271586750878,-0.721112057377,0.0808883011341,-0.244604438543,-0.235025703907,0.00980665,0.8433719,12.18966595,-1.87735795975,-19.0844287872,0.143528267741,0.0564547292888,-0.259236752987,-0.26915755868,0.899999976158,-572.796447754,59.3298530579,124.555541992,4.1330827474500005,-0.40813827519999535,18.8135414124,3.39199829102,0.20341514051,15.0
2018-10-05 18:48:50.450,0.243038280027,-0.271586750878,-0.721112057377,0.0808883011341,-0.244604438543,-0.235025703907,0.00980665,0.8433719,12.18966595,-3.9879796505,-18.6682872772,0.168328419328,0.0808883011341,-0.244604438543,-0.235025703907,0.879999995232,-572.796447754,60.2279624939,120.186599731,3.62615776062,-0.8992080688999948,18.6682872772,3.9879796505,0.168328419328,15.0
2018-10-05 18:48:50.500,0.243038280027,-0.271586750878,-0.721112057377,0.0808883011341,-0.244604438543,-0.235025703907,0.00980665,0.8433719,12.18966595,-3.9879796505,-18.6682872772,0.168328419328,0.0808883011341,-0.244604438543,-0.235025703907,0.870000004768,-580.589660645,61.0578804016,120.186599731,3.62615776062,-0.8992080688999948,18.51030159,4.57090425491,0.14832316339,15.0
2018-10-05 18:48:50.550,0.243038280027,-0.271586750878,-0.721112057377,0.0808883011341,-0.244604438543,-0.235025703907,0.00980665,0.8433719,12.18966595,-3.9879796505,-18.6682872772,0.168328419328,0.0808883011341,-0.244604438543,-0.235025703907,0.870000004768,-580.589660645,61.0578804016,120.186599731,3.62615776062,-0.8992080688999948,18.51030159,4.57090425491,0.14832316339,15.0
2018-10-05 18:48:50.600,0.243038280027,-0.271586750878,-0.721112057377,0.0808883011341,-0.244604438543,-0.235025703907,0.00980665,0.8433719,12.18966595,-3.9879796505,-18.6682872772,0.168328419328,0.0808883011341,-0.244604438543,-0.235025703907,0.8599999547,-580.589660645,61.8540611267,121.186599731,3.63615775108,-0.8992080688999948,18.2866535187,5.31206798553,0.140278801322,15.0
2018-10-05 18:48:50.650,0.243038280027,-0.271586750878,-0.721112057377,0.0808883011341,-0.244604438543,-0.235025703907,0.00980665,0.8433719,12.18966595,-3.9879796505,-18.6682872772,0.168328419328,0.0808883011341,-0.244604438543,-0.235025703907,0.8599999547,-580.589660645,61.8540611267,121.186599731,3.63615775108,-0.8992080688999948,18.2866535187,5.31206798553,0.140278801322,15.0
2018-10-05 18:48:50.700,0.243038280027,-0.271586750878,-0.721112057377,0.0808883011341,-0.244604438543,-0.235025703907,0.00980665,0.8433719,12.18966595,-5.86935520172,-18.0946407318,0.129507780075,0.0808883011341,-0.244604438543,-0.235025703907,0.8599999547,-579.409790039,62.5819892883,122.186599731,3.65615773201,-0.8992080688999948,18.0469474792,6.00740861893,0.130399927497,15.0
2018-10-05 18:48:50.750,0.243038280027,-0.271586750878,-0.721112057377,0.0808883011341,-0.244604438543,-0.235025703907,0.00980665,0.8433719,12.18966595,-5.86935520172,-18.0946407318,0.129507780075,0.0808883011341,-0.244604438543,-0.235025703907,0.8599999547,-579.409790039,62.5819892883,122.186599731,3.65615773201,-0.8992080688999948,17.9419384003,6.30932044983,0.147656679153,15.0
2018-10-05 18:48:50.800,0.223757402223,-0.287427431651,-0.764348876895,0.00408229324967,-0.255720049143,-0.346707701683,0.14709975,1.1571847,12.8270982,-5.86935520172,-18.0946407318,0.129507780075,0.0808883011341,-0.244604438543,-0.235025703907,0.8599999547,-579.409790039,63.2738304138,114.49395752000001,3.98453724384,-0.8728141785000005,17.9419384003,6.30932044983,0.147656679153,15.0
2018-10-05 18:48:50.850,0.223757402223,-0.287427431651,-0.764348876895,0.00408229324967,-0.255720049143,-0.346707701683,0.14709975,1.1571847,12.8270982,-5.86935520172,-18.0946407318,0.129507780075,0.0808883011341,-0.244604438543,-0.235025703907,0.8599999547,-579.409790039,63.2738304138,114.49395752000001,3.98453724384,-0.8728141785000005,17.6565246582,7.0311961174,0.149727493525,15.0
2018-10-05 18:48:50.900,0.223757402223,-0.287427431651,-0.764348876895,0.00408229324967,-0.255720049143,-0.346707701683,0.14709975,1.1571847,12.8270982,-5.86935520172,-18.0946407318,0.129507780075,0.0808883011341,-0.244604438543,-0.235025703907,0.849999964237,-585.144226074,63.9344825745,115.49395752000001,3.9945372343,-0.8728141785000005,17.4515419006,7.50340557098,0.210164427757,15.0
2018-10-05 18:48:50.950,0.223757402223,-0.287427431651,-0.764348876895,0.00408229324967,-0.255720049143,-0.346707701683,0.14709975,1.1571847,12.8270982,-7.50340557098,-17.4515419006,0.210164427757,0.00408229324967,-0.255720049143,-0.346707701683,0.849999964237,-585.144226074,63.9344825745,115.49395752000001,3.90453720093,-0.8828125,17.4515419006,7.50340557098,0.210164427757,15.0
2018-10-05 18:48:51.000,0.223757402223,-0.287427431651,-0.764348876895,0.00408229324967,-0.255720049143,-0.346707701683,0.14709975,1.1571847,12.8270982,-7.50340557098,-17.4515419006,0.210164427757,0.00408229324967,-0.255720049143,-0.346707701683,0.839999973774,-585.144226074,64.554977417,115.49395752000001,3.90453720093,-0.8828125,17.0165958405,8.4357175827,0.265509068966,15.0
2018-10-05 18:48:51.050,0.223757402223,-0.287427431651,-0.764348876895,0.00408229324967,-0.255720049143,-0.346707701683,0.14709975,1.1571847,12.8270982,-7.50340557098,-17.4515419006,0.210164427757,0.00408229324967,-0.255720049143,-0.346707701683,0.839999973774,-585.144226074,64.554977417,115.49395752000001,3.90453720093,-0.8828125,17.0165958405,8.4357175827,0.265509068966,15.0
2018-10-05 18:48:51.100,0.223757402223,-0.287427431651,-0.764348876895,0.00408229324967,-0.255720049143,-0.346707701683,0.14709975,1.1571847,12.8270982,-7.50340557098,-17.4515419006,0.210164427757,0.00408229324967,-0.255720049143,-0.346707701683,0.829999983311,-586.254882812,65.119934082,116.49395752000001,3.8845372200000003,-0.8828125,16.852973938,8.74396896362,0.274270325899,15.0
2018-10-05 18:48:51.150,0.223757402223,-0.287427431651,-0.764348876895,0.00408229324967,-0.255720049143,-0.346707701683,0.14709975,1.1571847,12.8270982,-7.50340557098,-17.4515419006,0.210164427757,0.00408229324967,-0.255720049143,-0.346707701683,0.829999983311,-586.254882812,65.119934082,116.49395752000001,3.90453720093,-0.8828125,16.5043201447,9.39957809448,0.329392790794,15.0
2018-10-05 18:48:51.200,0.223757402223,-0.287427431651,-0.764348876895,0.00408229324967,-0.255720049143,-0.346707701683,0.14709975,1.1571847,12.8270982,-9.71987915039,-16.3108348846,0.367947489023,0.00408229324967,-0.255720049143,-0.346707701683,0.810000002384,-586.254882812,65.6548919678,117.49395752000001,3.84453725815,-0.8828125,16.5043201447,9.39957809448,0.329392790794,15.0
2018-10-05 18:48:51.250,0.198298538938,-0.309740373677,-0.812893045017,0.058837313205,-0.306903749704,-0.246688619256,-0.00980665,0.50013915,14.2392558,-9.71987915039,-16.3108348846,0.367947489023,0.00408229324967,-0.255720049143,-0.346707701683,0.789999961853,-585.490783691,66.0987243652,107.073654175,4.22342371941,-1.2917861938000001,16.0081348419,10.2086486816,0.405096828938,15.0
2018-10-05 18:48:51.300,0.198298538938,-0.309740373677,-0.812893045017,0.058837313205,-0.306903749704,-0.246688619256,-0.00980665,0.50013915,14.2392558,-9.71987915039,-16.3108348846,0.367947489023,0.00408229324967,-0.255720049143,-0.346707701683,0.789999961853,-585.490783691,66.0987243652,107.073654175,4.22342371941,-1.2917861938000001,16.0081348419,10.2086486816,0.405096828938,15.0
2018-10-05 18:48:51.350,0.198298538938,-0.309740373677,-0.812893045017,0.058837313205,-0.306903749704,-0.246688619256,-0.00980665,0.50013915,14.2392558,-9.71987915039,-16.3108348846,0.367947489023,0.00408229324967,-0.255720049143,-0.346707701683,0.759999990463,-585.490783691,66.5103912354,108.073654175,4.03342366219,-1.2817840575999995,15.5995502472,10.833325386,0.45481684804,15.0
2018-10-05 18:48:51.400,0.198298538938,-0.309740373677,-0.812893045017,0.058837313205,-0.306903749704,-0.246688619256,-0.00980665,0.50013915,14.2392558,-9.71987915039,-16.3108348846,0.367947489023,0.00408229324967,-0.255720049143,-0.346707701683,0.759999990463,-585.490783691,66.5103912354,108.073654175,4.02342367173,-1.2717857360000053,15.1707572937,11.4395856857,0.524751901627,15.0
2018-10-05 18:48:51.450,0.198298538938,-0.309740373677,-0.812893045017,0.058837313205,-0.306903749704,-0.246688619256,-0.00980665,0.50013915,14.2392558,-11.5838108063,-15.0577259064,0.552774488926,0.058837313205,-0.306903749704,-0.246688619256,0.759999990463,-585.490783691,66.5103912354,108.073654175,4.02342367173,-1.2717857360000053,14.9387407303,11.7402744293,0.586508631706,15.0
2018-10-05 18:48:51.500,0.198298538938,-0.309740373677,-0.812893045017,0.058837313205,-0.306903749704,-0.246688619256,-0.00980665,0.50013915,14.2392558,-11.5838108063,-15.0577259064,0.552774488926,0.058837313205,-0.306903749704,-0.246688619256,0.759999990463,-585.490783691,66.5103912354,108.073654175,4.02342367173,-1.2717857360000053,14.9387407303,11.7402744293,0.586508631706,15.0
2018-10-05 18:48:51.550,0.198298538938,-0.309740373677,-0.812893045017,0.058837313205,-0.306903749704,-0.246688619256,-0.00980665,0.50013915,14.2392558,-11.5838108063,-15.0577259064,0.552774488926,0.058837313205,-0.306903749704,-0.246688619256,0.719999969006,-568.04083252,66.8379364014,109.073654175,3.8634237050999998,-1.2717857360000053,14.6035490036,12.177324295,0.662229001522,15.0
2018-10-05 18:48:51.600,0.158825864225,-0.325384091147,-0.841535256276,-0.0671150311828,-0.296660959721,-0.23704855144,0.26477955,0.8433719,14.5726819,-11.5838108063,-15.0577259064,0.552774488926,0.058837313205,-0.306903749704,-0.246688619256,0.669999957085,-568.04083252,67.1150665283,110.073654175,3.6534236669599998,-1.2717857360000053,14.1296043396,12.7562513351,0.778326511383,15.0
2018-10-05 18:48:51.650,0.158825864225,-0.325384091147,-0.841535256276,-0.0671150311828,-0.296660959721,-0.23704855144,0.26477955,0.8433719,14.5726819,-11.5838108063,-15.0577259064,0.552774488926,0.058837313205,-0.306903749704,-0.246688619256,0.669999957085,-568.04083252,67.1150665283,102.08802795400001,1.568098366256,-0.6244430542000003,13.7551832199,13.1775341034,0.845521986485,15.0
2018-10-05 18:48:51.700,0.158825864225,-0.325384091147,-0.841535256276,-0.0671150311828,-0.296660959721,-0.23704855144,0.26477955,0.8433719,14.5726819,-13.5777568817,-13.3746576309,0.918434679508,-0.0671150311828,-0.296660959721,-0.23704855144,0.599999964237,-570.453063965,67.3262481689,103.08802795400001,1.338098406792,-0.6244430542000003,13.7551832199,13.1775341034,0.845521986485,15.0
2018-10-05 18:48:51.750,0.158825864225,-0.325384091147,-0.841535256276,-0.0671150311828,-0.296660959721,-0.23704855144,0.26477955,0.8433719,14.5726819,-13.5777568817,-13.3746576309,0.918434679508,-0.0671150311828,-0.296660959721,-0.23704855144,0.599999964237,-570.453063965,67.3262481689,103.08802795400001,1.338098406792,-0.6244430542000003,13.1390857697,13.827340126,0.93887090683,15.0
2018-10-05 18:48:51.800,0.158825864225,-0.325384091147,-0.841535256276,-0.0671150311828,-0.296660959721,-0.23704855144,0.26477955,0.8433719,14.5726819,-13.5777568817,-13.3746576309,0.918434679508,-0.0671150311828,-0.296660959721,-0.23704855144,0.519999980927,-570.453063965,67.4934387207,104.08802795400001,1.108098447323,-0.6244430542000003,12.9006271362,14.05027771,0.958639383316,15.0
2018-10-05 18:48:51.850,0.158825864225,-0.325384091147,-0.841535256276,-0.0671150311828,-0.296660959721,-0.23704855144,0.26477955,0.8433719,14.5726819,-13.5777568817,-13.3746576309,0.918434679508,-0.0671150311828,-0.296660959721,-0.23704855144,0.519999980927,-570.453063965,67.4934387207,104.08802795400001,1.108098447323,-0.6244430542000003,12.5390853882,14.3944311142,0.967116594315,15.0
2018-10-05 18:48:51.900,0.158825864225,-0.325384091147,-0.841535256276,-0.0671150311828,-0.296660959721,-0.23704855144,0.26477955,0.8433719,14.5726819,-14.793888092,-12.1031217575,1.09195888042,-0.0671150311828,-0.296660959721,-0.23704855144,0.439999997616,-576.231567383,67.5977630615,105.08802795400001,0.908098399639,-0.6244430542000003,12.258020401,14.6471061707,1.0384567976,15.0
2018-10-05 18:48:51.950,0.158825864225,-0.325384091147,-0.841535256276,-0.0671150311828,-0.296660959721,-0.23704855144,0.26477955,0.8433719,14.5726819,-14.793888092,-12.1031217575,1.09195888042,-0.0671150311828,-0.296660959721,-0.23704855144,0.340000003576,-576.231567383,67.6455078125,106.08802795400001,0.548098430037,-0.6244430542000003,11.634554863,15.2247629166,1.24593603611,15.0
2018-10-05 18:48:52.000,0.158825864225,-0.325384091147,-0.841535256276,-0.0671150311828,-0.296660959721,-0.23704855144,0.26477955,0.8433719,14.5726819,-14.793888092,-12.1031217575,1.09195888042,-0.0671150311828,-0.296660959721,-0.23704855144,0.340000003576,-576.231567383,67.6455078125,106.08802795400001,0.548098430037,-0.6244430542000003,11.634554863,15.2247629166,1.24593603611,15.0
2018-10-05 18:48:52.050,0.126003423577,-0.344909705537,-0.871277209787,0.197003379464,-0.284079760313,-0.264806002378,0.30400615,0.57859235,16.6124651,-14.793888092,-12.1031217575,1.09195888042,-0.0671150311828,-0.296660959721,-0.23704855144,0.340000003576,-576.231567383,67.6455078125,106.08802795400001,0.5680984258649999,-0.6244430542000003,11.0920057297,15.6810264587,1.45297193527,15.0
2018-10-05 18:48:52.100,0.126003423577,-0.344909705537,-0.871277209787,0.197003379464,-0.284079760313,-0.264806002378,0.30400615,0.57859235,16.6124651,-14.793888092,-12.1031217575,1.09195888042,-0.0671150311828,-0.296660959721,-0.23704855144,0.229999989271,-588.864135742,67.6255950928,96.87115478499999,-0.5699020326140001,-1.2559165954000022,10.3866500854,16.224937439,1.65991592407,15.0
2018-10-05 18:48:52.150,0.126003423577,-0.344909705537,-0.871277209787,0.197003379464,-0.284079760313,-0.264806002378,0.30400615,0.57859235,16.6124651,-16.472284317,-10.0559720993,1.71595597267,0.197003379464,-0.284079760313,-0.264806002378,0.0799999982119,-588.864135742,67.5311889648,97.87115478499999,-0.559902012349,-1.2559165954000022,10.3866500854,16.224937439,1.65991592407,15.0
2018-10-05 18:48:52.200,0.126003423577,-0.344909705537,-0.871277209787,0.197003379464,-0.284079760313,-0.264806002378,0.30400615,0.57859235,16.6124651,-16.472284317,-10.0559720993,1.71595597267,0.197003379464,-0.284079760313,-0.264806002378,0.0799999982119,-588.864135742,67.5311889648,97.87115478499999,-0.559902012349,-1.2559165954000022,9.89874744415,16.583158493,1.73396492004,15.0
2018-10-05 18:48:52.250,0.126003423577,-0.344909705537,-0.871277209787,0.197003379464,-0.284079760313,-0.264806002378,0.30400615,0.57859235,16.6124651,-16.472284317,-10.0559720993,1.71595597267,0.197003379464,-0.284079760313,-0.264806002378,0.0799999982119,-588.864135742,67.5311889648,97.87115478499999,-1.059902012349,-1.2659149169999964,9.12962722778,17.0675296783,1.77910411358,15.0
2018-10-05 18:48:52.300,0.126003423577,-0.344909705537,-0.871277209787,0.197003379464,-0.284079760313,-0.264806002378,0.30400615,0.57859235,16.6124651,-16.472284317,-10.0559720993,1.71595597267,0.197003379464,-0.284079760313,-0.264806002378,0.0799999982119,-588.864135742,67.5311889648,97.87115478499999,-1.059902012349,-1.2659149169999964,9.12962722778,17.0675296783,1.77910411358,15.0
2018-10-05 18:48:52.350,0.126003423577,-0.344909705537,-0.871277209787,0.197003379464,-0.284079760313,-0.264806002378,0.30400615,0.57859235,16.6124651,-16.472284317,-10.0559720993,1.71595597267,0.197003379464,-0.284079760313,-0.264806002378,-0.0899999961257,-586.209289551,67.3572540283,98.87115478499999,-1.499901950362,-1.2659149169999964,8.76656913757,17.2783985138,1.69690716267,15.0
2018-10-05 18:48:52.400,0.126003423577,-0.344909705537,-0.871277209787,0.197003379464,-0.284079760313,-0.264806002378,0.30400615,0.57859235,16.6124651,-17.4664344788,-8.41405010223,1.62437415123,0.197003379464,-0.284079760313,-0.264806002378,-0.259999990463,-586.209289551,67.1369171143,99.87115478499999,-1.839901983742,-1.2659149169999964,8.29031562805,17.5345916748,1.60297298431,15.0
2018-10-05 18:48:52.450,0.126003423577,-0.344909705537,-0.871277209787,0.197003379464,-0.284079760313,-0.264806002378,0.30400615,0.57859235,16.6124651,-17.4664344788,-8.41405010223,1.62437415123,0.197003379464,-0.284079760313,-0.264806002378,-0.259999990463,-586.209289551,67.1369171143,99.87115478499999,-1.839901983742,-1.2659149169999964,8.02663803101,17.6790428162,1.59251570702,15.0
2018-10-05 18:48:52.500,0.0955294992108,-0.360437363359,-0.89055229408,0.171644330025,-0.235782712698,-0.327110230923,0.1176798,1.3925443,12.93497135,-17.4664344788,-8.41405010223,1.62437415123,0.197003379464,-0.284079760313,-0.264806002378,-0.409999996424,-593.644897461,66.8792266846,92.20690918,-2.85196018219,-1.9576110839999998,7.56137895584,17.9228553772,1.65609180927,15.0
2018-10-05 18:48:52.550,0.0955294992108,-0.360437363359,-0.89055229408,0.171644330025,-0.235782712698,-0.327110230923,0.1176798,1.3925443,12.93497135,-17.4664344788,-8.41405010223,1.62437415123,0.197003379464,-0.284079760313,-0.264806002378,-0.409999996424,-593.644897461,66.8792266846,92.20690918,-2.84196019173,-1.9476127624000057,7.2231426239,18.0963306427,1.72007811069,15.0
2018-10-05 18:48:52.600,0.0955294992108,-0.360437363359,-0.89055229408,0.171644330025,-0.235782712698,-0.327110230923,0.1176798,1.3925443,12.93497135,-17.4664344788,-8.41405010223,1.62437415123,0.197003379464,-0.284079760313,-0.264806002378,-0.569999992847,-593.644897461,66.5933990479,93.20690918,-3.3119602203399996,-1.9476127624000057,7.2231426239,18.0963306427,1.72007811069,15.0
2018-10-05 18:48:52.650,0.0955294992108,-0.360437363359,-0.89055229408,0.171644330025,-0.235782712698,-0.327110230923,0.1176798,1.3925443,12.93497135,-18.5117607117,-6.35984039307,1.84013998508,0.171644330025,-0.235782712698,-0.327110230923,-0.569999992847,-593.644897461,66.5933990479,93.20690918,-3.3119602203399996,-1.9476127624000057,6.35984039307,18.5117607117,1.84013998508,15.0
2018-10-05 18:48:52.700,0.0955294992108,-0.360437363359,-0.89055229408,0.171644330025,-0.235782712698,-0.327110230923,0.1176798,1.3925443,12.93497135,-18.5117607117,-6.35984039307,1.84013998508,0.171644330025,-0.235782712698,-0.327110230923,-0.75,-610.26763916,66.2362518311,94.20690918,-3.8319602012600003,-1.9476127624000057,5.88468170166,18.7202072144,1.85974824429,15.0
2018-10-05 18:48:52.750,0.0955294992108,-0.360437363359,-0.89055229408,0.171644330025,-0.235782712698,-0.327110230923,0.1176798,1.3925443,12.93497135,-18.5117607117,-6.35984039307,1.84013998508,0.171644330025,-0.235782712698,-0.327110230923,-0.75,-610.26763916,66.2362518311,94.20690918,-3.8319602012600003,-1.9476127624000057,5.88468170166,18.7202072144,1.85974824429,15.0
2018-10-05 18:48:52.800,0.0863700418492,-0.363069449715,-0.906388563585,0.127208650112,-0.189294040203,-0.372018307447,-0.1176798,0.588399,11.85623985,-18.5117607117,-6.35984039307,1.84013998508,0.171644330025,-0.235782712698,-0.327110230923,-0.930000007153,-610.26763916,65.8465423584,95.20690918,-4.26196026802,-1.9476127624000057,5.30369329453,18.9671936035,1.77627837658,15.0
