%time,field.orientation.x,field.orientation.y,field.orientation.z,field.angular_velocity.x,field.angular_velocity.y,field.angular_velocity.z,field.linear_acceleration.x,field.linear_acceleration.y,field.linear_acceleration.z,field.twist.linear.x,field.twist.linear.y,field.twist.linear.z,field.twist.angular.x,field.twist.angular.y,field.twist.angular.z,field.alt_error,field.aspd_error,field.xtrack_error,delta_yaw,delta_pitch,delta_roll,delta_x,delta_y,delta_z,delta_roll_airspeed
2018-09-11 18:19:26.550,,,,,,,,,,,,,,,,-0.0899999961257,-534.08795166,-41.0949401855,176.4240493774,-1.8707528114399998,36.847936928263,-1.2701201215425,36.6096220016,0.610571742058,15.0
2018-09-11 18:19:26.600,,,,,,,,,,,,,,,,-0.0899999961257,-534.08795166,-41.0949401855,176.4240493774,-1.8707528114399998,36.847936928263,-1.2483666911725,36.648432731599996,0.510690510273,15.0
2018-09-11 18:19:26.650,,,,,,,,,,-20.6485309601,1.3044090271,0.510690510273,0.0486008711159,0.0137634966522,-0.0482225604355,-0.0899999961257,-534.08795166,-41.0949401855,176.4240493774,-1.8707528114399998,36.847936928263,-1.2435952201525,36.646950721699994,0.416480839252,15.0
2018-09-11 18:19:26.700,,,,,,,,,,-20.6485309601,1.3044090271,0.510690510273,0.0486008711159,0.0137634966522,-0.0482225604355,-0.129999995232,-534.08795166,-39.0383796692,176.4240493774,-1.8707528114399998,38.977937996363,-1.2435952201525,36.646950721699994,0.416480839252,15.0
2018-09-11 18:19:26.750,,,,,,,,,,-20.6485309601,1.3044090271,0.510690510273,0.0486008711159,0.0137634966522,-0.0482225604355,-0.149999991059,-549.41809082,-36.9992179871,176.4240493774,-1.89075279236,40.777937233463,-1.3272335305825,36.5749979019,0.380927801132,15.0
2018-09-11 18:19:26.800,,,,,,,,,,-20.5229263306,1.47232091427,0.379774332047,0.0486008711159,0.0137634966522,-0.0482225604355,-0.149999991059,-549.41809082,-36.9992179871,176.4240493774,-1.89075279236,40.777937233463,-1.3895700946425,36.5350408554,0.383991897106,15.0
2018-09-11 18:19:26.850,,,,,,,,,,-20.5229263306,1.47232091427,0.379774332047,0.0486008711159,0.0137634966522,-0.0482225604355,-0.149999991059,-549.41809082,-36.9992179871,176.4240493774,-1.86075282097,40.777937233463,-1.4642829671525,36.5045518875,0.380292028189,15.0
2018-09-11 18:19:26.900,0.00160540898642,-0.119825575701,-0.991155827542,0.917328000069,-0.0341166444123,-0.0157110709697,-0.588399,0.2941995,10.0812362,-20.5229263306,1.47232091427,0.379774332047,0.0486008711159,0.0137634966522,-0.0482225604355,-0.179999992251,-549.41809082,-34.9505767822,175.53307342530002,-2.2349022030879997,27.8179073334,-1.5327267423225,36.458979606599996,0.370068132877,15.0
2018-09-11 18:19:26.950,0.00160540898642,-0.119825575701,-0.991155827542,0.917328000069,-0.0341166444123,-0.0157110709697,-0.588399,0.2941995,10.0812362,-20.5229263306,1.47232091427,0.379774332047,0.0486008711159,0.0137634966522,-0.0482225604355,-0.199999988079,-551.317626953,-32.9261436462,175.53307342530002,-2.204902231698,27.8179073334,-1.6658040061625001,36.3906488418,0.321424007416,15.0
2018-09-11 18:19:27.000,0.00160540898642,-0.119825575701,-0.991155827542,0.917328000069,-0.0341166444123,-0.0157110709697,-0.588399,0.2941995,10.0812362,-20.5229263306,1.47232091427,0.379774332047,0.0486008711159,0.0137634966522,-0.0482225604355,-0.199999988079,-551.317626953,-32.9261436462,175.53307342530002,-2.194902241228,29.3179073334,-1.8260313048925,36.3227987289,0.274696946144,15.0
2018-09-11 18:19:27.050,0.00160540898642,-0.119825575701,-0.991155827542,0.917328000069,-0.0341166444123,-0.0157110709697,-0.588399,0.2941995,10.0812362,-20.2772521973,1.99145591259,0.238072469831,0.917328000069,-0.0341166444123,-0.0157110709697,-0.199999988079,-551.317626953,-32.9261436462,175.53307342530002,-2.1749022603080004,29.3179073334,-1.9354135766625,36.2771539688,0.238072469831,15.0
2018-09-11 18:19:27.100,0.00160540898642,-0.119825575701,-0.991155827542,0.917328000069,-0.0341166444123,-0.0157110709697,-0.588399,0.2941995,10.0812362,-20.2772521973,1.99145591259,0.238072469831,0.917328000069,-0.0341166444123,-0.0157110709697,-0.229999989271,-551.317626953,-30.9088630676,176.53307342530002,-2.134902298448,30.777906417799997,-2.1136151328725,36.2111005783,0.189665660262,15.0
2018-09-11 18:19:27.150,-0.00439918348289,-0.242963694515,-0.967987471058,0.886799514294,-0.0201157294214,-0.0925932079554,-0.51975245,0.6276256,9.9831697,-20.2772521973,1.99145591259,0.238072469831,0.917328000069,-0.0341166444123,-0.0157110709697,-0.229999989271,-551.317626953,-30.9088630676,176.53307342530002,-2.0749023556679997,30.767908096299998,-2.2694114223125,36.158473014799995,0.180222272873,15.0
2018-09-11 18:19:27.200,-0.00439918348289,-0.242963694515,-0.967987471058,0.886799514294,-0.0201157294214,-0.0925932079554,-0.51975245,0.6276256,9.9831697,-20.2772521973,1.99145591259,0.238072469831,0.917328000069,-0.0341166444123,-0.0157110709697,-0.229999989271,-551.317626953,-30.9088630676,176.53307342530002,-2.0749023556679997,30.767908096299998,-2.2694114223125,36.158473014799995,0.180222272873,15.0
2018-09-11 18:19:27.250,-0.00439918348289,-0.242963694515,-0.967987471058,0.886799514294,-0.0201157294214,-0.0925932079554,-0.51975245,0.6276256,9.9831697,-20.2772521973,1.99145591259,0.238072469831,0.917328000069,-0.0341166444123,-0.0157110709697,-0.25,-543.004211426,-28.905670166,175.8865280151,-1.70815336704,16.7782497406,-2.7191384807224996,36.0432634353,0.197091922164,15.0
2018-09-11 18:19:27.300,-0.00439918348289,-0.242963694515,-0.967987471058,0.886799514294,-0.0201157294214,-0.0925932079554,-0.51975245,0.6276256,9.9831697,-19.9360904694,3.22956705093,0.286148458719,0.886799514294,-0.0201157294214,-0.0925932079554,-0.280000001192,-543.004211426,-26.9251651764,175.8865280151,-1.74815332889,16.7782497406,-2.9342049136724997,35.9958925247,0.23243573308,15.0
2018-09-11 18:19:27.350,-0.00439918348289,-0.242963694515,-0.967987471058,0.886799514294,-0.0201157294214,-0.0925932079554,-0.51975245,0.6276256,9.9831697,-19.9360904694,3.22956705093,0.286148458719,0.886799514294,-0.0201157294214,-0.0925932079554,-0.280000001192,-543.004211426,-26.9251651764,175.8865280151,-1.70815336704,16.7682514191,-3.3021794334025,35.9120149612,0.295905798674,15.0
2018-09-11 18:19:27.400,-0.00439918348289,-0.242963694515,-0.967987471058,0.886799514294,-0.0201157294214,-0.0925932079554,-0.51975245,0.6276256,9.9831697,-19.9360904694,3.22956705093,0.286148458719,0.886799514294,-0.0201157294214,-0.0925932079554,-0.319999992847,-526.799987793,-24.939125061,176.8865280151,-1.85815322399,16.7682514191,-3.6281245723324997,35.8350572586,0.253907412291,15.0
2018-09-11 18:19:27.450,-0.00439918348289,-0.242963694515,-0.967987471058,0.886799514294,-0.0201157294214,-0.0925932079554,-0.51975245,0.6276256,9.9831697,-19.9360904694,3.22956705093,0.286148458719,0.886799514294,-0.0201157294214,-0.0925932079554,-0.319999992847,-526.799987793,-24.939125061,176.8865280151,-1.85815322399,16.7682514191,-3.6281245723324997,35.8350572586,0.253907412291,15.0
2018-09-11 18:19:27.500,-0.0107792058166,-0.316173030003,-0.944051053007,0.150465905666,-0.00739883864298,-0.198464855552,-0.2941995,0.59820565,8.6102387,-19.9360904694,3.22956705093,0.286148458719,0.886799514294,-0.0201157294214,-0.0925932079554,-0.370000004768,-526.799987793,-22.9546985626,176.8865280151,-1.85815322399,16.7582530976,-3.9900053516024996,35.7416334152,0.0626492798328,15.0
2018-09-11 18:19:27.550,-0.0107792058166,-0.316173030003,-0.944051053007,0.150465905666,-0.00739883864298,-0.198464855552,-0.2941995,0.59820565,8.6102387,-19.6555461884,4.37221193314,-0.174790322781,0.150465905666,-0.00739883864298,-0.198464855552,-0.399999976158,-513.414978027,-20.9894371033,174.4600296021,-0.7588820457500001,8.021450042699996,-4.3161695972125,35.6554479599,-0.174790322781,15.0
2018-09-11 18:19:27.600,-0.0107792058166,-0.316173030003,-0.944051053007,0.150465905666,-0.00739883864298,-0.198464855552,-0.2941995,0.59820565,8.6102387,-19.6555461884,4.37221193314,-0.174790322781,0.150465905666,-0.00739883864298,-0.198464855552,-0.399999976158,-513.414978027,-20.9894371033,174.4600296021,-0.7488820552900002,8.001449584999996,-4.5513027682925005,35.6018095016,-0.372622787952,15.0
2018-09-11 18:19:27.650,-0.0107792058166,-0.316173030003,-0.944051053007,0.150465905666,-0.00739883864298,-0.198464855552,-0.2941995,0.59820565,8.6102387,-19.6555461884,4.37221193314,-0.174790322781,0.150465905666,-0.00739883864298,-0.198464855552,-0.389999985695,-513.414978027,-19.0173053741,175.4600296021,-0.5088820457500001,7.971450805700002,-4.5513027682925005,35.6018095016,-0.372622787952,15.0
2018-09-11 18:19:27.700,-0.0107792058166,-0.316173030003,-0.944051053007,0.150465905666,-0.00739883864298,-0.198464855552,-0.2941995,0.59820565,8.6102387,-19.6555461884,4.37221193314,-0.174790322781,0.150465905666,-0.00739883864298,-0.198464855552,-0.389999985695,-513.414978027,-19.0173053741,175.4600296021,-0.5088820457500001,7.971450805700002,-4.8633230701125,35.525673866199995,-0.652064621449,15.0
2018-09-11 18:19:27.750,-0.0107792058166,-0.316173030003,-0.944051053007,0.150465905666,-0.00739883864298,-0.198464855552,-0.2941995,0.59820565,8.6102387,-19.6555461884,4.37221193314,-0.174790322781,0.150465905666,-0.00739883864298,-0.198464855552,-0.34999999404,-509.055908203,-17.0569515228,175.4600296021,-0.12888193131000003,7.9414520264,-5.1041077151925,35.4680185318,-0.848069250584,15.0
2018-09-11 18:19:27.800,-0.00381400537796,-0.341298397769,-0.931473751746,0.246778905392,-0.108773194253,-0.296873927116,-0.14709975,0.63743225,7.71783355,-19.4681167603,5.16015005112,-0.848069250584,0.150465905666,-0.00739883864298,-0.198464855552,-0.34999999404,-509.055908203,-17.0569515228,172.2350769043,2.2025701999700003,5.039798736599998,-5.3842795863725,35.405150413499996,-1.03854954243,15.0
2018-09-11 18:19:27.850,-0.00381400537796,-0.341298397769,-0.931473751746,0.246778905392,-0.108773194253,-0.296873927116,-0.14709975,0.63743225,7.71783355,-19.4681167603,5.16015005112,-0.848069250584,0.150465905666,-0.00739883864298,-0.198464855552,-0.34999999404,-509.055908203,-17.0569515228,172.2350769043,2.2025701999700003,5.039798736599998,-5.3842795863725,35.405150413499996,-1.03854954243,15.0
2018-09-11 18:19:27.900,-0.00381400537796,-0.341298397769,-0.931473751746,0.246778905392,-0.108773194253,-0.296873927116,-0.14709975,0.63743225,7.71783355,-19.4681167603,5.16015005112,-0.848069250584,0.150465905666,-0.00739883864298,-0.198464855552,-0.269999980927,-509.055908203,-15.0858345032,173.2350769043,2.6025701761300004,5.009799957299997,-5.671807624402501,35.3437814712,-1.21144449711,15.0
2018-09-11 18:19:27.950,-0.00381400537796,-0.341298397769,-0.931473751746,0.246778905392,-0.108773194253,-0.296873927116,-0.14709975,0.63743225,7.71783355,-19.4681167603,5.16015005112,-0.848069250584,0.150465905666,-0.00739883864298,-0.198464855552,-0.269999980927,-509.055908203,-15.0858345032,173.2350769043,2.6125701665900003,4.979801177999995,-5.8661144748325,35.2958173751,-1.31625473499,15.0
2018-09-11 18:19:28.000,-0.00381400537796,-0.341298397769,-0.931473751746,0.246778905392,-0.108773194253,-0.296873927116,-0.14709975,0.63743225,7.71783355,-19.4681167603,5.16015005112,-0.848069250584,0.150465905666,-0.00739883864298,-0.198464855552,-0.159999996424,-512.622070312,-13.1337604523,173.2350769043,3.0825701952000006,4.9197998046999984,-6.3963259235025,35.1815099716,-1.59911036491,15.0
2018-09-11 18:19:28.050,-0.00381400537796,-0.341298397769,-0.931473751746,0.246778905392,-0.108773194253,-0.296873927116,-0.14709975,0.63743225,7.71783355,-19.1600666046,6.55589485168,-1.64558959007,0.246778905392,-0.108773194253,-0.296873927116,-0.019999999553,-512.622070312,-11.162197113,174.2350769043,3.612570166589,4.889801025399997,-6.608138419692501,35.1315813064,-1.7053078413,15.0
2018-09-11 18:19:28.100,-0.00381400537796,-0.341298397769,-0.931473751746,0.246778905392,-0.108773194253,-0.296873927116,-0.14709975,0.63743225,7.71783355,-19.1600666046,6.55589485168,-1.64558959007,0.246778905392,-0.108773194253,-0.296873927116,-0.019999999553,-512.622070312,-11.162197113,174.2350769043,3.6225701570520004,4.869800567600002,-6.8166111484125,35.0799322128,-1.83653712273,15.0
2018-09-11 18:19:28.150,-0.00381400537796,-0.341298397769,-0.931473751746,0.246778905392,-0.108773194253,-0.296873927116,-0.14709975,0.63743225,7.71783355,-19.1600666046,6.55589485168,-1.64558959007,0.246778905392,-0.108773194253,-0.296873927116,0.159999996424,-507.188995361,-9.21181869507,175.2350769043,4.27257013321,4.8297996521,-6.8166111484125,35.0799322128,-1.83653712273,15.0
2018-09-11 18:19:28.200,-0.004501585667,-0.373408100325,-0.907902480585,0.214517712593,-0.153315156698,-0.303748190403,-0.0196133,0.4511059,8.7867584,-19.1600666046,6.55589485168,-1.64558959007,0.246778905392,-0.108773194253,-0.296873927116,0.159999996424,-507.188995361,-9.21181869507,168.3717193604,7.472743064169,1.1904182434000035,-7.2018803134525005,34.9765424728,-2.09800124168,15.0
2018-09-11 18:19:28.250,-0.004501585667,-0.373408100325,-0.907902480585,0.214517712593,-0.153315156698,-0.303748190403,-0.0196133,0.4511059,8.7867584,-18.8399028778,7.76706647873,-2.28023886681,0.214517712593,-0.153315156698,-0.303748190403,0.159999996424,-507.188995361,-9.21181869507,168.3717193604,7.472743064169,1.1904182434000035,-7.5806215778025,34.8795232772,-2.24152112007,15.0
2018-09-11 18:19:28.300,-0.004501585667,-0.373408100325,-0.907902480585,0.214517712593,-0.153315156698,-0.303748190403,-0.0196133,0.4511059,8.7867584,-18.8399028778,7.76706647873,-2.28023886681,0.214517712593,-0.153315156698,-0.303748190403,0.359999984503,-507.188995361,-7.24801254272,168.3717193604,8.13274303079,1.1904182434000035,-7.991041518752501,34.7456083297,-2.34159564972,15.0
2018-09-11 18:19:28.350,-0.004501585667,-0.373408100325,-0.907902480585,0.214517712593,-0.153315156698,-0.303748190403,-0.0196133,0.4511059,8.7867584,-18.8399028778,7.76706647873,-2.28023886681,0.214517712593,-0.153315156698,-0.303748190403,0.359999984503,-507.188995361,-7.24801254272,168.3717193604,8.13274303079,1.200416564900003,-8.4460805431025,34.5972471237,-2.38195347786,15.0
2018-09-11 18:19:28.400,-0.004501585667,-0.373408100325,-0.907902480585,0.214517712593,-0.153315156698,-0.303748190403,-0.0196133,0.4511059,8.7867584,-18.8399028778,7.76706647873,-2.28023886681,0.214517712593,-0.153315156698,-0.303748190403,0.589999973774,-511.322601318,-5.30918884277,169.3717193604,8.77274298668,1.2104187012000054,-8.7534469142525,34.4889612197,-2.42367219925,15.0
2018-09-11 18:19:28.450,-0.004501585667,-0.373408100325,-0.907902480585,0.214517712593,-0.153315156698,-0.303748190403,-0.0196133,0.4511059,8.7867584,-18.8399028778,7.76706647873,-2.28023886681,0.214517712593,-0.153315156698,-0.303748190403,0.589999973774,-511.322601318,-5.30918884277,169.3717193604,8.78274297715,1.2204170227000048,-9.0760673061025,34.369898796,-2.45298147202,15.0
2018-09-11 18:19:28.500,-0.004501585667,-0.373408100325,-0.907902480585,0.214517712593,-0.153315156698,-0.303748190403,-0.0196133,0.4511059,8.7867584,-18.113451004,9.79236316681,-2.48766922951,0.214517712593,-0.153315156698,-0.303748190403,0.829999983311,-525.052062988,-3.35820388794,170.3717193604,9.41274297238,1.2304153442000043,-9.402377463872499,34.2462797164,-2.47871518135,15.0
2018-09-11 18:19:28.550,-0.0412686446499,-0.382755947452,-0.885290955682,0.0219126045704,-0.360439658165,-0.247207060456,0.3334261,0.46091255,13.13110435,-18.113451004,9.79236316681,-2.48766922951,0.214517712593,-0.153315156698,-0.303748190403,0.829999983311,-525.052062988,-3.35820388794,170.3717193604,9.41274297238,1.2404174805000068,-9.9065412059425,34.0450601577,-2.48747229576,15.0
2018-09-11 18:19:28.600,-0.0412686446499,-0.382755947452,-0.885290955682,0.0219126045704,-0.360439658165,-0.247207060456,0.3334261,0.46091255,13.13110435,-18.113451004,9.79236316681,-2.48766922951,0.214517712593,-0.153315156698,-0.303748190403,1.07999992371,-525.052062988,-1.41546630859,162.165687561,9.60500240326,-0.22204589849999934,-10.606358863372499,33.748507499599995,-2.43660163879,15.0
2018-09-11 18:19:28.650,-0.0412686446499,-0.382755947452,-0.885290955682,0.0219126045704,-0.360439658165,-0.247207060456,0.3334261,0.46091255,13.13110435,-18.113451004,9.79236316681,-2.48766922951,0.214517712593,-0.153315156698,-0.303748190403,1.32999992371,-525.052062988,0.53006362915,162.165687561,10.165002346040001,-0.21204376219999688,-10.9530871882725,33.5869741439,-2.40575027466,15.0
2018-09-11 18:19:28.700,-0.0412686446499,-0.382755947452,-0.885290955682,0.0219126045704,-0.360439658165,-0.247207060456,0.3334261,0.46091255,13.13110435,-17.3230266571,11.5349206924,-2.34285330772,0.0219126045704,-0.360439658165,-0.247207060456,1.32999992371,-525.052062988,0.53006362915,162.165687561,10.165002346040001,-0.20204544069999741,-11.3012536540725,33.4142847061,-2.36735630035,15.0
2018-09-11 18:19:28.750,-0.0412686446499,-0.382755947452,-0.885290955682,0.0219126045704,-0.360439658165,-0.247207060456,0.3334261,0.46091255,13.13110435,-17.3230266571,11.5349206924,-2.34285330772,0.0219126045704,-0.360439658165,-0.247207060456,1.55999994278,-549.24432373,2.42109298706,163.165687561,10.65500235557,-0.16204452519999535,-12.042956687472499,33.0267648696,-2.24575734138,15.0
2018-09-11 18:19:28.800,-0.0412686446499,-0.382755947452,-0.885290955682,0.0219126045704,-0.360439658165,-0.247207060456,0.3334261,0.46091255,13.13110435,-17.3230266571,11.5349206924,-2.34285330772,0.0219126045704,-0.360439658165,-0.247207060456,1.55999994278,-549.24432373,2.42109298706,163.165687561,10.65500235557,-0.16204452519999535,-12.042956687472499,33.0267648696,-2.24575734138,15.0
2018-09-11 18:19:28.850,-0.0805582144429,-0.376798659819,-0.865915719713,0.133736923337,-0.271079748869,-0.231864765286,0.5295591,1.01008495,15.6318001,-17.3230266571,11.5349206924,-2.34285330772,0.0219126045704,-0.360439658165,-0.247207060456,1.77999997139,-549.24432373,4.33995819092,164.165687561,10.665002346040001,-0.14204406740000053,-12.5733970179725,32.7400026321,-2.15336847305,15.0
2018-09-11 18:19:28.900,-0.0805582144429,-0.376798659819,-0.865915719713,0.133736923337,-0.271079748869,-0.231864765286,0.5295591,1.01008495,15.6318001,-17.3230266571,11.5349206924,-2.34285330772,0.0219126045704,-0.360439658165,-0.247207060456,1.77999997139,-549.24432373,4.33995819092,155.9607772827,9.63751649856,-0.35551071160000447,-12.890411712272499,32.545323371799995,-2.12904453278,15.0
2018-09-11 18:19:28.950,-0.0805582144429,-0.376798659819,-0.865915719713,0.133736923337,-0.271079748869,-0.231864765286,0.5295591,1.01008495,15.6318001,-16.1687145233,13.5469360352,-2.10006737709,0.133736923337,-0.271079748869,-0.231864765286,1.77999997139,-549.24432373,4.33995819092,155.9607772827,9.63751649856,-0.3455123900999979,-13.3353007808725,32.2649145126,-2.10132336617,15.0
2018-09-11 18:19:29.000,-0.0805582144429,-0.376798659819,-0.865915719713,0.133736923337,-0.271079748869,-0.231864765286,0.5295591,1.01008495,15.6318001,-16.1687145233,13.5469360352,-2.10006737709,0.133736923337,-0.271079748869,-0.231864765286,1.99000000954,-542.922790527,6.22188186646,156.9607772827,10.11751651764,-0.3455123900999979,-13.6528333201725,32.0688772201,-2.09292960167,15.0
2018-09-11 18:19:29.050,-0.0805582144429,-0.376798659819,-0.865915719713,0.133736923337,-0.271079748869,-0.231864765286,0.5295591,1.01008495,15.6318001,-16.1687145233,13.5469360352,-2.10006737709,0.133736923337,-0.271079748869,-0.231864765286,1.99000000954,-542.922790527,6.22188186646,156.9607772827,10.11751651764,-0.33551025390000433,-14.267233230172499,31.6538372039,-2.0120677948,15.0
2018-09-11 18:19:29.100,-0.0805582144429,-0.376798659819,-0.865915719713,0.133736923337,-0.271079748869,-0.231864765286,0.5295591,1.01008495,15.6318001,-16.1687145233,13.5469360352,-2.10006737709,0.133736923337,-0.271079748869,-0.231864765286,2.20000004768,-542.922790527,8.10792541504,157.9607772827,10.627516269680001,-0.33551025390000433,-14.426956512072499,31.5402317047,-1.99810755253,15.0
2018-09-11 18:19:29.150,-0.107023604314,-0.368864064472,-0.843402169865,0.044065207243,-0.367402642965,-0.342873841524,0.77472535,1.18660465,14.1411893,-15.069565773,15.1146287918,-1.90258014202,0.133736923337,-0.271079748869,-0.231864765286,2.38999986649,-570.206665039,9.9800491333,158.9607772827,11.05751657486,-0.33551025390000433,-15.058586455872499,31.0694675445,-1.90258014202,15.0
2018-09-11 18:19:29.200,-0.107023604314,-0.368864064472,-0.843402169865,0.044065207243,-0.367402642965,-0.342873841524,0.77472535,1.18660465,14.1411893,-15.069565773,15.1146287918,-1.90258014202,0.133736923337,-0.271079748869,-0.231864765286,2.38999986649,-570.206665039,9.9800491333,158.9607772827,11.05751657486,-0.33551025390000433,-15.058586455872499,31.0694675445,-1.90258014202,15.0
2018-09-11 18:19:29.250,-0.107023604314,-0.368864064472,-0.843402169865,0.044065207243,-0.367402642965,-0.342873841524,0.77472535,1.18660465,14.1411893,-15.069565773,15.1146287918,-1.90258014202,0.133736923337,-0.271079748869,-0.231864765286,2.38999986649,-570.206665039,9.9800491333,151.2702331543,10.82594823837,-0.19437408440000326,-15.708501197372499,30.5575141906,-1.79473316669,15.0
2018-09-11 18:19:29.300,-0.107023604314,-0.368864064472,-0.843402169865,0.044065207243,-0.367402642965,-0.342873841524,0.77472535,1.18660465,14.1411893,-15.069565773,15.1146287918,-1.90258014202,0.133736923337,-0.271079748869,-0.231864765286,2.57999992371,-570.206665039,11.8115997314,152.2702331543,11.235948562619999,-0.1843757629000038,-16.0371812358725,30.2550220489,-1.7118036747,15.0
2018-09-11 18:19:29.350,-0.107023604314,-0.368864064472,-0.843402169865,0.044065207243,-0.367402642965,-0.342873841524,0.77472535,1.18660465,14.1411893,-15.069565773,15.1146287918,-1.90258014202,0.133736923337,-0.271079748869,-0.231864765286,2.75,-600.420593262,13.6233558655,153.2702331543,11.58594846725,-0.16437530510000187,-16.6585229411725,29.6640644073,-1.56230068207,15.0
2018-09-11 18:19:29.400,-0.107023604314,-0.368864064472,-0.843402169865,0.044065207243,-0.367402642965,-0.342873841524,0.77472535,1.18660465,14.1411893,-15.069565773,15.1146287918,-1.90258014202,0.133736923337,-0.271079748869,-0.231864765286,2.75,-600.420593262,13.6233558655,153.2702331543,11.58594846725,-0.16437530510000187,-16.6585229411725,29.6640644073,-1.56230068207,15.0
2018-09-11 18:19:29.450,-0.107023604314,-0.368864064472,-0.843402169865,0.044065207243,-0.367402642965,-0.342873841524,0.77472535,1.18660465,14.1411893,-13.0856399536,17.2979450226,-1.45206046104,0.044065207243,-0.367402642965,-0.342873841524,2.91999983788,-600.420593262,15.431854248,155.2702331543,11.955948352810001,-0.1543731689000012,-17.3994897380725,28.9223794937,-1.42796814442,15.0
2018-09-11 18:19:29.500,-0.107023604314,-0.368864064472,-0.843402169865,0.044065207243,-0.367402642965,-0.342873841524,0.77472535,1.18660465,14.1411893,-13.0856399536,17.2979450226,-1.45206046104,0.044065207243,-0.367402642965,-0.342873841524,2.91999983788,-600.420593262,15.431854248,155.2702331543,11.955948352810001,-0.1543731689000012,-17.3994897380725,28.9223794937,-1.42796814442,15.0
2018-09-11 18:19:29.550,-0.155473950874,-0.358253771736,-0.796691978341,0.0012613106519,-0.383981227875,-0.326291978359,1.18660465,1.0787315,14.9257213,-13.0856399536,17.2979450226,-1.45206046104,0.044065207243,-0.367402642965,-0.342873841524,3.06999993324,-603.929138184,17.1891555786,156.2702331543,12.28594827652,-0.1543731689000012,-18.0552323832725,28.1872425079,-1.33595144749,15.0
2018-09-11 18:19:29.600,-0.155473950874,-0.358253771736,-0.796691978341,0.0012613106519,-0.383981227875,-0.326291978359,1.18660465,1.0787315,14.9257213,-13.0856399536,17.2979450226,-1.45206046104,0.044065207243,-0.367402642965,-0.342873841524,3.06999993324,-603.929138184,17.1891555786,143.8663234711,11.48774814606,-1.0246658326000002,-18.0552323832725,28.1872425079,-1.33595144749,15.0
2018-09-11 18:19:29.650,-0.155473950874,-0.358253771736,-0.796691978341,0.0012613106519,-0.383981227875,-0.326291978359,1.18660465,1.0787315,14.9257213,-11.2275524139,18.8790931702,-1.21875441074,0.0012613106519,-0.383981227875,-0.326291978359,3.21000003815,-603.929138184,18.9454040527,144.8663234711,11.83774805069,-1.0246658326000002,-18.6938928141725,27.3818321228,-1.23710632324,15.0
2018-09-11 18:19:29.700,-0.155473950874,-0.358253771736,-0.796691978341,0.0012613106519,-0.383981227875,-0.326291978359,1.18660465,1.0787315,14.9257213,-11.2275524139,18.8790931702,-1.21875441074,0.0012613106519,-0.383981227875,-0.326291978359,3.21000003815,-603.929138184,18.9454040527,144.8663234711,11.847748279569998,-1.0146636962999978,-19.0578721537725,26.8685188293,-1.17233812809,15.0
2018-09-11 18:19:29.750,-0.155473950874,-0.358253771736,-0.796691978341,0.0012613106519,-0.383981227875,-0.326291978359,1.18660465,1.0787315,14.9257213,-11.2275524139,18.8790931702,-1.21875441074,0.0012613106519,-0.383981227875,-0.326291978359,3.33999991417,-643.729187012,20.6566009521,145.8663234711,12.1677479744,-1.0046653747999983,-19.4300092234725,26.312103271399998,-1.08349812031,15.0
2018-09-11 18:19:29.800,-0.155473950874,-0.358253771736,-0.796691978341,0.0012613106519,-0.383981227875,-0.326291978359,1.18660465,1.0787315,14.9257213,-11.2275524139,18.8790931702,-1.21875441074,0.0012613106519,-0.383981227875,-0.326291978359,3.33999991417,-643.729187012,20.6566009521,145.8663234711,12.17774820328,-0.9846649169999964,-19.6732400432725,25.93540859218,-1.02455615997,15.0
2018-09-11 18:19:29.850,-0.155473950874,-0.358253771736,-0.796691978341,0.0012613106519,-0.383981227875,-0.326291978359,1.18660465,1.0787315,14.9257213,-11.2275524139,18.8790931702,-1.21875441074,0.0012613106519,-0.383981227875,-0.326291978359,3.46000003815,-643.729187012,22.3615570068,146.8663234711,12.42774820328,-0.9746665954999969,-19.9227441325725,25.515467643690002,-0.921099960804,15.0
2018-09-11 18:19:29.900,-0.155473950874,-0.358253771736,-0.796691978341,0.0012613106519,-0.383981227875,-0.326291978359,1.18660465,1.0787315,14.9257213,-11.2275524139,18.8790931702,-1.21875441074,0.0012613106519,-0.383981227875,-0.326291978359,3.46000003815,-643.729187012,22.3615570068,146.8663234711,12.42774820328,-0.9746665954999969,-19.9227441325725,25.515467643690002,-0.921099960804,15.0
2018-09-11 18:19:29.950,-0.155473950874,-0.358253771736,-0.796691978341,0.0012613106519,-0.383981227875,-0.326291978359,1.18660465,1.0787315,14.9257213,-8.84783554077,20.327545166,-0.741437852383,0.0012613106519,-0.383981227875,-0.326291978359,3.55999994278,-637.072387695,24.0007781982,147.8663234711,12.55774831772,-0.9546661377000021,-20.2715028300725,24.84773731227,-0.741437852383,15.0
2018-09-11 18:19:30.000,-0.207914533901,-0.337077332095,-0.744491495285,0.0724061876535,-0.375162571669,-0.238881260157,1.32389775,0.588399,17.5931301,-8.84783554077,20.327545166,-0.741437852383,0.0012613106519,-0.383981227875,-0.326291978359,3.55999994278,-637.072387695,24.0007781982,135.648311615,10.844457864759999,-1.7365455628000035,-20.796155311172498,23.738790035199997,-0.471378624439,15.0
2018-09-11 18:19:30.050,-0.207914533901,-0.337077332095,-0.744491495285,0.0724061876535,-0.375162571669,-0.238881260157,1.32389775,0.588399,17.5931301,-8.84783554077,20.327545166,-0.741437852383,0.0012613106519,-0.383981227875,-0.326291978359,3.55999994278,-637.072387695,24.0007781982,135.648311615,10.844457864759999,-1.7365455628000035,-20.796155311172498,23.738790035199997,-0.471378624439,15.0
2018-09-11 18:19:30.100,-0.207914533901,-0.337077332095,-0.744491495285,0.0724061876535,-0.375162571669,-0.238881260157,1.32389775,0.588399,17.5931301,-8.84783554077,20.327545166,-0.741437852383,0.0012613106519,-0.383981227875,-0.326291978359,3.62999987602,-637.072387695,25.6206588745,137.648311615,10.92445778847,-1.7165451050000016,-21.0967648997725,23.02679777141,-0.261516839266,15.0
2018-09-11 18:19:30.150,-0.207914533901,-0.337077332095,-0.744491495285,0.0724061876535,-0.375162571669,-0.238881260157,1.32389775,0.588399,17.5931301,-8.84783554077,20.327545166,-0.741437852383,0.0012613106519,-0.383981227875,-0.326291978359,3.62999987602,-637.072387695,25.6206588745,137.648311615,10.91445803643,-1.706546783500002,-21.3746121898725,22.263790607409998,0.016284514218600006,15.0
2018-09-11 18:19:30.200,-0.207914533901,-0.337077332095,-0.744491495285,0.0724061876535,-0.375162571669,-0.238881260157,1.32389775,0.588399,17.5931301,-5.73274707794,21.5864715576,0.201260596514,0.0724061876535,-0.375162571669,-0.238881260157,3.65999984741,-660.081115723,27.1548309326,138.648311615,10.76445794106,-1.706546783500002,-21.6601975932725,21.2444453239,0.388575494289,15.0
2018-09-11 18:19:30.250,-0.207914533901,-0.337077332095,-0.744491495285,0.0724061876535,-0.375162571669,-0.238881260157,1.32389775,0.588399,17.5931301,-5.73274707794,21.5864715576,0.201260596514,0.0724061876535,-0.375162571669,-0.238881260157,3.65999984741,-660.081115723,27.1548309326,138.648311615,10.76445794106,-1.706546783500002,-21.6601975932725,21.2444453239,0.388575494289,15.0
2018-09-11 18:19:30.300,-0.207914533901,-0.337077332095,-0.744491495285,0.0724061876535,-0.375162571669,-0.238881260157,1.32389775,0.588399,17.5931301,-5.73274707794,21.5864715576,0.201260596514,0.0724061876535,-0.375162571669,-0.238881260157,3.65999984741,-660.081115723,27.1548309326,139.648311615,10.55445790291,-1.706546783500002,-21.6601975932725,21.2444453239,0.388575494289,15.0
2018-09-11 18:19:30.350,-0.207914533901,-0.337077332095,-0.744491495285,0.0724061876535,-0.375162571669,-0.238881260157,1.32389775,0.588399,17.5931301,-5.73274707794,21.5864715576,0.201260596514,0.0724061876535,-0.375162571669,-0.238881260157,3.57999992371,-684.547607422,30.0797348022,141.648311615,10.15445780754,-1.7165451050000016,-22.0528634562725,19.26721119876,1.09569716454,15.0
2018-09-11 18:19:30.400,-0.274348185101,-0.29324555137,-0.685073167723,0.0975337699056,-0.373429059982,-0.25199174881,1.5886773,0.9414384,20.7312581,-5.73274707794,21.5864715576,0.201260596514,0.0724061876535,-0.375162571669,-0.238881260157,3.57999992371,-684.547607422,30.0797348022,128.35320663452,6.02663004399,-2.4729843138999996,-22.0528634562725,19.26721119876,1.09569716454,15.0
2018-09-11 18:19:30.450,-0.274348185101,-0.29324555137,-0.685073167723,0.0975337699056,-0.373429059982,-0.25199174881,1.5886773,0.9414384,20.7312581,-2.17226099968,22.2603683472,1.40859544277,0.0975337699056,-0.373429059982,-0.25199174881,3.47000002861,-705.915649414,31.4477386475,129.35320663452,6.02663004399,-2.482982635399999,-22.2182439341725,17.93953597541,1.46139919758,15.0
2018-09-11 18:19:30.500,-0.274348185101,-0.29324555137,-0.685073167723,0.0975337699056,-0.373429059982,-0.25199174881,1.5886773,0.9414384,20.7312581,-2.17226099968,22.2603683472,1.40859544277,0.0975337699056,-0.373429059982,-0.25199174881,3.47000002861,-705.915649414,31.4477386475,129.35320663452,5.56663000584,-2.4929847717000015,-22.2649816050725,17.145849704699998,1.67059147358,15.0
2018-09-11 18:19:30.550,-0.274348185101,-0.29324555137,-0.685073167723,0.0975337699056,-0.373429059982,-0.25199174881,1.5886773,0.9414384,20.7312581,-2.17226099968,22.2603683472,1.40859544277,0.0975337699056,-0.373429059982,-0.25199174881,3.47000002861,-705.915649414,31.4477386475,129.35320663452,5.56663000584,-2.4929847717000015,-22.2649816050725,17.145849704699998,1.67059147358,15.0
2018-09-11 18:19:30.600,-0.274348185101,-0.29324555137,-0.685073167723,0.0975337699056,-0.373429059982,-0.25199174881,1.5886773,0.9414384,20.7312581,-2.17226099968,22.2603683472,1.40859544277,0.0975337699056,-0.373429059982,-0.25199174881,3.30999994278,-705.915649414,32.709602356,130.35320663452,5.03663027287,-2.522983550999996,-22.300629951072498,16.357787817671,1.86940157413,15.0
2018-09-11 18:19:30.650,-0.274348185101,-0.29324555137,-0.685073167723,0.0975337699056,-0.373429059982,-0.25199174881,1.5886773,0.9414384,20.7312581,-2.17226099968,22.2603683472,1.40859544277,0.0975337699056,-0.373429059982,-0.25199174881,3.12999987602,-705.915649414,33.9504165649,132.35320663452,4.41662991047,-2.542984008699996,-22.294434882672498,15.37460392709,2.15341734886,15.0
2018-09-11 18:19:30.700,-0.274348185101,-0.29324555137,-0.685073167723,0.0975337699056,-0.373429059982,-0.25199174881,1.5886773,0.9414384,20.7312581,0.877755582333,22.321685791,2.23462033272,0.0975337699056,-0.373429059982,-0.25199174881,3.12999987602,-705.915649414,33.9504165649,132.35320663452,4.40663015843,-2.5529861449999984,-22.2584222331725,14.87184727187,2.29869771004,15.0
2018-09-11 18:19:30.750,-0.274348185101,-0.29324555137,-0.685073167723,0.0975337699056,-0.373429059982,-0.25199174881,1.5886773,0.9414384,20.7312581,0.877755582333,22.321685791,2.23462033272,0.0975337699056,-0.373429059982,-0.25199174881,3.12999987602,-705.915649414,33.9504165649,132.35320663452,4.40663015843,-2.562984466499998,-22.1831429973725,14.189812540959998,2.47913241386,15.0
2018-09-11 18:19:30.800,-0.274348185101,-0.29324555137,-0.685073167723,0.0975337699056,-0.373429059982,-0.25199174881,1.5886773,0.9414384,20.7312581,0.877755582333,22.321685791,2.23462033272,0.0975337699056,-0.373429059982,-0.25199174881,2.88999986649,-669.17590332,35.0991134644,133.35320663452,3.69663012028,-2.5829849243,-22.1131967082725,13.722145080519999,2.59341716766,15.0
2018-09-11 18:19:30.850,-0.306732337604,-0.232476577642,-0.626966408404,-0.164530277252,-0.386830717325,-0.25598180294,0.79433865,1.2748645,16.5732385,0.877755582333,22.321685791,2.23462033272,0.0975337699056,-0.373429059982,-0.25199174881,2.64999985695,-669.17590332,36.218421936,121.91560506821,0.12366938591000043,-0.39367675780000155,-21.9933408275725,13.11293816562,2.71828603745,15.0
2018-09-11 18:19:30.900,-0.306732337604,-0.232476577642,-0.626966408404,-0.164530277252,-0.386830717325,-0.25598180294,0.79433865,1.2748645,16.5732385,3.4973359108,21.9053268433,2.86614513397,-0.164530277252,-0.386830717325,-0.25598180294,2.64999985695,-669.17590332,36.218421936,121.91560506821,0.12366938591000043,-0.39367675780000155,-21.9610150828725,12.90994834895,2.76360201836,15.0
2018-09-11 18:19:30.950,-0.306732337604,-0.232476577642,-0.626966408404,-0.164530277252,-0.386830717325,-0.25598180294,0.79433865,1.2748645,16.5732385,3.4973359108,21.9053268433,2.86614513397,-0.164530277252,-0.386830717325,-0.25598180294,2.64999985695,-669.17590332,36.218421936,123.91560506821,-0.6563305854800001,-0.42367553710000294,-21.8102849498725,12.28582620616,2.91319227219,15.0
2018-09-11 18:19:31.000,-0.306732337604,-0.232476577642,-0.626966408404,-0.164530277252,-0.386830717325,-0.25598180294,0.79433865,1.2748645,16.5732385,3.4973359108,21.9053268433,2.86614513397,-0.164530277252,-0.386830717325,-0.25598180294,2.36999988556,-692.053955078,37.2696151733,123.91560506821,-0.6563305854800001,-0.42367553710000294,-21.6973737254725,11.91287708278,3.01374936104,15.0
2018-09-11 18:19:31.050,-0.306732337604,-0.232476577642,-0.626966408404,-0.164530277252,-0.386830717325,-0.25598180294,0.79433865,1.2748645,16.5732385,3.4973359108,21.9053268433,2.86614513397,-0.164530277252,-0.386830717325,-0.25598180294,2.07999992371,-692.053955078,38.2934799194,124.91560506821,-0.66633057594,-0.42367553710000294,-21.5466340556725,11.36530637737,3.11595892906,15.0
2018-09-11 18:19:31.100,-0.306732337604,-0.232476577642,-0.626966408404,-0.164530277252,-0.386830717325,-0.25598180294,0.79433865,1.2748645,16.5732385,3.4973359108,21.9053268433,2.86614513397,-0.164530277252,-0.386830717325,-0.25598180294,2.07999992371,-692.053955078,38.2934799194,124.91560506821,-1.4363305568699998,-0.4136772156000035,-21.4125836863725,11.029448032329999,3.16964507103,15.0
2018-09-11 18:19:31.150,-0.306732337604,-0.232476577642,-0.626966408404,-0.164530277252,-0.386830717325,-0.25598180294,0.79433865,1.2748645,16.5732385,5.6308889389,21.2245864868,3.23019385338,-0.164530277252,-0.386830717325,-0.25598180294,1.77999997139,-676.627563477,39.2631072998,125.91560506821,-2.1963305473299997,-0.3836746216000009,-21.1685441508725,10.3690128326,3.23019385338,15.0
2018-09-11 18:19:31.200,-0.306732337604,-0.232476577642,-0.626966408404,-0.164530277252,-0.386830717325,-0.25598180294,0.79433865,1.2748645,16.5732385,5.6308889389,21.2245864868,3.23019385338,-0.164530277252,-0.386830717325,-0.25598180294,1.77999997139,-676.627563477,39.2631072998,125.91560506821,-2.1963305473299997,-0.3836746216000009,-21.1685441508725,10.3690128326,3.23019385338,15.0
2018-09-11 18:19:31.250,-0.311526934936,-0.19279694725,-0.564259606118,-0.131347939372,-0.235657945275,-0.375682383776,0.2353596,0.9022118,15.40624715,5.6308889389,21.2245864868,3.23019385338,-0.164530277252,-0.386830717325,-0.25598180294,1.4699999094,-676.627563477,40.2204284668,117.1709289551,-2.02029299736,1.923042297400002,-20.8037961497725,9.47585964198,3.36615610123,15.0
2018-09-11 18:19:31.300,-0.311526934936,-0.19279694725,-0.564259606118,-0.131347939372,-0.235657945275,-0.375682383776,0.2353596,0.9022118,15.40624715,5.6308889389,21.2245864868,3.23019385338,-0.164530277252,-0.386830717325,-0.25598180294,1.4699999094,-676.627563477,40.2204284668,117.1709289551,-2.830292999744,1.9530410767000035,-20.635615684072498,9.145583629559999,3.40684151649,15.0
2018-09-11 18:19:31.350,-0.311526934936,-0.19279694725,-0.564259606118,-0.131347939372,-0.235657945275,-0.375682383776,0.2353596,0.9022118,15.40624715,5.6308889389,21.2245864868,3.23019385338,-0.164530277252,-0.386830717325,-0.25598180294,1.14999997616,-693.447692871,41.1170425415,118.1709289551,-3.590292975307,1.963039398200003,-20.4926312938725,8.846928596449999,3.39082193375,15.0
2018-09-11 18:19:31.400,-0.311526934936,-0.19279694725,-0.564259606118,-0.131347939372,-0.235657945275,-0.375682383776,0.2353596,0.9022118,15.40624715,5.6308889389,21.2245864868,3.23019385338,-0.164530277252,-0.386830717325,-0.25598180294,1.14999997616,-693.447692871,41.1170425415,118.1709289551,-3.590292975307,1.963039398200003,-20.3485978618725,8.55759048457,3.36381220818,15.0
2018-09-11 18:19:31.450,-0.311526934936,-0.19279694725,-0.564259606118,-0.131347939372,-0.235657945275,-0.375682383776,0.2353596,0.9022118,15.40624715,7.86560964584,20.1740455627,3.32718706131,-0.131347939372,-0.235657945275,-0.375682383776,0.829999983311,-683.934570312,41.9927215576,119.1709289551,-3.570292979479,1.9730415344000036,-20.1180032267725,8.13429212566,3.32718706131,15.0
2018-09-11 18:19:31.500,-0.311526934936,-0.19279694725,-0.564259606118,-0.131347939372,-0.235657945275,-0.375682383776,0.2353596,0.9022118,15.40624715,7.86560964584,20.1740455627,3.32718706131,-0.131347939372,-0.235657945275,-0.375682383776,0.829999983311,-683.934570312,41.9927215576,119.1709289551,-4.240292966366,1.9730415344000036,-19.9470151439725,7.83709716792,3.30632162094,15.0
2018-09-11 18:19:31.550,-0.311526934936,-0.19279694725,-0.564259606118,-0.131347939372,-0.235657945275,-0.375682383776,0.2353596,0.9022118,15.40624715,7.86560964584,20.1740455627,3.32718706131,-0.131347939372,-0.235657945275,-0.375682383776,0.52999997139,-683.934570312,42.8387451172,121.1709289551,-4.90029299259,1.9730415344000036,-19.5837396159725,7.243350028949999,3.26350235939,15.0
2018-09-11 18:19:31.600,-0.311526934936,-0.19279694725,-0.564259606118,-0.131347939372,-0.235657945275,-0.375682383776,0.2353596,0.9022118,15.40624715,9.19050693512,19.3614215851,3.22021222115,-0.131347939372,-0.235657945275,-0.375682383776,0.52999997139,-683.934570312,42.8387451172,121.1709289551,-4.89029300213,1.963039398200003,-19.398528434372498,6.95213031764,3.2358751297,15.0
2018-09-11 18:19:31.650,-0.311526934936,-0.19279694725,-0.564259606118,-0.131347939372,-0.235657945275,-0.375682383776,0.2353596,0.9022118,15.40624715,9.19050693512,19.3614215851,3.22021222115,-0.131347939372,-0.235657945275,-0.375682383776,0.219999998808,-658.973144531,43.6566543579,122.1709289551,-5.55029296875,1.963039398200003,-19.1072190776725,6.52219772334,3.18012952805,15.0
2018-09-11 18:19:31.700,-0.34821883599,-0.178592045193,-0.477532421326,0.0614884868264,-0.342304706573,-0.272226661444,-0.10787315,0.5295591,12.77806495,9.19050693512,19.3614215851,3.22021222115,-0.131347939372,-0.235657945275,-0.375682383776,0.219999998808,-658.973144531,43.6566543579,110.2639255524,-4.69744706154,-1.1928825377999956,-18.7907250895725,6.08135032649,3.14237546921,15.0
2018-09-11 18:19:31.750,-0.34821883599,-0.178592045193,-0.477532421326,0.0614884868264,-0.342304706573,-0.272226661444,-0.10787315,0.5295591,12.77806495,9.19050693512,19.3614215851,3.22021222115,-0.131347939372,-0.235657945275,-0.375682383776,0.219999998808,-658.973144531,43.6566543579,110.2639255524,-4.69744706154,-1.1928825377999956,-18.7907250895725,6.08135032649,3.14237546921,15.0
2018-09-11 18:19:31.800,-0.34821883599,-0.178592045193,-0.477532421326,0.0614884868264,-0.342304706573,-0.272226661444,-0.10787315,0.5295591,12.77806495,9.19050693512,19.3614215851,3.22021222115,-0.131347939372,-0.235657945275,-0.375682383776,-0.0799999982119,-658.973144531,44.4301300049,111.2639255524,-5.34744691849,-1.1928825377999956,-18.3537515178725,5.4988756179,3.10522508621,15.0
2018-09-11 18:19:31.850,-0.34821883599,-0.178592045193,-0.477532421326,0.0614884868264,-0.342304706573,-0.272226661444,-0.10787315,0.5295591,12.77806495,9.19050693512,19.3614215851,3.22021222115,-0.131347939372,-0.235657945275,-0.375682383776,-0.379999995232,-658.973144531,45.1813049316,112.2639255524,-6.02744698524,-1.182880401599995,-18.0494264140725,5.1145839691,3.04317712784,15.0
2018-09-11 18:19:31.900,-0.34821883599,-0.178592045193,-0.477532421326,0.0614884868264,-0.342304706573,-0.272226661444,-0.10787315,0.5295591,12.77806495,10.9967851639,18.01222229,3.00715374947,0.0614884868264,-0.342304706573,-0.272226661444,-0.379999995232,-658.973144531,45.1813049316,112.2639255524,-6.02744698524,-1.1728820800000008,-17.9561799540725,5.003116607599999,3.00715374947,15.0
2018-09-11 18:19:31.950,-0.34821883599,-0.178592045193,-0.477532421326,0.0614884868264,-0.342304706573,-0.272226661444,-0.10787315,0.5295591,12.77806495,10.9967851639,18.01222229,3.00715374947,0.0614884868264,-0.342304706573,-0.272226661444,-0.669999957085,-638.55859375,45.8768005371,114.2639255524,-6.54744696617,-1.1528816223000007,-17.6534017100725,4.6567964552999985,2.772554636,15.0
2018-09-11 18:19:32.000,-0.34821883599,-0.178592045193,-0.477532421326,0.0614884868264,-0.342304706573,-0.272226661444,-0.10787315,0.5295591,12.77806495,10.9967851639,18.01222229,3.00715374947,0.0614884868264,-0.342304706573,-0.272226661444,-0.669999957085,-638.55859375,45.8768005371,114.2639255524,-6.54744696617,-1.1528816223000007,-17.5785096660725,4.571756362899999,2.70804643631,15.0
2018-09-11 18:19:32.050,-0.34821883599,-0.178592045193,-0.477532421326,0.0614884868264,-0.342304706573,-0.272226661444,-0.10787315,0.5295591,12.77806495,10.9967851639,18.01222229,3.00715374947,0.0614884868264,-0.342304706573,-0.272226661444,-0.930000007153,-638.55859375,46.5826568604,115.2639255524,-6.957447052,-1.1328811644999988,-17.2667592540725,4.197003364499999,2.45877218246,15.0
2018-09-11 18:19:32.100,-0.358634487371,-0.174012771514,-0.423877891173,0.0579175800085,-0.230260506272,-0.336175262928,-0.2353596,1.01008495,8.93385815,12.1157550812,17.033033371,2.29747200012,0.0579175800085,-0.230260506272,-0.336175262928,-0.930000007153,-638.55859375,46.5826568604,108.5338401794,-5.20280599594,-2.1022834778000004,-17.1780942454725,4.098690032899999,2.40052485466,15.0
2018-09-11 18:19:32.150,-0.358634487371,-0.174012771514,-0.423877891173,0.0579175800085,-0.230260506272,-0.336175262928,-0.2353596,1.01008495,8.93385815,12.1157550812,17.033033371,2.29747200012,0.0579175800085,-0.230260506272,-0.336175262928,-0.930000007153,-638.55859375,46.5826568604,108.5338401794,-5.20280599594,-2.1022834778000004,-16.8683541789725,3.7729215620999987,2.26034092903,15.0
2018-09-11 18:19:32.200,-0.358634487371,-0.174012771514,-0.423877891173,0.0579175800085,-0.230260506272,-0.336175262928,-0.2353596,1.01008495,8.93385815,12.1157550812,17.033033371,2.29747200012,0.0579175800085,-0.230260506272,-0.336175262928,-1.14999997616,-620.246520996,47.2564620972,109.5338401794,-5.55280590057,-2.092285156300001,-16.657784797272498,3.5524911879999994,2.19952750206,15.0
2018-09-11 18:19:32.250,-0.358634487371,-0.174012771514,-0.423877891173,0.0579175800085,-0.230260506272,-0.336175262928,-0.2353596,1.01008495,8.93385815,12.1157550812,17.033033371,2.29747200012,0.0579175800085,-0.230260506272,-0.336175262928,-1.35000002384,-620.246520996,47.9165344238,110.5338401794,-5.55280590057,-2.092285156300001,-16.2853005900725,3.169025421099999,2.13786220551,15.0
2018-09-11 18:19:32.300,-0.358634487371,-0.174012771514,-0.423877891173,0.0579175800085,-0.230260506272,-0.336175262928,-0.2353596,1.01008495,8.93385815,12.1157550812,17.033033371,2.29747200012,0.0579175800085,-0.230260506272,-0.336175262928,-1.35000002384,-620.246520996,47.9165344238,110.5338401794,-5.972805976869999,-2.092285156300001,-15.7814839854725,2.6807651518999993,2.06051445007,15.0
2018-09-11 18:19:32.350,-0.358634487371,-0.174012771514,-0.423877891173,0.0579175800085,-0.230260506272,-0.336175262928,-0.2353596,1.01008495,8.93385815,13.5679960251,15.5681781769,2.04586791992,0.0579175800085,-0.230260506272,-0.336175262928,-1.51999998093,-611.317077637,48.5207061768,112.5338401794,-6.34280586243,-2.092285156300001,-15.5121358409725,2.4319057464,2.04586791992,15.0
2018-09-11 18:19:32.400,-0.36529757167,-0.150657777448,-0.354239746809,-0.0487153455615,-0.26811593771,-0.328016787767,-0.48052585,0.3726527,12.5132854,13.5679960251,15.5681781769,2.04586791992,0.0579175800085,-0.230260506272,-0.336175262928,-1.51999998093,-611.317077637,48.5207061768,112.5338401794,-6.34280586243,-2.092285156300001,-15.2430671229725,2.1885957716999993,1.99522280693,15.0
2018-09-11 18:19:32.450,-0.36529757167,-0.150657777448,-0.354239746809,-0.0487153455615,-0.26811593771,-0.328016787767,-0.48052585,0.3726527,12.5132854,13.5679960251,15.5681781769,2.04586791992,0.0579175800085,-0.230260506272,-0.336175262928,-1.68999993801,-611.317077637,49.0979614258,104.2804679871,-5.715949252251,-1.6697998046999984,-14.845095016072499,1.8454103468999996,1.93542170525,15.0
2018-09-11 18:19:32.500,-0.36529757167,-0.150657777448,-0.354239746809,-0.0487153455615,-0.26811593771,-0.328016787767,-0.48052585,0.3726527,12.5132854,13.5679960251,15.5681781769,2.04586791992,0.0579175800085,-0.230260506272,-0.336175262928,-1.68999993801,-611.317077637,49.0979614258,104.2804679871,-5.715949252251,-1.6697998046999984,-14.7088855281725,1.7288484572999998,1.92136490345,15.0
2018-09-11 18:19:32.550,-0.36529757167,-0.150657777448,-0.354239746809,-0.0487153455615,-0.26811593771,-0.328016787767,-0.48052585,0.3726527,12.5132854,13.5679960251,15.5681781769,2.04586791992,0.0579175800085,-0.230260506272,-0.336175262928,-1.68999993801,-611.317077637,49.0979614258,104.2804679871,-5.705949023361,-1.6697998046999984,-14.2846807017725,1.3695850372000002,1.85573220253,15.0
2018-09-11 18:19:32.600,-0.36529757167,-0.150657777448,-0.354239746809,-0.0487153455615,-0.26811593771,-0.328016787767,-0.48052585,0.3726527,12.5132854,14.9194822311,13.9711875916,1.7625784874,-0.0487153455615,-0.26811593771,-0.328016787767,-1.83999991417,-590.568359375,49.6173171997,105.2804679871,-6.015948966141,-1.6697998046999984,-14.028378821872499,1.1680793761999997,1.79710710049,15.0
2018-09-11 18:19:32.650,-0.36529757167,-0.150657777448,-0.354239746809,-0.0487153455615,-0.26811593771,-0.328016787767,-0.48052585,0.3726527,12.5132854,14.9194822311,13.9711875916,1.7625784874,-0.0487153455615,-0.26811593771,-0.328016787767,-2.0,-590.568359375,50.094833374,106.2804679871,-6.305948928001,-1.6697998046999984,-13.5221417918725,0.773848533599999,1.6589858532,15.0
2018-09-11 18:19:32.700,-0.36529757167,-0.150657777448,-0.354239746809,-0.0487153455615,-0.26811593771,-0.328016787767,-0.48052585,0.3726527,12.5132854,14.9194822311,13.9711875916,1.7625784874,-0.0487153455615,-0.26811593771,-0.328016787767,-2.0,-590.568359375,50.094833374,106.2804679871,-6.3159491568810004,-1.6697998046999984,-13.2191508784725,0.5522918700999995,1.62327718735,15.0
2018-09-11 18:19:32.750,-0.370605920914,-0.136048312728,-0.306774544629,-0.0754097551107,-0.287172883749,-0.247615337372,-0.4707192,0.8629852,12.83690485,14.9194822311,13.9711875916,1.7625784874,-0.0487153455615,-0.26811593771,-0.328016787767,-2.0,-590.568359375,50.094833374,100.21428298949999,-5.64658176899,-1.623703002900001,-12.9468511119725,0.3570175169999992,1.58420312405,15.0
2018-09-11 18:19:32.800,-0.370605920914,-0.136048312728,-0.306774544629,-0.0754097551107,-0.287172883749,-0.247615337372,-0.4707192,0.8629852,12.83690485,14.9194822311,13.9711875916,1.7625784874,-0.0487153455615,-0.26811593771,-0.328016787767,-2.11999988556,-582.354370117,50.5078887939,101.21428298949999,-5.89658176899,-1.623703002900001,-12.4818633571725,0.044271469099999905,1.54402780533,15.0
2018-09-11 18:19:32.850,-0.370605920914,-0.136048312728,-0.306774544629,-0.0754097551107,-0.287172883749,-0.247615337372,-0.4707192,0.8629852,12.83690485,16.2375507355,12.1031780243,1.51544678211,-0.0754097551107,-0.287172883749,-0.247615337372,-2.11999988556,-582.354370117,50.5078887939,101.21428298949999,-5.886581540110001,-1.623703002900001,-12.195980407272499,-0.14204120640000184,1.54181945324,15.0
2018-09-11 18:19:32.900,-0.370605920914,-0.136048312728,-0.306774544629,-0.0754097551107,-0.287172883749,-0.247615337372,-0.4707192,0.8629852,12.83690485,16.2375507355,12.1031780243,1.51544678211,-0.0754097551107,-0.287172883749,-0.247615337372,-2.24000000954,-582.354370117,50.900390625,103.21428298949999,-6.19658195972,-1.623703002900001,-11.905297614672499,-0.328745842,1.48497569561,15.0
2018-09-11 18:19:32.950,-0.370605920914,-0.136048312728,-0.306774544629,-0.0754097551107,-0.287172883749,-0.247615337372,-0.4707192,0.8629852,12.83690485,16.2375507355,12.1031780243,1.51544678211,-0.0754097551107,-0.287172883749,-0.247615337372,-2.33999991417,-569.365112305,51.2294464111,104.21428298949999,-6.3565818071399995,-1.623703002900001,-11.5045045390725,-0.5619668960999995,1.37371528149,15.0
2018-09-11 18:19:33.000,-0.370605920914,-0.136048312728,-0.306774544629,-0.0754097551107,-0.287172883749,-0.247615337372,-0.4707192,0.8629852,12.83690485,16.2375507355,12.1031780243,1.51544678211,-0.0754097551107,-0.287172883749,-0.247615337372,-2.33999991417,-569.365112305,51.2294464111,104.21428298949999,-6.3565818071399995,-1.6337013244000005,-10.9967034831725,-0.8391408921000014,1.17373013496,15.0
2018-09-11 18:19:33.050,-0.370605920914,-0.136048312728,-0.306774544629,-0.0754097551107,-0.287172883749,-0.247615337372,-0.4707192,0.8629852,12.83690485,17.0458431244,10.6605005264,1.00445699692,-0.0754097551107,-0.287172883749,-0.247615337372,-2.44000005722,-569.365112305,51.5261001587,105.21428298949999,-6.456581711769999,-1.6337013244000005,-10.749215461272499,-0.9749727250000007,1.05806767941,15.0
2018-09-11 18:19:33.100,-0.370605920914,-0.136048312728,-0.306774544629,-0.0754097551107,-0.287172883749,-0.247615337372,-0.4707192,0.8629852,12.83690485,17.0458431244,10.6605005264,1.00445699692,-0.0754097551107,-0.287172883749,-0.247615337372,-2.44000005722,-569.365112305,51.5261001587,105.21428298949999,-6.456581711769999,-1.6337013244000005,-10.749215461272499,-0.9749727250000007,1.05806767941,15.0
2018-09-11 18:19:33.150,-0.383290350962,-0.122545871582,-0.231720930626,-0.00610572658479,-0.306749254465,-0.367841005325,-0.89240515,1.08853815,10.2577559,17.0458431244,10.6605005264,1.00445699692,-0.0754097551107,-0.287172883749,-0.247615337372,-2.44000005722,-569.365112305,51.5261001587,105.21428298949999,-6.456581711769999,-1.6436996459,-10.3534520640725,-1.1755437851000003,0.907375454903,15.0
2018-09-11 18:19:33.200,-0.383290350962,-0.122545871582,-0.231720930626,-0.00610572658479,-0.306749254465,-0.367841005325,-0.89240515,1.08853815,10.2577559,17.0458431244,10.6605005264,1.00445699692,-0.0754097551107,-0.287172883749,-0.247615337372,-2.49000000954,-588.152893066,51.7869949341,97.3168373108,-4.68008232117,-2.566162109400004,-9.786469794812499,-1.4546651841000013,0.762000441551,15.0
2018-09-11 18:19:33.250,-0.383290350962,-0.122545871582,-0.231720930626,-0.00610572658479,-0.306749254465,-0.367841005325,-0.89240515,1.08853815,10.2577559,17.0458431244,10.6605005264,1.00445699692,-0.0754097551107,-0.287172883749,-0.247615337372,-2.49000000954,-588.152893066,51.7869949341,97.3168373108,-4.690082073220001,-2.566162109400004,-9.4801829829825,-1.598456382800002,0.708446979523,15.0
2018-09-11 18:19:33.300,-0.383290350962,-0.122545871582,-0.231720930626,-0.00610572658479,-0.306749254465,-0.367841005325,-0.89240515,1.08853815,10.2577559,17.0458431244,10.6605005264,1.00445699692,-0.0754097551107,-0.287172883749,-0.247615337372,-2.53999996185,-588.152893066,52.0260391235,98.3168373108,-4.7600822448799995,-2.5761604309000035,-9.0764583125725,-1.7915124894000023,0.590282559395,15.0
2018-09-11 18:19:33.350,-0.383290350962,-0.122545871582,-0.231720930626,-0.00610572658479,-0.306749254465,-0.367841005325,-0.89240515,1.08853815,10.2577559,17.9063510895,8.85908222198,0.502971172333,-0.00610572658479,-0.306749254465,-0.367841005325,-2.53999996185,-591.088500977,52.2197799683,100.3168373108,-4.68008232117,-2.606163024899999,-8.6735614314725,-1.9641256333000001,0.466863870621,15.0
2018-09-11 18:19:33.400,-0.383290350962,-0.122545871582,-0.231720930626,-0.00610572658479,-0.306749254465,-0.367841005325,-0.89240515,1.08853815,10.2577559,17.9063510895,8.85908222198,0.502971172333,-0.00610572658479,-0.306749254465,-0.367841005325,-2.53999996185,-591.088500977,52.2197799683,100.3168373108,-4.67008209229,-2.6361618042000003,-8.6735614314725,-1.9641256333000001,0.466863870621,15.0
2018-09-11 18:19:33.450,-0.383290350962,-0.122545871582,-0.231720930626,-0.00610572658479,-0.306749254465,-0.367841005325,-0.89240515,1.08853815,10.2577559,17.9063510895,8.85908222198,0.502971172333,-0.00610572658479,-0.306749254465,-0.367841005325,-2.53999996185,-591.088500977,52.400642395,101.3168373108,-4.540081977850001,-2.6561622620000023,-8.0301631465525,-2.2347688675000015,0.192352250218,15.0
2018-09-11 18:19:33.500,-0.386119567327,-0.114296311306,-0.157685845355,0.138543754816,-0.209013611078,-0.407930165529,-0.87279185,0.6472389,10.87557485,17.9063510895,8.85908222198,0.502971172333,-0.00610572658479,-0.306749254465,-0.367841005325,-2.53999996185,-591.088500977,52.400642395,101.3168373108,-4.540081977850001,-2.6561622620000023,-8.0301631465525,-2.2347688675000015,0.192352250218,15.0
2018-09-11 18:19:33.550,-0.386119567327,-0.114296311306,-0.157685845355,0.138543754816,-0.209013611078,-0.407930165529,-0.87279185,0.6472389,10.87557485,18.5535411835,7.28551340103,-0.115036778152,0.138543754816,-0.209013611078,-0.407930165529,-2.5,-588.520446777,52.5338363647,93.9596328735,-1.6718869209199996,-2.6036987305000068,-7.3582366481425,-2.5043840408999998,-0.0729624330997,15.0
2018-09-11 18:19:33.600,-0.386119567327,-0.114296311306,-0.157685845355,0.138543754816,-0.209013611078,-0.407930165529,-0.87279185,0.6472389,10.87557485,18.5535411835,7.28551340103,-0.115036778152,0.138543754816,-0.209013611078,-0.407930165529,-2.5,-588.520446777,52.5338363647,93.9596328735,-1.6718869209199996,-2.6036987305000068,-7.3582366481425,-2.5043840408999998,-0.0729624330997,15.0
2018-09-11 18:19:33.650,-0.386119567327,-0.114296311306,-0.157685845355,0.138543754816,-0.209013611078,-0.407930165529,-0.87279185,0.6472389,10.87557485,18.5535411835,7.28551340103,-0.115036778152,0.138543754816,-0.209013611078,-0.407930165529,-2.44000005722,-575.584960938,52.6491622925,94.9596328735,-1.4518871307300003,-2.683700561500004,-6.516866065562501,-2.8347940445000006,-0.339916944504,15.0
2018-09-11 18:19:33.700,-0.386119567327,-0.114296311306,-0.157685845355,0.138543754816,-0.209013611078,-0.407930165529,-0.87279185,0.6472389,10.87557485,18.5535411835,7.28551340103,-0.115036778152,0.138543754816,-0.209013611078,-0.407930165529,-2.44000005722,-575.584960938,52.6491622925,94.9596328735,-1.4518871307300003,-2.7336997986,-6.516866065562501,-2.8347940445000006,-0.339916944504,15.0
2018-09-11 18:19:33.750,-0.386119567327,-0.114296311306,-0.157685845355,0.138543754816,-0.209013611078,-0.407930165529,-0.87279185,0.6472389,10.87557485,18.5535411835,7.28551340103,-0.115036778152,0.138543754816,-0.209013611078,-0.407930165529,-2.33999991417,-575.584960938,52.7210922241,95.9596328735,-1.0918869972199996,-2.7637023926000026,-5.9054387584325,-3.0556859970999994,-0.515030741692,15.0
2018-09-11 18:19:33.800,-0.386119567327,-0.114296311306,-0.157685845355,0.138543754816,-0.209013611078,-0.407930165529,-0.87279185,0.6472389,10.87557485,18.5535411835,7.28551340103,-0.115036778152,0.138543754816,-0.209013611078,-0.407930165529,-2.33999991417,-575.584960938,52.7210922241,95.9596328735,-1.0918869972199996,-2.7637023926000026,-5.9054387584325,-3.0556859970999994,-0.515030741692,15.0
2018-09-11 18:19:33.850,-0.386119567327,-0.114296311306,-0.157685845355,0.138543754816,-0.209013611078,-0.407930165529,-0.87279185,0.6472389,10.87557485,19.3026809692,5.19334363937,-0.76350903511,0.138543754816,-0.209013611078,-0.407930165529,-2.23000001907,-575.584960938,52.7588653564,97.9596328735,-1.08188724517,-2.813701629600004,-5.1373013034425,-3.3027791977000014,-0.76350903511,15.0
2018-09-11 18:19:33.900,-0.386119567327,-0.114296311306,-0.157685845355,0.138543754816,-0.209013611078,-0.407930165529,-0.87279185,0.6472389,10.87557485,19.3026809692,5.19334363937,-0.76350903511,0.138543754816,-0.209013611078,-0.407930165529,-2.23000001907,-575.584960938,52.7588653564,97.9596328735,-0.7218871116600001,-2.8536987305000068,-4.827048160132501,-3.394686699000001,-0.872283935547,15.0
2018-09-11 18:19:33.950,-0.39613684695,-0.106844753304,-0.0584175016542,0.0684413909912,-0.255943089724,-0.30439978838,-0.7649187,0.30400615,11.1991943,19.3026809692,5.19334363937,-0.76350903511,0.138543754816,-0.209013611078,-0.407930165529,-2.08999991417,-598.646911621,52.7598724365,88.1344451904,3.4521703720100003,-3.446926116900002,-4.5443066135025,-3.4835939408000023,-0.989104032516,15.0
2018-09-11 18:19:34.000,-0.39613684695,-0.106844753304,-0.0584175016542,0.0684413909912,-0.255943089724,-0.30439978838,-0.7649187,0.30400615,11.1991943,19.3026809692,5.19334363937,-0.76350903511,0.138543754816,-0.209013611078,-0.407930165529,-2.08999991417,-598.646911621,52.7598724365,88.1344451904,3.4521703720100003,-3.446926116900002,-4.2462705150225,-3.557181358400001,-1.10309004784,15.0
2018-09-11 18:19:34.050,-0.39613684695,-0.106844753304,-0.0584175016542,0.0684413909912,-0.255943089724,-0.30439978838,-0.7649187,0.30400615,11.1991943,19.6991996765,3.71331906319,-1.33212482929,0.0684413909912,-0.255943089724,-0.30439978838,-2.08999991417,-598.646911621,52.7598724365,88.1344451904,3.46217012405,-3.4369277953999955,-3.8027933612425,-3.6679182053000012,-1.27136921883,15.0
2018-09-11 18:19:34.100,-0.39613684695,-0.106844753304,-0.0584175016542,0.0684413909912,-0.255943089724,-0.30439978838,-0.7649187,0.30400615,11.1991943,19.6991996765,3.71331906319,-1.33212482929,0.0684413909912,-0.255943089724,-0.30439978838,-1.92999994755,-598.646911621,52.7408294678,89.1344451904,3.97217035293,-3.426925659200002,-3.5449565425525,-3.7302293778000006,-1.41441869736,15.0
2018-09-11 18:19:34.150,-0.39613684695,-0.106844753304,-0.0584175016542,0.0684413909912,-0.255943089724,-0.30439978838,-0.7649187,0.30400615,11.1991943,19.6991996765,3.71331906319,-1.33212482929,0.0684413909912,-0.255943089724,-0.30439978838,-1.92999994755,-598.646911621,52.7408294678,89.1344451904,3.97217035293,-3.4169273376000007,-3.1956735625825,-3.8061838150000007,-1.69881677628,15.0
2018-09-11 18:19:34.200,-0.39613684695,-0.106844753304,-0.0584175016542,0.0684413909912,-0.255943089724,-0.30439978838,-0.7649187,0.30400615,11.1991943,19.6991996765,3.71331906319,-1.33212482929,0.0684413909912,-0.255943089724,-0.30439978838,-1.70999991894,-613.062866211,52.6673049927,90.1344451904,4.71217012405,-3.3969268799000005,-2.6039546504624997,-3.9117918015000015,-1.90569245815,15.0
