%time,field.orientation.x,field.orientation.y,field.orientation.z,field.angular_velocity.x,field.angular_velocity.y,field.angular_velocity.z,field.linear_acceleration.x,field.linear_acceleration.y,field.linear_acceleration.z,field.data,field.twist.linear.x,field.twist.linear.y,field.twist.linear.z,field.twist.angular.x,field.twist.angular.y,field.twist.angular.z,field.alt_error,field.aspd_error,field.xtrack_error,delta_yaw,delta_pitch,delta_roll,delta_x,delta_y,delta_z,delta_roll_airspeed
2018-10-18 15:10:35.250,,,,,,,,,,0.0,-15.5005979538,3.47407722473,-0.0283563584089,-0.151285499334,0.0665140673518,0.127165526152,-0.070000000298,-363.144287109,-35.1764144897,172.6934051514,-2.7889069318799997,10.13533496857,-3.44843792915,15.518614769,-0.0924841091037,15.0
2018-10-18 15:10:35.300,0.025519621133,0.0105503109183,-0.982209385725,0.3073310256,0.0468706227839,-0.0808300971985,-0.46091255,0.5295591,9.3163175,0.0,-15.5005979538,3.47407722473,-0.0283563584089,-0.151285499334,0.0665140673518,0.127165526152,-0.070000000298,-363.144287109,-35.1764144897,173.5422286987,-1.20131349563,6.37277078629,12.572470426559999,15.516940116899997,-0.20549191534499803,15.0
2018-10-18 15:10:35.350,0.025519621133,0.0105503109183,-0.982209385725,0.3073310256,0.0468706227839,-0.0808300971985,-0.46091255,0.5295591,9.3163175,0.0,-15.5005979538,3.47407722473,-0.0283563584089,-0.151285499334,0.0665140673518,0.127165526152,-0.0899999961257,-372.702972412,-33.5680046082,173.5422286987,-0.5113134384099998,7.58277082443,12.5683093071,15.522438049299996,-0.27350449562099804,15.0
2018-10-18 15:10:35.400,0.025519621133,0.0105503109183,-0.982209385725,0.3073310256,0.0468706227839,-0.0808300971985,-0.46091255,0.5295591,9.3163175,0.0,-15.5005979538,3.47407722473,-0.0283563584089,-0.151285499334,0.0665140673518,0.127165526152,-0.0899999961257,-372.702972412,-33.5680046082,173.5422286987,0.2886865139000001,5.19277095795,12.56763768196,15.517448425299996,-0.41780325770399807,15.0
2018-10-18 15:10:35.450,0.025519621133,0.0105503109183,-0.982209385725,0.3073310256,0.0468706227839,-0.0808300971985,-0.46091255,0.5295591,9.3163175,0.0,-15.5135622025,3.46189403534,-0.463677227497,0.3073310256,0.0468706227839,-0.0808300971985,-0.0799999982119,-372.702972412,-472.963012695,24.5422286987,-0.4713134765599998,13.9027709961,12.53810596466,15.513562202499996,-0.4636772274969981,16.0
2018-10-18 15:10:35.500,0.025519621133,0.0105503109183,-0.982209385725,0.3073310256,0.0468706227839,-0.0808300971985,-0.46091255,0.5295591,9.3163175,0.0,-15.5135622025,3.46189403534,-0.463677227497,0.3073310256,0.0468706227839,-0.0808300971985,-0.0799999982119,-372.702972412,-472.963012695,24.5422286987,-0.41131353378,19.5627708435,12.52240967751,15.513605117799996,-0.44724217057199805,16.0
2018-10-18 15:10:35.550,0.025519621133,0.0105503109183,-0.982209385725,0.3073310256,0.0468706227839,-0.0808300971985,-0.46091255,0.5295591,9.3163175,0.0,-15.5135622025,3.46189403534,-0.463677227497,0.3073310256,0.0468706227839,-0.0808300971985,-0.0599999986589,-274.053009033,-471.382263184,24.5422286987,-1.9213132858199997,20.8727703094,12.50309944153,15.510161399799996,-0.44448301196099804,16.0
2018-10-18 15:10:35.600,0.025519621133,0.0105503109183,-0.982209385725,0.3073310256,0.0468706227839,-0.0808300971985,-0.46091255,0.5295591,9.3163175,0.0,-15.5135622025,3.46189403534,-0.463677227497,0.3073310256,0.0468706227839,-0.0808300971985,-0.0599999986589,-274.053009033,-471.382263184,24.5422286987,-1.9213132858199997,20.8627700806,12.4785425663,15.503734588599997,-0.4645148217679981,16.0
2018-10-18 15:10:35.650,0.025519621133,0.0105503109183,-0.982209385725,0.3073310256,0.0468706227839,-0.0808300971985,-0.46091255,0.5295591,9.3163175,0.0,-15.5135622025,3.46189403534,-0.463677227497,0.3073310256,0.0468706227839,-0.0808300971985,-0.0299999993294,-274.053009033,-469.801422119,24.5422286987,-3.4213132858199997,20.7927703857,12.42247915268,15.489724159199996,-0.519695281981998,16.0
2018-10-18 15:10:35.700,0.025519621133,0.0105503109183,-0.982209385725,0.3073310256,0.0468706227839,-0.0808300971985,-0.46091255,0.5295591,9.3163175,0.0,-15.4693584442,3.62727808952,-0.518278896809,0.3073310256,0.0468706227839,-0.0808300971985,-0.0299999993294,-274.053009033,-469.801422119,24.5422286987,-3.4213132858199997,22.412771225,12.38636541367,15.478924751299996,-0.524268388747998,16.0
2018-10-18 15:10:35.750,0.025519621133,0.0105503109183,-0.982209385725,0.3073310256,0.0468706227839,-0.0808300971985,-0.46091255,0.5295591,9.3163175,0.0,-15.4693584442,3.62727808952,-0.518278896809,0.3073310256,0.0468706227839,-0.0808300971985,-0.0299999993294,-274.053009033,-469.801422119,24.5422286987,-3.4213132858199997,22.412771225,12.38636541367,15.478924751299996,-0.524268388747998,16.0
2018-10-18 15:10:35.800,0.00860087444414,-0.0855782173863,-0.977949129582,0.502769529819,0.0329644158483,0.013052306138,-0.48052585,0.2353596,9.6497436,0.0,-15.4693584442,3.62727808952,-0.518278896809,0.3073310256,0.0468706227839,-0.0808300971985,0.0,-267.73223877,-468.229095459,24.5422286987,-4.9013133049,21.7227706909,12.28612661362,15.431752204899997,-0.612908422946998,16.0
2018-10-18 15:10:35.850,0.00860087444414,-0.0855782173863,-0.977949129582,0.502769529819,0.0329644158483,0.013052306138,-0.48052585,0.2353596,9.6497436,0.0,-15.4693584442,3.62727808952,-0.518278896809,0.3073310256,0.0468706227839,-0.0808300971985,0.0399999991059,-267.73223877,-466.648376465,24.2098617554,-6.17871069908,13.302893638630001,12.19493150711,15.381685256999996,-0.688170254229998,16.0
2018-10-18 15:10:35.900,0.00860087444414,-0.0855782173863,-0.977949129582,0.502769529819,0.0329644158483,0.013052306138,-0.48052585,0.2353596,9.6497436,0.0,-15.4693584442,3.62727808952,-0.518278896809,0.3073310256,0.0468706227839,-0.0808300971985,0.0399999991059,-267.73223877,-466.648376465,24.2098617554,-6.17871069908,13.632893562329999,12.155781030650001,15.370306968699996,-0.6929529309269981,16.0
2018-10-18 15:10:35.950,0.00860087444414,-0.0855782173863,-0.977949129582,0.502769529819,0.0329644158483,0.013052306138,-0.48052585,0.2353596,9.6497436,0.0,-15.2958726883,3.97216033936,-0.755808115005,0.502769529819,0.0329644158483,0.013052306138,0.0999999940395,-269.767181396,-465.084533691,24.2098617554,-7.6887099743,16.092892646830002,12.05690979958,15.314542770399996,-0.745079576968998,16.0
2018-10-18 15:10:36.000,0.00860087444414,-0.0855782173863,-0.977949129582,0.502769529819,0.0329644158483,0.013052306138,-0.48052585,0.2353596,9.6497436,0.0,-15.2958726883,3.97216033936,-0.755808115005,0.502769529819,0.0329644158483,0.013052306138,0.0999999940395,-269.767181396,-465.084533691,24.2098617554,-7.6787106991,20.002892494230004,11.98145294189,15.277661323499997,-0.764895498752998,16.0
2018-10-18 15:10:36.050,0.00860087444414,-0.0855782173863,-0.977949129582,0.502769529819,0.0329644158483,0.013052306138,-0.48052585,0.2353596,9.6497436,0.0,-15.2958726883,3.97216033936,-0.755808115005,0.502769529819,0.0329644158483,0.013052306138,0.159999996424,-269.767181396,-463.520721436,24.2098617554,-9.228709936100001,22.142891883830004,11.86535215378,15.206930160499997,-0.833295941352998,16.0
2018-10-18 15:10:36.100,0.00860087444414,-0.0855782173863,-0.977949129582,0.502769529819,0.0329644158483,0.013052306138,-0.48052585,0.2353596,9.6497436,0.0,-15.2958726883,3.97216033936,-0.755808115005,0.502769529819,0.0329644158483,0.013052306138,0.159999996424,-269.767181396,-463.520721436,24.2098617554,-9.228709936100001,22.142891883830004,11.86535215378,15.206930160499997,-0.833295941352998,16.0
2018-10-18 15:10:36.150,0.00860087444414,-0.0855782173863,-0.977949129582,0.502769529819,0.0329644158483,0.013052306138,-0.48052585,0.2353596,9.6497436,0.0,-15.2958726883,3.97216033936,-0.755808115005,0.502769529819,0.0329644158483,0.013052306138,0.219999998808,-259.166534424,-461.973632812,24.2098617554,-10.7587106228,23.92289447783,11.614345073700001,15.052003860499996,-1.074997067449998,16.0
2018-10-18 15:10:36.200,0.00311021072277,-0.171504595229,-0.965815632837,0.510875344276,0.0925930216908,-0.0485896766186,-1.08853815,0.04903325,8.46313895,0.0,-15.0255680084,4.42056703568,-1.14003610611,0.510875344276,0.0925930216908,-0.0485896766186,0.219999998808,-259.166534424,-461.973632812,23.953323364300005,-9.41230916976,14.373567581099998,11.579432964319999,15.025568008399997,-1.140036106109998,16.0
2018-10-18 15:10:36.250,0.00311021072277,-0.171504595229,-0.965815632837,0.510875344276,0.0925930216908,-0.0485896766186,-1.08853815,0.04903325,8.46313895,0.0,-15.0255680084,4.42056703568,-1.14003610611,0.510875344276,0.0925930216908,-0.0485896766186,0.319999992847,-259.166534424,-460.443664551,23.953323364300005,-10.812308788260001,13.533567428600001,11.40944290161,14.912263870199997,-1.337851047519998,16.0
2018-10-18 15:10:36.300,0.00311021072277,-0.171504595229,-0.965815632837,0.510875344276,0.0925930216908,-0.0485896766186,-1.08853815,0.04903325,8.46313895,0.0,-15.0255680084,4.42056703568,-1.14003610611,0.510875344276,0.0925930216908,-0.0485896766186,0.319999992847,-259.166534424,-460.443664551,23.953323364300005,-10.802308559460002,13.523565292299999,11.30037164688,14.847335815399996,-1.429139494899998,16.0
2018-10-18 15:10:36.350,0.00311021072277,-0.171504595229,-0.965815632837,0.510875344276,0.0925930216908,-0.0485896766186,-1.08853815,0.04903325,8.46313895,0.0,-15.0255680084,4.42056703568,-1.14003610611,0.510875344276,0.0925930216908,-0.0485896766186,0.439999997616,-244.060897827,-458.930541992,23.953323364300005,-12.192307949059998,12.503566741900002,11.14464521408,14.746047973599996,-1.564803361889998,16.0
2018-10-18 15:10:36.400,0.00311021072277,-0.171504595229,-0.965815632837,0.510875344276,0.0925930216908,-0.0485896766186,-1.08853815,0.04903325,8.46313895,0.0,-15.0255680084,4.42056703568,-1.14003610611,0.510875344276,0.0925930216908,-0.0485896766186,0.439999997616,-244.060897827,-458.930541992,23.953323364300005,-12.182309627559999,12.503566741900002,11.08872270584,14.711910247799997,-1.625562191009998,16.0
2018-10-18 15:10:36.450,0.00311021072277,-0.171504595229,-0.965815632837,0.510875344276,0.0925930216908,-0.0485896766186,-1.08853815,0.04903325,8.46313895,0.0,-14.6048297882,5.06635141373,-1.79903364182,0.510875344276,0.0925930216908,-0.0485896766186,0.579999983311,-244.060897827,-457.434326172,23.953323364300005,-13.51230955126,11.3435668945,10.93364858627,14.604829788199996,-1.799033641819998,16.0
2018-10-18 15:10:36.500,0.00490588974392,-0.247427199888,-0.947378305634,0.424266815186,0.0900990143418,-0.100551128387,-1.34351105,0.14709975,7.58054045,0.0,-14.6048297882,5.06635141373,-1.79903364182,0.510875344276,0.0925930216908,-0.0485896766186,0.579999983311,-244.060897827,-457.434326172,23.953323364300005,-13.492309093460001,11.333566665600003,10.81874704361,14.531124114999997,-1.906903862949998,16.0
2018-10-18 15:10:36.550,0.00490588974392,-0.247427199888,-0.947378305634,0.424266815186,0.0900990143418,-0.100551128387,-1.34351105,0.14709975,7.58054045,0.0,-14.6048297882,5.06635141373,-1.79903364182,0.510875344276,0.0925930216908,-0.0485896766186,0.75,-226.38092041,-455.955047607,23.3791809082,-12.607563495620003,1.3777370452,10.63931179047,14.414826393099997,-2.0829575061799983,16.0
2018-10-18 15:10:36.600,0.00490588974392,-0.247427199888,-0.947378305634,0.424266815186,0.0900990143418,-0.100551128387,-1.34351105,0.14709975,7.58054045,0.0,-14.6048297882,5.06635141373,-1.79903364182,0.510875344276,0.0925930216908,-0.0485896766186,0.75,-226.38092041,-455.955047607,23.3791809082,-12.597563266720002,1.3577365874999998,10.53611660004,14.340973854099996,-2.2053179740899984,16.0
2018-10-18 15:10:36.650,0.00490588974392,-0.247427199888,-0.947378305634,0.424266815186,0.0900990143418,-0.100551128387,-1.34351105,0.14709975,7.58054045,0.0,-14.6048297882,5.06635141373,-1.79903364182,0.510875344276,0.0925930216908,-0.0485896766186,0.949999988079,-226.38092041,-454.500976562,23.3791809082,-13.75756311412,0.04773712149999909,10.28685235977,14.182946205099997,-2.456674814219998,16.0
2018-10-18 15:10:36.700,0.00490588974392,-0.247427199888,-0.947378305634,0.424266815186,0.0900990143418,-0.100551128387,-1.34351105,0.14709975,7.58054045,0.0,-14.1019897461,5.8216381073,-2.60223913193,0.424266815186,0.0900990143418,-0.100551128387,0.949999988079,-226.38092041,-454.500976562,23.3791809082,-13.75756311412,0.04773712149999909,10.23402070999,14.142439842199996,-2.5291972160299983,16.0
2018-10-18 15:10:36.750,0.00490588974392,-0.247427199888,-0.947378305634,0.424266815186,0.0900990143418,-0.100551128387,-1.34351105,0.14709975,7.58054045,0.0,-14.1019897461,5.8216381073,-2.60223913193,0.424266815186,0.0900990143418,-0.100551128387,1.17999994755,-200.951385498,-453.055541992,23.3791809082,-14.75756311412,-1.4122638702999986,10.05730724335,14.019903182999997,-2.7194333076499984,16.0
2018-10-18 15:10:36.800,0.00490588974392,-0.247427199888,-0.947378305634,0.424266815186,0.0900990143418,-0.100551128387,-1.34351105,0.14709975,7.58054045,0.0,-14.1019897461,5.8216381073,-2.60223913193,0.424266815186,0.0900990143418,-0.100551128387,1.17999994755,-200.951385498,-453.055541992,23.3791809082,-14.75756311412,-1.4122638702999986,9.937894344330001,13.938044547999997,-2.8352642059299984,16.0
2018-10-18 15:10:36.850,0.00490588974392,-0.247427199888,-0.947378305634,0.424266815186,0.0900990143418,-0.100551128387,-1.34351105,0.14709975,7.58054045,0.0,-14.1019897461,5.8216381073,-2.60223913193,0.424266815186,0.0900990143418,-0.100551128387,1.43999993801,-200.951385498,-451.643615723,23.3791809082,-14.957563877120002,-2.902263641400001,9.72009325027,13.784838676499996,-3.1056213378899984,16.0
2018-10-18 15:10:36.900,0.0189120865544,-0.281596769478,-0.933756005302,-0.0232604462653,0.0710259899497,-0.113277181983,-1.79461695,0.7649187,7.12943455,0.0,-14.1019897461,5.8216381073,-2.60223913193,0.424266815186,0.0900990143418,-0.100551128387,1.43999993801,-200.951385498,-451.643615723,22.073059082,-12.20494270326,-6.527967453000002,9.60357904434,13.709524154699997,-3.226831912989998,16.0
2018-10-18 15:10:36.950,0.0189120865544,-0.281596769478,-0.933756005302,-0.0232604462653,0.0710259899497,-0.113277181983,-1.79461695,0.7649187,7.12943455,0.0,-13.6040935516,6.54707717896,-3.41033434868,-0.0232604462653,0.0710259899497,-0.113277181983,1.74000000954,-182.612792969,-450.24887085,22.073059082,-12.32494354246,-7.91796875,9.50073051453,13.638398170499997,-3.3491172790499983,16.0
2018-10-18 15:10:37.000,0.0189120865544,-0.281596769478,-0.933756005302,-0.0232604462653,0.0710259899497,-0.113277181983,-1.79461695,0.7649187,7.12943455,0.0,-13.6040935516,6.54707717896,-3.41033434868,-0.0232604462653,0.0710259899497,-0.113277181983,1.74000000954,-182.612792969,-450.24887085,22.073059082,-12.40494346616,-7.947967529300001,9.40603017807,13.569226264999996,-3.4694683551799983,16.0
2018-10-18 15:10:37.050,0.0189120865544,-0.281596769478,-0.933756005302,-0.0232604462653,0.0710259899497,-0.113277181983,-1.79461695,0.7649187,7.12943455,0.0,-13.6040935516,6.54707717896,-3.41033434868,-0.0232604462653,0.0710259899497,-0.113277181983,2.06999993324,-182.612792969,-448.879425049,22.073059082,-12.494943618760002,-9.257968902600002,9.28029918671,13.473564147899996,-3.6726949214899984,16.0
2018-10-18 15:10:37.100,0.0189120865544,-0.281596769478,-0.933756005302,-0.0232604462653,0.0710259899497,-0.113277181983,-1.79461695,0.7649187,7.12943455,0.0,-13.6040935516,6.54707717896,-3.41033434868,-0.0232604462653,0.0710259899497,-0.113277181983,2.42999982834,-172.87979126,-447.518463135,22.073059082,-12.484943389860002,-9.307968139700002,9.18806552887,13.364722251899996,-4.035966873169998,16.0
2018-10-18 15:10:37.150,0.0189120865544,-0.281596769478,-0.933756005302,-0.0232604462653,0.0710259899497,-0.113277181983,-1.79461695,0.7649187,7.12943455,0.0,-13.6040935516,6.54707717896,-3.41033434868,-0.0232604462653,0.0710259899497,-0.113277181983,2.42999982834,-172.87979126,-447.518463135,22.073059082,-12.39494323726,-10.3179683685,9.19609260559,13.318168640099996,-4.306963443759998,16.0
2018-10-18 15:10:37.200,0.0189120865544,-0.281596769478,-0.933756005302,-0.0232604462653,0.0710259899497,-0.113277181983,-1.79461695,0.7649187,7.12943455,0.0,-13.2680578232,6.81684064865,-4.54572296143,-0.0232604462653,0.0710259899497,-0.113277181983,2.42999982834,-172.87979126,-447.518463135,22.073059082,-12.40494346616,-10.347967147800002,9.18315935135,13.268057823199996,-4.545722961429998,16.0
2018-10-18 15:10:37.250,0.0189120865544,-0.281596769478,-0.933756005302,-0.0232604462653,0.0710259899497,-0.113277181983,-1.79461695,0.7649187,7.12943455,0.0,-13.2680578232,6.81684064865,-4.54572296143,-0.0232604462653,0.0710259899497,-0.113277181983,2.84999990463,-172.87979126,-446.182891846,22.073059082,-12.65494346616,-10.847967147800002,9.06112480164,13.171191215499997,-4.753069877619998,16.0
2018-10-18 15:10:37.300,0.0562241329792,-0.269374998545,-0.927575278016,-0.306617230177,0.0615905448794,-0.349024176598,-1.95152335,0.9414384,4.1972462,0.0,-13.2680578232,6.81684064865,-4.54572296143,-0.0232604462653,0.0710259899497,-0.113277181983,2.84999990463,-172.87979126,-446.182891846,19.137676239,-8.005681037899999,-8.3090686798,8.999920845030001,13.140890121499996,-4.790675163269999,16.0
2018-10-18 15:10:37.350,0.0562241329792,-0.269374998545,-0.927575278016,-0.306617230177,0.0615905448794,-0.349024176598,-1.95152335,0.9414384,4.1972462,0.0,-13.2680578232,6.81684064865,-4.54572296143,-0.0232604462653,0.0710259899497,-0.113277181983,3.30999994278,-152.813720703,-444.847229004,19.137676239,-8.3856801987,-9.649068832399998,8.759624004359999,13.034310340899996,-4.8821444511399985,16.0
2018-10-18 15:10:37.400,0.0562241329792,-0.269374998545,-0.927575278016,-0.306617230177,0.0615905448794,-0.349024176598,-1.95152335,0.9414384,4.1972462,0.0,-13.2680578232,6.81684064865,-4.54572296143,-0.0232604462653,0.0710259899497,-0.113277181983,3.78999996185,-152.813720703,-443.536956787,19.137676239,-8.5356798172,-9.6890697479,8.759624004359999,13.034310340899996,-4.8821444511399985,16.0
2018-10-18 15:10:37.450,0.0562241329792,-0.269374998545,-0.927575278016,-0.306617230177,0.0615905448794,-0.349024176598,-1.95152335,0.9414384,4.1972462,0.0,-12.917140007,7.50205945969,-5.02127361298,-0.306617230177,0.0615905448794,-0.349024176598,3.78999996185,-152.813720703,-443.536956787,19.137676239,-8.6656808853,-11.0090694427,8.54921770096,12.943631172199996,-4.977298259739999,16.0
2018-10-18 15:10:37.500,0.0562241329792,-0.269374998545,-0.927575278016,-0.306617230177,0.0615905448794,-0.349024176598,-1.95152335,0.9414384,4.1972462,0.0,-12.917140007,7.50205945969,-5.02127361298,-0.306617230177,0.0615905448794,-0.349024176598,3.78999996185,-152.813720703,-443.536956787,19.137676239,-8.7756795883,-11.069068908699997,8.44921731949,12.891227722199996,-5.075642108919999,16.0
2018-10-18 15:10:37.550,0.0562241329792,-0.269374998545,-0.927575278016,-0.306617230177,0.0615905448794,-0.349024176598,-1.95152335,0.9414384,4.1972462,0.0,-12.917140007,7.50205945969,-5.02127361298,-0.306617230177,0.0615905448794,-0.349024176598,4.27999973297,-148.940460205,-442.226745605,19.137676239,-9.0356798172,-12.359067916799997,8.27186584473,12.802276611299996,-5.292628765109998,16.0
2018-10-18 15:10:37.600,0.0562241329792,-0.269374998545,-0.927575278016,-0.306617230177,0.0615905448794,-0.349024176598,-1.95152335,0.9414384,4.1972462,0.0,-12.917140007,7.50205945969,-5.02127361298,-0.306617230177,0.0615905448794,-0.349024176598,4.27999973297,-148.940460205,-442.226745605,19.137676239,-9.0856809616,-12.389068603499997,8.22896623611,12.785076141399996,-5.334878921509998,16.0
2018-10-18 15:10:37.650,0.10369280837,-0.227069615292,-0.915991166682,-0.157461777329,0.0693284645677,-0.330116778612,-1.95152335,0.81395195,7.85512665,0.0,-12.917140007,7.50205945969,-5.02127361298,-0.306617230177,0.0615905448794,-0.349024176598,4.7999997139,-148.940460205,-440.924835205,19.137676239,-9.2156801224,-13.419068336499999,8.08771562576,12.729481697099997,-5.458560466769998,16.0
2018-10-18 15:10:37.700,0.10369280837,-0.227069615292,-0.915991166682,-0.157461777329,0.0693284645677,-0.330116778612,-1.95152335,0.81395195,7.85512665,0.0,-12.6676435471,8.10454654694,-5.59378290176,-0.157461777329,0.0693284645677,-0.330116778612,4.7999997139,-148.940460205,-440.924835205,11.9307594299,-3.8533210754000002,-6.280994415299999,7.9390707016,12.680007934599997,-5.562451839449999,16.0
2018-10-18 15:10:37.750,0.10369280837,-0.227069615292,-0.915991166682,-0.157461777329,0.0693284645677,-0.330116778612,-1.95152335,0.81395195,7.85512665,0.0,-12.6676435471,8.10454654694,-5.59378290176,-0.157461777329,0.0693284645677,-0.330116778612,5.33999967575,-143.141357422,-439.639984131,11.9307594299,-3.993322372399998,-7.400994300799999,7.80714893341,12.641713142399997,-5.656132221219998,16.0
2018-10-18 15:10:37.800,0.10369280837,-0.227069615292,-0.915991166682,-0.157461777329,0.0693284645677,-0.330116778612,-1.95152335,0.81395195,7.85512665,0.0,-12.6676435471,8.10454654694,-5.59378290176,-0.157461777329,0.0693284645677,-0.330116778612,5.33999967575,-143.141357422,-439.639984131,11.9307594299,-4.083322525,-7.430994033799999,7.69767665863,12.608636856099997,-5.705040454859998,16.0
2018-10-18 15:10:37.850,0.10369280837,-0.227069615292,-0.915991166682,-0.157461777329,0.0693284645677,-0.330116778612,-1.95152335,0.81395195,7.85512665,0.0,-12.6676435471,8.10454654694,-5.59378290176,-0.157461777329,0.0693284645677,-0.330116778612,5.33999967575,-143.141357422,-439.639984131,11.9307594299,-4.083322525,-7.430994033799999,7.69767665863,12.608636856099997,-5.705040454859998,16.0
2018-10-18 15:10:37.900,0.10369280837,-0.227069615292,-0.915991166682,-0.157461777329,0.0693284645677,-0.330116778612,-1.95152335,0.81395195,7.85512665,0.0,-12.6676435471,8.10454654694,-5.59378290176,-0.157461777329,0.0693284645677,-0.330116778612,5.90000009537,-143.141357422,-438.363555908,11.9307594299,-4.1933212279999985,-8.490994453399999,7.53710365295,12.567554473899996,-5.8247199058499985,16.0
2018-10-18 15:10:37.950,0.10369280837,-0.227069615292,-0.915991166682,-0.157461777329,0.0693284645677,-0.330116778612,-1.95152335,0.81395195,7.85512665,0.0,-12.5382871628,8.54071140289,-5.91242551804,-0.157461777329,0.0693284645677,-0.330116778612,6.46999979019,-153.842346191,-437.086853027,11.9307594299,-4.263320922799998,-9.330994605999999,7.3862953186,12.506889343299996,-6.007771015169999,16.0
2018-10-18 15:10:38.000,0.10369280837,-0.227069615292,-0.915991166682,-0.157461777329,0.0693284645677,-0.330116778612,-1.95152335,0.81395195,7.85512665,0.0,-12.5382871628,8.54071140289,-5.91242551804,-0.157461777329,0.0693284645677,-0.330116778612,7.05999994278,-153.842346191,-435.827301025,11.9307594299,-4.3533210754,-10.2009944916,7.278043746950001,12.470660209699997,-6.129881381989998,16.0
2018-10-18 15:10:38.050,0.10369280837,-0.227069615292,-0.915991166682,-0.157461777329,0.0693284645677,-0.330116778612,-1.95152335,0.81395195,7.85512665,0.0,-12.5382871628,8.54071140289,-5.91242551804,-0.157461777329,0.0693284645677,-0.330116778612,7.05999994278,-153.842346191,-435.827301025,11.9307594299,-4.383321761999998,-10.2309942245,7.20515441895,12.428852081299997,-6.250421524049998,16.0
2018-10-18 15:10:38.100,0.13246947596,-0.209125195664,-0.895952911813,0.0558556690812,0.0366315059364,-0.274277567863,-2.22610955,0.67665885,7.9433865,0.0,-12.5382871628,8.54071140289,-5.91242551804,-0.157461777329,0.0693284645677,-0.330116778612,7.05999994278,-153.842346191,-435.827301025,4.8576011657999985,-0.7653770446999992,-5.932441711400001,7.14967346191,12.392829894999997,-6.383700847629998,16.0
2018-10-18 15:10:38.150,0.13246947596,-0.209125195664,-0.895952911813,0.0558556690812,0.0366315059364,-0.274277567863,-2.22610955,0.67665885,7.9433865,0.0,-12.3775987625,8.87578964233,-6.45111560822,0.0558556690812,0.0366315059364,-0.274277567863,7.67999982834,-118.106651306,-434.567810059,4.8576011657999985,-0.7853775024999976,-6.7824420929,7.07513904572,12.339959144599996,-6.601466178889998,16.0
2018-10-18 15:10:38.200,0.13246947596,-0.209125195664,-0.895952911813,0.0558556690812,0.0366315059364,-0.274277567863,-2.22610955,0.67665885,7.9433865,0.0,-12.3775987625,8.87578964233,-6.45111560822,0.0558556690812,0.0366315059364,-0.274277567863,7.67999982834,-118.106651306,-434.567810059,4.8576011657999985,-0.7853775024999976,-6.7824420929,7.07513904572,12.339959144599996,-6.601466178889998,16.0
2018-10-18 15:10:38.250,0.13246947596,-0.209125195664,-0.895952911813,0.0558556690812,0.0366315059364,-0.274277567863,-2.22610955,0.67665885,7.9433865,0.0,-12.3775987625,8.87578964233,-6.45111560822,0.0558556690812,0.0366315059364,-0.274277567863,8.32999992371,-118.106651306,-433.316741943,4.8576011657999985,-0.7353763580999981,-7.61244201659,6.88122272491,12.239001274099996,-6.853394031519998,16.0
2018-10-18 15:10:38.300,0.13246947596,-0.209125195664,-0.895952911813,0.0558556690812,0.0366315059364,-0.274277567863,-2.22610955,0.67665885,7.9433865,0.0,-12.3775987625,8.87578964233,-6.45111560822,0.0558556690812,0.0366315059364,-0.274277567863,8.32999992371,-118.106651306,-433.316741943,4.8576011657999985,-0.7353763580999981,-7.61244201659,6.88122272491,12.239001274099996,-6.853394031519998,16.0
2018-10-18 15:10:38.350,0.13246947596,-0.209125195664,-0.895952911813,0.0558556690812,0.0366315059364,-0.274277567863,-2.22610955,0.67665885,7.9433865,0.0,-12.3775987625,8.87578964233,-6.45111560822,0.0558556690812,0.0366315059364,-0.274277567863,9.01999950409,-120.285987854,-432.082489014,4.8576011657999985,-0.33537673949999913,-8.602441787710001,6.731770515439999,12.175229072599997,-6.947513103489999,16.0
2018-10-18 15:10:38.400,0.13246947596,-0.209125195664,-0.895952911813,0.0558556690812,0.0366315059364,-0.274277567863,-2.22610955,0.67665885,7.9433865,0.0,-12.1175394058,9.42751979828,-7.01321220398,0.0558556690812,0.0366315059364,-0.274277567863,9.01999950409,-120.285987854,-432.082489014,4.8576011657999985,-0.33537673949999913,-8.61244201659,6.52132320404,12.102260589599997,-7.033138751979998,16.0
2018-10-18 15:10:38.450,0.132375670501,-0.219036560535,-0.88382896514,0.26679110527,-0.016834937036,-0.0139964185655,-2.2947561,0.30400615,9.2574776,0.0,-12.1175394058,9.42751979828,-7.01321220398,0.0558556690812,0.0366315059364,-0.274277567863,9.72999954224,-120.285987854,-430.856781006,2.065883636499997,0.9550838470000009,-10.33865308763,6.3654384613,12.027784347499997,-7.133757114409998,16.0
2018-10-18 15:10:38.500,0.132375670501,-0.219036560535,-0.88382896514,0.26679110527,-0.016834937036,-0.0139964185655,-2.2947561,0.30400615,9.2574776,0.0,-12.1175394058,9.42751979828,-7.01321220398,0.0558556690812,0.0366315059364,-0.274277567863,10.4600000381,-125.597953796,-429.647979736,2.065883636499997,0.9550838470000009,-10.32865333558,6.3654384613,12.027784347499997,-7.133757114409998,16.0
2018-10-18 15:10:38.550,0.132375670501,-0.219036560535,-0.88382896514,0.26679110527,-0.016834937036,-0.0139964185655,-2.2947561,0.30400615,9.2574776,0.0,-12.1175394058,9.42751979828,-7.01321220398,0.0558556690812,0.0366315059364,-0.274277567863,10.4600000381,-125.597953796,-429.647979736,2.065883636499997,1.4750843047999993,-11.52865314485,6.23662757874,11.954804420499997,-7.276875495909998,16.0
2018-10-18 15:10:38.600,0.132375670501,-0.219036560535,-0.88382896514,0.26679110527,-0.016834937036,-0.0139964185655,-2.2947561,0.30400615,9.2574776,0.0,-12.1175394058,9.42751979828,-7.01321220398,0.0558556690812,0.0366315059364,-0.274277567863,11.1999998093,-125.597953796,-428.447479248,2.065883636499997,2.025083541899999,-12.938652992260002,6.140625,11.914204597499996,-7.341651439669998,16.0
2018-10-18 15:10:38.650,0.132375670501,-0.219036560535,-0.88382896514,0.26679110527,-0.016834937036,-0.0139964185655,-2.2947561,0.30400615,9.2574776,0.0,-11.8138933182,10.0909099579,-7.42639827728,0.26679110527,-0.016834937036,-0.0139964185655,11.1999998093,-125.597953796,-428.447479248,2.065883636499997,2.025083541899999,-12.92865324021,5.8495216370000005,11.797220230099997,-7.421396255489999,16.0
2018-10-18 15:10:38.700,0.132375670501,-0.219036560535,-0.88382896514,0.26679110527,-0.016834937036,-0.0139964185655,-2.2947561,0.30400615,9.2574776,0.0,-11.8138933182,10.0909099579,-7.42639827728,0.26679110527,-0.016834937036,-0.0139964185655,11.1999998093,-125.597953796,-428.447479248,2.065883636499997,2.025083541899999,-12.908653259290002,5.7254447936999995,11.773247718799997,-7.395884037019998,16.0
2018-10-18 15:10:38.750,0.132375670501,-0.219036560535,-0.88382896514,0.26679110527,-0.016834937036,-0.0139964185655,-2.2947561,0.30400615,9.2574776,0.0,-11.8138933182,10.0909099579,-7.42639827728,0.26679110527,-0.016834937036,-0.0139964185655,11.9600000381,-134.581939697,-427.264068604,2.065883636499997,2.4750843047999993,-14.208653211600001,5.5402812958,11.720769882199997,-7.370878219599998,16.0
2018-10-18 15:10:38.800,0.132375670501,-0.219036560535,-0.88382896514,0.26679110527,-0.016834937036,-0.0139964185655,-2.2947561,0.30400615,9.2574776,0.0,-11.8138933182,10.0909099579,-7.42639827728,0.26679110527,-0.016834937036,-0.0139964185655,11.9600000381,-134.581939697,-427.264068604,2.065883636499997,2.4750843047999993,-14.208653211600001,5.428576469399999,11.696593284599997,-7.346925258639998,16.0
2018-10-18 15:10:38.850,0.132375670501,-0.219036560535,-0.88382896514,0.26679110527,-0.016834937036,-0.0139964185655,-2.2947561,0.30400615,9.2574776,0.0,-11.8138933182,10.0909099579,-7.42639827728,0.26679110527,-0.016834937036,-0.0139964185655,12.7199993134,-134.581939697,-426.088806152,2.065883636499997,2.9050827026000015,-15.358653068550002,5.2504959106,11.693021774299996,-7.217507362369998,16.0
2018-10-18 15:10:38.900,0.132375670501,-0.219036560535,-0.88382896514,0.26679110527,-0.016834937036,-0.0139964185655,-2.2947561,0.30400615,9.2574776,0.0,-11.6900520325,10.8103380203,-7.17611980438,0.26679110527,-0.016834937036,-0.0139964185655,12.7199993134,-134.581939697,-426.088806152,2.065883636499997,2.9050827026000015,-15.358653068550002,5.2504959106,11.693021774299996,-7.217507362369998,16.0
2018-10-18 15:10:38.950,0.127837169827,-0.186502538804,-0.897847680775,-0.236402019858,-0.05181806162,-0.0364525765181,-2.46146915,0.40207265,11.05209455,0.0,-11.6900520325,10.8103380203,-7.17611980438,0.26679110527,-0.016834937036,-0.0139964185655,13.4600000381,-149.576385498,-424.913848877,3.2281837462999974,1.0254364013000021,-13.19612228872,5.0860481262,11.678435325599997,-7.120322704319999,16.0
2018-10-18 15:10:39.000,0.127837169827,-0.186502538804,-0.897847680775,-0.236402019858,-0.05181806162,-0.0364525765181,-2.46146915,0.40207265,11.05209455,0.0,-11.6900520325,10.8103380203,-7.17611980438,0.26679110527,-0.016834937036,-0.0139964185655,14.1899995804,-149.576385498,-423.738830566,3.2281837462999974,1.3954353332000018,-13.976122260104999,4.999323844899999,11.667424201999996,-7.1008038520799985,16.0
2018-10-18 15:10:39.050,0.127837169827,-0.186502538804,-0.897847680775,-0.236402019858,-0.05181806162,-0.0364525765181,-2.46146915,0.40207265,11.05209455,0.0,-11.6900520325,10.8103380203,-7.17611980438,0.26679110527,-0.016834937036,-0.0139964185655,14.1899995804,-149.576385498,-423.738830566,3.2281837462999974,1.3854370117000023,-13.976122260104999,4.8060512543,11.685157775899997,-6.972480297089998,16.0
2018-10-18 15:10:39.100,0.127837169827,-0.186502538804,-0.897847680775,-0.236402019858,-0.05181806162,-0.0364525765181,-2.46146915,0.40207265,11.05209455,0.0,-11.6900520325,10.8103380203,-7.17611980438,0.26679110527,-0.016834937036,-0.0139964185655,14.1899995804,-149.576385498,-423.738830566,3.2281837462999974,1.3854370117000023,-13.976122260104999,4.7357225417999995,11.697706222499997,-6.923525333399998,16.0
2018-10-18 15:10:39.150,0.127837169827,-0.186502538804,-0.897847680775,-0.236402019858,-0.05181806162,-0.0364525765181,-2.46146915,0.40207265,11.05209455,0.0,-11.6995630264,11.321928978,-6.90051746368,-0.236402019858,-0.05181806162,-0.0364525765181,14.8899993896,-179.08782959,-422.563873291,3.2281837462999974,1.6954364776000013,-14.506122261297,4.6521234512,11.693299293499997,-6.907459735869998,16.0
2018-10-18 15:10:39.200,0.127837169827,-0.186502538804,-0.897847680775,-0.236402019858,-0.05181806162,-0.0364525765181,-2.46146915,0.40207265,11.05209455,0.0,-11.6995630264,11.321928978,-6.90051746368,-0.236402019858,-0.05181806162,-0.0364525765181,14.8899993896,-179.08782959,-422.563873291,3.2281837462999974,1.6954364776000013,-14.506122261297,4.6268053055,11.689693450899997,-6.912781238559998,16.0
2018-10-18 15:10:39.250,0.127837169827,-0.186502538804,-0.897847680775,-0.236402019858,-0.05181806162,-0.0364525765181,-2.46146915,0.40207265,11.05209455,0.0,-11.6995630264,11.321928978,-6.90051746368,-0.236402019858,-0.05181806162,-0.0364525765181,14.8899993896,-179.08782959,-422.563873291,3.2281837462999974,1.6954364776000013,-14.506122261297,4.6268053055,11.689693450899997,-6.912781238559998,16.0
2018-10-18 15:10:39.300,0.127837169827,-0.186502538804,-0.897847680775,-0.236402019858,-0.05181806162,-0.0364525765181,-2.46146915,0.40207265,11.05209455,0.0,-11.6995630264,11.321928978,-6.90051746368,-0.236402019858,-0.05181806162,-0.0364525765181,15.5899991989,-179.08782959,-421.380432129,3.2281837462999974,2.075435638400002,-14.996122241032,4.467512130699999,11.703705787699997,-6.854329109189998,16.0
2018-10-18 15:10:39.350,0.147541984874,-0.121191730384,-0.898468362413,-0.178519010544,-0.093123562634,-0.122935727239,-2.44185585,0.6472389,10.48330885,0.0,-11.6995630264,11.321928978,-6.90051746368,-0.236402019858,-0.05181806162,-0.0364525765181,15.5899991989,-179.08782959,-421.380432129,3.2281837462999974,2.075435638400002,-14.996122241032,4.467512130699999,11.703705787699997,-6.854329109189998,16.0
2018-10-18 15:10:39.400,0.147541984874,-0.121191730384,-0.898468362413,-0.178519010544,-0.093123562634,-0.122935727239,-2.44185585,0.6472389,10.48330885,0.0,-11.7317714691,11.5863742828,-6.80915927887,-0.178519010544,-0.093123562634,-0.122935727239,16.2799987793,-197.695159912,-420.205230713,-0.3374900817999986,1.8884868621000024,-6.754407167429999,4.4136257172,11.731771469099996,-6.809159278869998,16.0
2018-10-18 15:10:39.450,0.147541984874,-0.121191730384,-0.898468362413,-0.178519010544,-0.093123562634,-0.122935727239,-2.44185585,0.6472389,10.48330885,0.0,-11.7317714691,11.5863742828,-6.80915927887,-0.178519010544,-0.093123562634,-0.122935727239,16.9699993134,-197.695159912,-419.021789551,-0.3374900817999986,2.268487930300001,-6.924407184119,4.3562145233,11.759122848499997,-6.7537322044399986,16.0
2018-10-18 15:10:39.500,0.147541984874,-0.121191730384,-0.898468362413,-0.178519010544,-0.093123562634,-0.122935727239,-2.44185585,0.6472389,10.48330885,0.0,-11.7317714691,11.5863742828,-6.80915927887,-0.178519010544,-0.093123562634,-0.122935727239,16.9699993134,-197.695159912,-419.021789551,-0.3374900817999986,2.268487930300001,-6.924407184119,4.2885189056,11.789484023999997,-6.688313484189998,16.0
2018-10-18 15:10:39.550,0.147541984874,-0.121191730384,-0.898468362413,-0.178519010544,-0.093123562634,-0.122935727239,-2.44185585,0.6472389,10.48330885,0.0,-11.7317714691,11.5863742828,-6.80915927887,-0.178519010544,-0.093123562634,-0.122935727239,17.6599998474,-212.732513428,-417.838104248,-0.3374900817999986,2.6384868621000024,-7.074407160277,4.230298042299999,11.818192481999997,-6.608307361599998,16.0
2018-10-18 15:10:39.600,0.147541984874,-0.121191730384,-0.898468362413,-0.178519010544,-0.093123562634,-0.122935727239,-2.44185585,0.6472389,10.48330885,0.0,-11.7317714691,11.5863742828,-6.80915927887,-0.178519010544,-0.093123562634,-0.122935727239,17.6599998474,-212.732513428,-417.838104248,-0.3374900817999986,2.6384868621000024,-7.074407160277,4.230298042299999,11.818192481999997,-6.608307361599998,16.0
2018-10-18 15:10:39.650,0.147541984874,-0.121191730384,-0.898468362413,-0.178519010544,-0.093123562634,-0.122935727239,-2.44185585,0.6472389,10.48330885,0.0,-11.8706645966,11.8503952026,-6.45399713516,-0.178519010544,-0.093123562634,-0.122935727239,18.3299999237,-212.732513428,-416.646209717,-0.3374900817999986,2.9484882353999993,-7.2344071864999995,4.131318092300001,11.884341239899996,-6.419673442839998,16.0
2018-10-18 15:10:39.700,0.147541984874,-0.121191730384,-0.898468362413,-0.178519010544,-0.093123562634,-0.122935727239,-2.44185585,0.6472389,10.48330885,0.0,-11.8706645966,11.8503952026,-6.45399713516,-0.178519010544,-0.093123562634,-0.122935727239,18.3299999237,-212.732513428,-416.646209717,-0.3374900817999986,2.9484882353999993,-7.244407176969999,4.0989074707,11.915882110599997,-6.333062648769999,16.0
2018-10-18 15:10:39.750,0.140478660122,-0.0950120921498,-0.898793895244,-0.037581179291,-0.0875251591206,-0.0254362989217,-2.59876225,0.2745862,11.8268199,0.0,-11.8706645966,11.8503952026,-6.45399713516,-0.178519010544,-0.093123562634,-0.122935727239,18.9899997711,-233.290679932,-415.445892334,-1.8435020447000028,1.2785778046000011,-4.5542421341,4.0517120361,11.956350326499997,-6.216193199159998,16.0
2018-10-18 15:10:39.800,0.140478660122,-0.0950120921498,-0.898793895244,-0.037581179291,-0.0875251591206,-0.0254362989217,-2.59876225,0.2745862,11.8268199,0.0,-11.8706645966,11.8503952026,-6.45399713516,-0.178519010544,-0.093123562634,-0.122935727239,18.9899997711,-233.290679932,-415.445892334,-1.8435020447000028,1.2785778046000011,-4.5542421341,4.0517120361,11.956350326499997,-6.216193199159998,16.0
2018-10-18 15:10:39.850,0.140478660122,-0.0950120921498,-0.898793895244,-0.037581179291,-0.0875251591206,-0.0254362989217,-2.59876225,0.2745862,11.8268199,0.0,-11.8706645966,11.8503952026,-6.45399713516,-0.178519010544,-0.093123562634,-0.122935727239,19.6299991608,-233.290679932,-414.228515625,-1.8435020447000028,1.5185775757000002,-4.60424220562,3.9563808441,12.013933181799997,-6.0168952941899985,16.0
2018-10-18 15:10:39.900,0.140478660122,-0.0950120921498,-0.898793895244,-0.037581179291,-0.0875251591206,-0.0254362989217,-2.59876225,0.2745862,11.8268199,0.0,-12.0139331818,12.0436191559,-6.01689529419,-0.037581179291,-0.0875251591206,-0.0254362989217,19.6299991608,-233.290679932,-414.228515625,-1.8435020447000028,1.5185775757000002,-4.60424220562,3.9563808441,12.013933181799997,-6.0168952941899985,16.0
2018-10-18 15:10:39.950,0.140478660122,-0.0950120921498,-0.898793895244,-0.037581179291,-0.0875251591206,-0.0254362989217,-2.59876225,0.2745862,11.8268199,0.0,-12.0139331818,12.0436191559,-6.01689529419,-0.037581179291,-0.0875251591206,-0.0254362989217,20.25,-259.078399658,-413.011291504,-1.8435020447000028,1.6985778809000003,-4.74424219132,3.8866415024,12.040868759199997,-5.875069141389998,16.0
2018-10-18 15:10:40.000,0.140478660122,-0.0950120921498,-0.898793895244,-0.037581179291,-0.0875251591206,-0.0254362989217,-2.59876225,0.2745862,11.8268199,0.0,-12.0139331818,12.0436191559,-6.01689529419,-0.037581179291,-0.0875251591206,-0.0254362989217,20.8500003815,-259.078399658,-411.793945312,-1.8435020447000028,1.6985778809000003,-4.7542421817800005,3.799400329599999,12.046984672499997,-5.673209667209998,16.0
2018-10-18 15:10:40.050,0.124594022708,-0.101376367832,-0.897525568057,-0.0352310985327,-0.078835837543,0.00261099659838,-2.61837555,0.2745862,12.9643913,0.0,-12.0139331818,12.0436191559,-6.01689529419,-0.037581179291,-0.0875251591206,-0.0254362989217,20.8500003815,-259.078399658,-411.793945312,-2.418045043900001,0.43349647519999834,-6.47019994258,3.7392921448000003,12.025138854999996,-5.595003604889998,16.0
2018-10-18 15:10:40.100,0.124594022708,-0.101376367832,-0.897525568057,-0.0352310985327,-0.078835837543,0.00261099659838,-2.61837555,0.2745862,12.9643913,0.0,-12.0104579926,12.2809276581,-5.59823226929,-0.0352310985327,-0.078835837543,0.00261099659838,20.8500003815,-259.078399658,-411.793945312,-2.418045043900001,0.43349647519999834,-6.47019994258,3.7190723419000005,12.010457992599996,-5.598232269289999,16.0
2018-10-18 15:10:40.150,0.124594022708,-0.101376367832,-0.897525568057,-0.0352310985327,-0.078835837543,0.00261099659838,-2.61837555,0.2745862,12.9643913,0.0,-12.0104579926,12.2809276581,-5.59823226929,-0.0352310985327,-0.078835837543,0.00261099659838,21.4200000763,-278.025634766,-410.568267822,-2.418045043900001,0.6434974670999978,-6.88019990921,3.7105712891000007,12.004238128699997,-5.619551658629998,16.0
2018-10-18 15:10:40.200,0.124594022708,-0.101376367832,-0.897525568057,-0.0352310985327,-0.078835837543,0.00261099659838,-2.61837555,0.2745862,12.9643913,0.0,-12.0104579926,12.2809276581,-5.59823226929,-0.0352310985327,-0.078835837543,0.00261099659838,21.4200000763,-278.025634766,-410.568267822,-2.418045043900001,0.6434974670999978,-6.88019990921,3.7124710082999997,12.001530647299996,-5.679436683649998,16.0
2018-10-18 15:10:40.250,0.124594022708,-0.101376367832,-0.897525568057,-0.0352310985327,-0.078835837543,0.00261099659838,-2.61837555,0.2745862,12.9643913,0.0,-12.0104579926,12.2809276581,-5.59823226929,-0.0352310985327,-0.078835837543,0.00261099659838,22.0,-278.025634766,-409.350708008,-2.418045043900001,1.0034980773999997,-6.93019986152,3.713052749599999,12.005208969099996,-5.693290233609998,16.0
2018-10-18 15:10:40.300,0.124594022708,-0.101376367832,-0.897525568057,-0.0352310985327,-0.078835837543,0.00261099659838,-2.61837555,0.2745862,12.9643913,0.0,-12.0104579926,12.2809276581,-5.59823226929,-0.0352310985327,-0.078835837543,0.00261099659838,22.0,-278.025634766,-409.350708008,-2.418045043900001,1.0034980773999997,-6.93019986152,3.7226467132999996,11.994492530799997,-5.769589900969998,16.0
2018-10-18 15:10:40.350,0.124594022708,-0.101376367832,-0.897525568057,-0.0352310985327,-0.078835837543,0.00261099659838,-2.61837555,0.2745862,12.9643913,0.0,-11.9717140198,12.2556419373,-5.89668893814,-0.0352310985327,-0.078835837543,0.00261099659838,22.5900001526,-282.845703125,-408.133483887,-2.418045043900001,1.353496551500001,-6.93019986152,3.7376852036,11.980602264399996,-5.855972766879998,16.0
2018-10-18 15:10:40.400,0.124594022708,-0.101376367832,-0.897525568057,-0.0352310985327,-0.078835837543,0.00261099659838,-2.61837555,0.2745862,12.9643913,0.0,-11.9717140198,12.2556419373,-5.89668893814,-0.0352310985327,-0.078835837543,0.00261099659838,22.5900001526,-282.845703125,-408.133483887,-2.418045043900001,1.353496551500001,-6.93019986152,3.7534151077000004,11.963225364699996,-5.938911437989998,16.0
2018-10-18 15:10:40.450,0.1193000135,-0.0935178388617,-0.910205288945,0.0249745007604,-0.0638509169221,0.129991963506,-2.48108245,0.4903325,7.4726673,0.0,-11.9717140198,12.2556419373,-5.89668893814,-0.0352310985327,-0.078835837543,0.00261099659838,22.5900001526,-282.845703125,-408.133483887,-2.418045043900001,1.353496551500001,-6.93019986152,3.7534151077000004,11.963225364699996,-5.938911437989998,16.0
2018-10-18 15:10:40.500,0.1193000135,-0.0935178388617,-0.910205288945,0.0249745007604,-0.0638509169221,0.129991963506,-2.48108245,0.4903325,7.4726673,0.0,-11.9717140198,12.2556419373,-5.89668893814,-0.0352310985327,-0.078835837543,0.00261099659838,23.1999988556,-282.845703125,-406.91619873,0.7938842773000019,0.7937908172000014,-6.820637941359999,3.7505712509,11.999930381799997,-5.823553562159998,16.0
2018-10-18 15:10:40.550,0.1193000135,-0.0935178388617,-0.910205288945,0.0249745007604,-0.0638509169221,0.129991963506,-2.48108245,0.4903325,7.4726673,0.0,-11.9717140198,12.2556419373,-5.89668893814,-0.0352310985327,-0.078835837543,0.00261099659838,23.8199996948,-281.663879395,-405.698913574,0.7938842773000019,1.0637912749999998,-6.7006380558,3.7533807755,12.024021148699996,-5.756440639499998,16.0
2018-10-18 15:10:40.600,0.1193000135,-0.0935178388617,-0.910205288945,0.0249745007604,-0.0638509169221,0.129991963506,-2.48108245,0.4903325,7.4726673,0.0,-12.033082962,12.233839035,-5.76121997833,0.0249745007604,-0.0638509169221,0.129991963506,23.8199996948,-281.663879395,-405.698913574,0.7938842773000019,1.0637912749999998,-6.710638046270001,3.766160964999999,12.033082961999996,-5.761219978329998,16.0
2018-10-18 15:10:40.650,0.1193000135,-0.0935178388617,-0.910205288945,0.0249745007604,-0.0638509169221,0.129991963506,-2.48108245,0.4903325,7.4726673,0.0,-12.033082962,12.233839035,-5.76121997833,0.0249745007604,-0.0638509169221,0.129991963506,24.4300003052,-281.663879395,-404.481628418,0.7938842773000019,1.7737913131000003,-6.54063796997,3.8153505325,12.027262687699997,-5.870474815369998,16.0
2018-10-18 15:10:40.700,0.1193000135,-0.0935178388617,-0.910205288945,0.0249745007604,-0.0638509169221,0.129991963506,-2.48108245,0.4903325,7.4726673,0.0,-12.033082962,12.233839035,-5.76121997833,0.0249745007604,-0.0638509169221,0.129991963506,25.0399990082,-288.034637451,-403.264312744,0.7938842773000019,4.2837915419999995,-6.16063797474,3.8746900558000004,12.052687644999997,-5.917636871339998,16.0
2018-10-18 15:10:40.750,0.1193000135,-0.0935178388617,-0.910205288945,0.0249745007604,-0.0638509169221,0.129991963506,-2.48108245,0.4903325,7.4726673,0.0,-12.033082962,12.233839035,-5.76121997833,0.0249745007604,-0.0638509169221,0.129991963506,25.0399990082,-288.034637451,-403.264312744,0.7938842773000019,4.2837915419999995,-6.16063797474,3.8881378174000005,12.075498580899996,-5.888509273529999,16.0
2018-10-18 15:10:40.800,0.127019441875,-0.0586904087729,-0.914945778273,-0.379509925842,-0.0442721582949,-0.0729698464274,-2.63798885,0.9610517,10.3558224,0.0,-12.033082962,12.233839035,-5.76121997833,0.0249745007604,-0.0638509169221,0.129991963506,25.0399990082,-288.034637451,-403.264312744,0.7938842773000019,4.2837915419999995,-6.16063797474,3.8881378174000005,12.075498580899996,-5.888509273529999,16.0
2018-10-18 15:10:40.850,0.127019441875,-0.0586904087729,-0.914945778273,-0.379509925842,-0.0442721582949,-0.0729698464274,-2.63798885,0.9610517,10.3558224,0.0,-12.1296863556,12.0678052902,-5.82060480118,-0.379509925842,-0.0442721582949,-0.0729698464274,25.6700000763,-288.034637451,-402.038513184,1.1414756774999972,5.8732252120999995,-1.8197499513639999,3.9462118149,12.147968292199996,-5.792028427119998,16.0
2018-10-18 15:10:40.900,0.127019441875,-0.0586904087729,-0.914945778273,-0.379509925842,-0.0442721582949,-0.0729698464274,-2.63798885,0.9610517,10.3558224,0.0,-12.1296863556,12.0678052902,-5.82060480118,-0.379509925842,-0.0442721582949,-0.0729698464274,25.6700000763,-288.034637451,-402.038513184,1.1414756774999972,5.8732252120999995,-1.8197499513639999,3.9719781875999995,12.183793067899996,-5.743782043459999,16.0
2018-10-18 15:10:40.950,0.127019441875,-0.0586904087729,-0.914945778273,-0.379509925842,-0.0442721582949,-0.0729698464274,-2.63798885,0.9610517,10.3558224,0.0,-12.1296863556,12.0678052902,-5.82060480118,-0.379509925842,-0.0442721582949,-0.0729698464274,25.6700000763,-288.034637451,-402.038513184,1.1414756774999972,5.8732252120999995,-1.8197499513639999,3.9719781875999995,12.183793067899996,-5.743782043459999,16.0
2018-10-18 15:10:41.000,0.127019441875,-0.0586904087729,-0.914945778273,-0.379509925842,-0.0442721582949,-0.0729698464274,-2.63798885,0.9610517,10.3558224,0.0,-12.1296863556,12.0678052902,-5.82060480118,-0.379509925842,-0.0442721582949,-0.0729698464274,26.8999996185,-275.501647949,-399.570068359,1.1414756774999972,10.203225135839999,-0.599749974906,4.0244007111,12.356504440299997,-5.343900203699998,16.0
2018-10-18 15:10:41.050,0.127019441875,-0.0586904087729,-0.914945778273,-0.379509925842,-0.0442721582949,-0.0729698464274,-2.63798885,0.9610517,10.3558224,0.0,-12.1296863556,12.0678052902,-5.82060480118,-0.379509925842,-0.0442721582949,-0.0729698464274,26.8999996185,-275.501647949,-399.570068359,1.1414756774999972,10.203225135839999,-0.6097499765451,4.0365839005,12.404224395799996,-5.2042865753199985,16.0
2018-10-18 15:10:41.100,0.127019441875,-0.0586904087729,-0.914945778273,-0.379509925842,-0.0442721582949,-0.0729698464274,-2.63798885,0.9610517,10.3558224,0.0,-12.4379959106,11.9359722137,-5.1512556076,-0.379509925842,-0.0442721582949,-0.0729698464274,26.8999996185,-275.501647949,-399.570068359,1.1414756774999972,10.203225135839999,-0.6097499765451,4.0365839005,12.404224395799996,-5.2042865753199985,16.0
2018-10-18 15:10:41.150,0.127019441875,-0.0586904087729,-0.914945778273,-0.379509925842,-0.0442721582949,-0.0729698464274,-2.63798885,0.9610517,10.3558224,0.0,-12.4379959106,11.9359722137,-5.1512556076,-0.379509925842,-0.0442721582949,-0.0729698464274,27.4599990845,-288.29309082,-398.310546875,1.1414756774999972,12.14322519306,0.10025000572299991,4.1162261962999995,12.507935523999997,-5.039403438569998,16.0
2018-10-18 15:10:41.200,0.127019441875,-0.0586904087729,-0.914945778273,-0.379509925842,-0.0442721582949,-0.0729698464274,-2.63798885,0.9610517,10.3558224,0.0,-12.4379959106,11.9359722137,-5.1512556076,-0.379509925842,-0.0442721582949,-0.0729698464274,27.4599990845,-288.29309082,-398.310546875,1.1414756774999972,12.14322519306,0.10025000572299991,4.1596717834,12.573289871199997,-4.915391445159998,16.0
2018-10-18 15:10:41.250,0.11022020432,-0.0286276674623,-0.9135652482,0.193950265646,-0.158755943179,-0.067083440721,-2.12804305,0.26477955,11.95430635,0.0,-12.4379959106,11.9359722137,-5.1512556076,-0.379509925842,-0.0442721582949,-0.0729698464274,27.4599990845,-288.29309082,-398.310546875,1.1414756774999972,12.14322519306,0.10025000572299991,4.1596717834,12.573289871199997,-4.915391445159998,16.0
2018-10-18 15:10:41.300,0.11022020432,-0.0286276674623,-0.9135652482,0.193950265646,-0.158755943179,-0.067083440721,-2.12804305,0.26477955,11.95430635,0.0,-12.4379959106,11.9359722137,-5.1512556076,-0.379509925842,-0.0442721582949,-0.0729698464274,28.0,-288.29309082,-397.05090332,-0.5050163268999981,10.918827295340002,3.4349343776700003,4.190371513400001,12.645126342799996,-4.761529445649998,16.0
2018-10-18 15:10:41.350,0.11022020432,-0.0286276674623,-0.9135652482,0.193950265646,-0.158755943179,-0.067083440721,-2.12804305,0.26477955,11.95430635,0.0,-12.7284059525,11.8359737396,-4.35781621933,0.193950265646,-0.158755943179,-0.067083440721,28.5299987793,-302.433410645,-395.757568359,-0.5050163268999981,12.738827288184,3.8649344444300002,4.1640262604,12.728405952499996,-4.357816219329998,16.0
2018-10-18 15:10:41.400,0.11022020432,-0.0286276674623,-0.9135652482,0.193950265646,-0.158755943179,-0.067083440721,-2.12804305,0.26477955,11.95430635,0.0,-12.7284059525,11.8359737396,-4.35781621933,0.193950265646,-0.158755943179,-0.067083440721,28.9799995422,-302.433410645,-394.464263916,-0.5050163268999981,12.738827288184,3.88493442536,4.118018150299999,12.792368888899997,-3.9720830917399983,16.0
2018-10-18 15:10:41.450,0.11022020432,-0.0286276674623,-0.9135652482,0.193950265646,-0.158755943179,-0.067083440721,-2.12804305,0.26477955,11.95430635,0.0,-12.7284059525,11.8359737396,-4.35781621933,0.193950265646,-0.158755943179,-0.067083440721,28.9799995422,-302.433410645,-394.464263916,-0.5050163268999981,13.908827245269,4.16493451596,4.0496349335,12.871661186199997,-3.3670713901499982,16.0
2018-10-18 15:10:41.500,0.11022020432,-0.0286276674623,-0.9135652482,0.193950265646,-0.158755943179,-0.067083440721,-2.12804305,0.26477955,11.95430635,0.0,-12.7284059525,11.8359737396,-4.35781621933,0.193950265646,-0.158755943179,-0.067083440721,28.9799995422,-302.433410645,-394.464263916,-0.5050163268999981,13.908827245269,4.16493451596,3.9626722335999993,12.934430122399997,-2.7508747577699983,16.0
2018-10-18 15:10:41.550,0.11022020432,-0.0286276674623,-0.9135652482,0.193950265646,-0.158755943179,-0.067083440721,-2.12804305,0.26477955,11.95430635,0.0,-12.9484233856,12.0489635468,-2.55935025215,0.193950265646,-0.158755943179,-0.067083440721,29.3400001526,-312.375823975,-393.153869629,-0.5050163268999981,14.728827238120001,4.05493438244,3.9116859436,12.966926574699997,-2.226673841479998,16.0
2018-10-18 15:10:41.600,0.0545863498512,-0.0465026768941,-0.916229176302,-0.0521438345313,-0.28197607398,0.111240789294,-0.99047165,0.1176798,20.54493175,0.0,-12.9484233856,12.0489635468,-2.55935025215,0.193950265646,-0.158755943179,-0.067083440721,29.3400001526,-312.375823975,-393.153869629,-0.3896179198999974,9.65627121926,-0.3603699207300002,3.8812294006000005,12.987772941599996,-1.947438955309998,16.0
2018-10-18 15:10:41.650,0.0545863498512,-0.0465026768941,-0.916229176302,-0.0521438345313,-0.28197607398,0.111240789294,-0.99047165,0.1176798,20.54493175,0.0,-12.9484233856,12.0489635468,-2.55935025215,0.193950265646,-0.158755943179,-0.067083440721,29.609998703,-312.375823975,-391.84362793,-0.3896179198999974,10.38627123833,-0.47036993504000013,3.8495664597,13.002512931799997,-1.470590949059998,16.0
2018-10-18 15:10:41.700,0.0545863498512,-0.0465026768941,-0.916229176302,-0.0521438345313,-0.28197607398,0.111240789294,-0.99047165,0.1176798,20.54493175,0.0,-12.9484233856,12.0489635468,-2.55935025215,0.193950265646,-0.158755943179,-0.067083440721,29.609998703,-312.375823975,-391.84362793,-0.3896179198999974,10.38627123833,-0.47036993504000013,3.8495664597,13.002512931799997,-1.470590949059998,16.0
2018-10-18 15:10:41.750,0.0545863498512,-0.0465026768941,-0.916229176302,-0.0521438345313,-0.28197607398,0.111240789294,-0.99047165,0.1176798,20.54493175,0.0,-12.9484233856,12.0489635468,-2.55935025215,0.193950265646,-0.158755943179,-0.067083440721,29.7899990082,-352.065856934,-390.524780273,-0.3896179198999974,10.88627123833,-0.5403698682800002,3.8197431563999995,13.015190124499997,-0.895512044429998,16.0
2018-10-18 15:10:41.800,0.0545863498512,-0.0465026768941,-0.916229176302,-0.0521438345313,-0.28197607398,0.111240789294,-0.99047165,0.1176798,20.54493175,0.0,-13.0109214783,12.1986236572,-0.391637474298,-0.0521438345313,-0.28197607398,0.111240789294,29.8699989319,-352.065856934,-389.197662354,-0.3896179198999974,10.88627123833,-0.5403698682800002,3.8046369552999995,13.001566886899996,-0.22069309651899802,16.0
2018-10-18 15:10:41.850,0.0545863498512,-0.0465026768941,-0.916229176302,-0.0521438345313,-0.28197607398,0.111240789294,-0.99047165,0.1176798,20.54493175,0.0,-13.0109214783,12.1986236572,-0.391637474298,-0.0521438345313,-0.28197607398,0.111240789294,29.8699989319,-352.065856934,-389.197662354,-0.3896179198999974,11.07627129555,-0.6903698444400002,3.8046369552999995,13.001566886899996,-0.22069309651899802,16.0
2018-10-18 15:10:41.900,0.01182801223,-0.0295635542352,-0.925180860909,-0.289162397385,-0.245408639312,0.0923351496458,-0.67665885,0.7256921,17.8088764,0.0,-13.0109214783,12.1986236572,-0.391637474298,-0.0521438345313,-0.28197607398,0.111240789294,29.8799991608,-355.765716553,-387.87890625,1.5913391113000017,5.7560107708,-0.86516213417,3.856139183,13.017658233599997,0.47202637791600194,16.0
2018-10-18 15:10:41.950,0.01182801223,-0.0295635542352,-0.925180860909,-0.289162397385,-0.245408639312,0.0923351496458,-0.67665885,0.7256921,17.8088764,0.0,-13.0109214783,12.1986236572,-0.391637474298,-0.0521438345313,-0.28197607398,0.111240789294,29.8799991608,-355.765716553,-387.87890625,1.5913391113000017,5.88601064682,-0.6251621246300001,3.856139183,13.017658233599997,0.47202637791600194,16.0
2018-10-18 15:10:42.000,0.01182801223,-0.0295635542352,-0.925180860909,-0.289162397385,-0.245408639312,0.0923351496458,-0.67665885,0.7256921,17.8088764,0.0,-13.0109214783,12.1986236572,-0.391637474298,-0.0521438345313,-0.28197607398,0.111240789294,29.8199996948,-355.765716553,-386.560180664,1.5913391113000017,5.88601064682,-0.6151621341700002,3.9228477478000006,13.002170562699996,0.791147470474002,16.0
2018-10-18 15:10:42.050,0.01182801223,-0.0295635542352,-0.925180860909,-0.289162397385,-0.245408639312,0.0923351496458,-0.67665885,0.7256921,17.8088764,0.0,-12.9709148407,12.0548915863,0.798752784729,-0.289162397385,-0.245408639312,0.0923351496458,29.8199996948,-355.765716553,-386.560180664,1.5913391113000017,6.12601065636,-0.4351620674100003,3.9228477478000006,13.002170562699996,0.791147470474002,16.0
2018-10-18 15:10:42.100,0.01182801223,-0.0295635542352,-0.925180860909,-0.289162397385,-0.245408639312,0.0923351496458,-0.67665885,0.7256921,17.8088764,0.0,-12.9709148407,12.0548915863,0.798752784729,-0.289162397385,-0.245408639312,0.0923351496458,29.8199996948,-355.765716553,-386.560180664,1.5913391113000017,6.12601065636,-0.4351620674100003,3.9598484039000006,12.935304641699997,0.812713980675002,16.0
2018-10-18 15:10:42.150,0.01182801223,-0.0295635542352,-0.925180860909,-0.289162397385,-0.245408639312,0.0923351496458,-0.67665885,0.7256921,17.8088764,0.0,-12.9709148407,12.0548915863,0.798752784729,-0.289162397385,-0.245408639312,0.0923351496458,29.7699985504,-346.654693604,-385.249969482,1.5913391113000017,6.57601070404,-0.6651622056900002,3.9699220657000005,12.855405807499997,0.707678616047002,16.0
2018-10-18 15:10:42.200,0.01182801223,-0.0295635542352,-0.925180860909,-0.289162397385,-0.245408639312,0.0923351496458,-0.67665885,0.7256921,17.8088764,0.0,-12.9709148407,12.0548915863,0.798752784729,-0.289162397385,-0.245408639312,0.0923351496458,29.7699985504,-346.654693604,-385.249969482,1.5913391113000017,6.57601070404,-0.6651622056900002,3.9807338715,12.805922508199997,0.536831617355002,16.0
2018-10-18 15:10:42.250,0.01182801223,-0.0295635542352,-0.925180860909,-0.289162397385,-0.245408639312,0.0923351496458,-0.67665885,0.7256921,17.8088764,0.0,-12.7609443665,11.9951705933,0.463946908712,-0.289162397385,-0.245408639312,0.0923351496458,29.7399997711,-346.654693604,-383.947967529,1.5913391113000017,7.216010570529999,-0.9351621866200002,4.004829406700001,12.760944366499997,0.46394690871200195,16.0
2018-10-18 15:10:42.300,0.01182801223,-0.0295635542352,-0.925180860909,-0.289162397385,-0.245408639312,0.0923351496458,-0.67665885,0.7256921,17.8088764,0.0,-12.7609443665,11.9951705933,0.463946908712,-0.289162397385,-0.245408639312,0.0923351496458,29.7399997711,-346.654693604,-383.947967529,1.5913391113000017,7.216010570529999,-0.9351621866200002,4.0442304611,12.674052238499996,0.43457111716300195,16.0
2018-10-18 15:10:42.350,-0.034927260437,-0.0404017868742,-0.926851710823,-0.0194710977376,-0.147939443588,0.0547261126339,-0.44129925,0.87279185,9.83606995,0.0,-12.7609443665,11.9951705933,0.463946908712,-0.289162397385,-0.245408639312,0.0923351496458,29.7399997711,-334.259979248,-382.663085938,1.5913391113000017,7.816010475160001,-1.1351621150900002,4.0442304611,12.674052238499996,0.43457111716300195,16.0
2018-10-18 15:10:42.400,-0.034927260437,-0.0404017868742,-0.926851710823,-0.0194710977376,-0.147939443588,0.0547261126339,-0.44129925,0.87279185,9.83606995,0.0,-12.7609443665,11.9951705933,0.463946908712,-0.289162397385,-0.245408639312,0.0923351496458,29.7600002289,-334.259979248,-381.395019531,2.203948974600003,3.2904394865000004,-4.30171132087,4.088088989299999,12.648101806599996,0.43504241108900193,16.0
2018-10-18 15:10:42.450,-0.034927260437,-0.0404017868742,-0.926851710823,-0.0194710977376,-0.147939443588,0.0547261126339,-0.44129925,0.87279185,9.83606995,0.0,-12.7609443665,11.9951705933,0.463946908712,-0.289162397385,-0.245408639312,0.0923351496458,29.7600002289,-334.259979248,-381.395019531,2.203948974600003,3.2904394865000004,-4.30171132087,4.1368570328,12.576913833599997,0.597998559475002,16.0
2018-10-18 15:10:42.500,-0.034927260437,-0.0404017868742,-0.926851710823,-0.0194710977376,-0.147939443588,0.0547261126339,-0.44129925,0.87279185,9.83606995,0.0,-12.5111370087,11.7764530182,0.833018839359,-0.0194710977376,-0.147939443588,0.0547261126339,29.7600002289,-334.259979248,-381.395019531,2.203948974600003,3.7704395055699997,-4.38171136379,4.2235469818,12.511137008699997,0.833018839359002,16.0
2018-10-18 15:10:42.550,-0.034927260437,-0.0404017868742,-0.926851710823,-0.0194710977376,-0.147939443588,0.0547261126339,-0.44129925,0.87279185,9.83606995,0.0,-12.5111370087,11.7764530182,0.833018839359,-0.0194710977376,-0.147939443588,0.0547261126339,29.7699985504,-320.867919922,-380.135528564,2.203948974600003,4.02043950557,-4.30171132087,4.295335769699999,12.458055496199997,0.917631864548002,16.0
