%time,field.orientation.x,field.orientation.y,field.orientation.z,field.angular_velocity.x,field.angular_velocity.y,field.angular_velocity.z,field.linear_acceleration.x,field.linear_acceleration.y,field.linear_acceleration.z,field.twist.linear.x,field.twist.linear.y,field.twist.linear.z,field.twist.angular.x,field.twist.angular.y,field.twist.angular.z,field.alt_error,field.aspd_error,field.xtrack_error,delta_yaw,delta_pitch,delta_roll,delta_x,delta_y,delta_z,delta_roll_airspeed
2018-09-11 19:12:57.200,,,,,,,,,,,,,,,,-0.75,-603.528381348,-26.6027736664,173.2312850952,-4.4842792078897,18.2581443786,14.29080998899,19.5110999494928,0.38011124730100193,15.0
2018-09-11 19:12:57.250,,,,,,,,,,-19.5293159485,1.70917952061,0.380111247301,0.533501505852,0.0502029620111,-0.130796253681,-0.75,-603.528381348,-26.6027736664,173.2312850952,-4.5242791697397,18.388145446800003,14.14599740507,19.4360991864928,0.31375816464400197,15.0
2018-09-11 19:12:57.300,,,,,,,,,,-19.5293159485,1.70917952061,0.380111247301,0.533501505852,0.0502029620111,-0.130796253681,-0.75,-603.528381348,-26.6027736664,173.2312850952,-4.5242791697397,18.388145446800003,14.14599740507,19.4360991864928,0.31375816464400197,15.0
2018-09-11 19:12:57.350,,,,,,,,,,-19.5293159485,1.70917952061,0.380111247301,0.533501505852,0.0502029620111,-0.130796253681,-0.829999983311,-603.528381348,-24.6514549255,173.2312850952,-4.5242791697397,18.388145446800003,13.77017879486,19.272257129200213,0.12722939252900198,15.0
2018-09-11 19:12:57.400,,,,,,,,,,-19.5293159485,1.70917952061,0.380111247301,0.533501505852,0.0502029620111,-0.130796253681,-0.879999995232,-576.569152832,-95.994102478,34.524398803699995,-1.48827683926,9.965461731000005,13.35545921326,19.077390948700213,-0.06305637210609805,16.0
2018-09-11 19:12:57.450,-0.0226772962511,-0.298297249028,-0.949192705994,0.395058333874,-0.0487973839045,-0.201718628407,-1.0198916,0.79433865,9.2378643,-19.0370883942,2.72832107544,-0.10553073138,0.395058333874,-0.0487973839045,-0.201718628407,-0.879999995232,-576.569152832,-95.994102478,34.524398803699995,-1.48827683926,9.965461731000005,13.35545921326,19.077390948700213,-0.06305637210609805,16.0
2018-09-11 19:12:57.500,-0.0226772962511,-0.298297249028,-0.949192705994,0.395058333874,-0.0487973839045,-0.201718628407,-1.0198916,0.79433865,9.2378643,-19.0370883942,2.72832107544,-0.10553073138,0.395058333874,-0.0487973839045,-0.201718628407,-0.919999957085,-476.56918335,-94.0921401978,34.524398803699995,0.541723072529,9.965461731000005,13.00073599815,18.914476672600212,-0.21457238495299802,16.0
2018-09-11 19:12:57.550,-0.0226772962511,-0.298297249028,-0.949192705994,0.395058333874,-0.0487973839045,-0.201718628407,-1.0198916,0.79433865,9.2378643,-19.0370883942,2.72832107544,-0.10553073138,0.395058333874,-0.0487973839045,-0.201718628407,-0.919999957085,-476.56918335,-94.0921401978,34.524398803699995,0.551723062993,9.965461731000005,12.91020011902,18.878238955900212,-0.25378987193099806,16.0
2018-09-11 19:12:57.600,-0.0226772962511,-0.298297249028,-0.949192705994,0.395058333874,-0.0487973839045,-0.201718628407,-1.0198916,0.79433865,9.2378643,-19.0370883942,2.72832107544,-0.10553073138,0.395058333874,-0.0487973839045,-0.201718628407,-0.949999988079,-447.592926025,-92.2155456543,34.524398803699995,2.54172301292,9.565460205100003,12.44311189651,18.67147473470021,-0.44109153747599805,16.0
2018-09-11 19:12:57.650,-0.0226772962511,-0.298297249028,-0.949192705994,0.395058333874,-0.0487973839045,-0.201718628407,-1.0198916,0.79433865,9.2378643,-19.0370883942,2.72832107544,-0.10553073138,0.395058333874,-0.0487973839045,-0.201718628407,-0.949999988079,-447.592926025,-92.2155456543,34.524398803699995,2.54172301292,9.565460205100003,12.44311189651,18.67147473470021,-0.44109153747599805,16.0
2018-09-11 19:12:57.700,-0.0226772962511,-0.298297249028,-0.949192705994,0.395058333874,-0.0487973839045,-0.201718628407,-1.0198916,0.79433865,9.2378643,-18.5092658997,3.92390632629,-0.616871654987,0.395058333874,-0.0487973839045,-0.201718628407,-0.959999978542,-447.592926025,-90.3558502197,34.524398803699995,4.55172288418,8.315460205100003,12.07609367371,18.509271899700213,-0.616871654986998,16.0
2018-09-11 19:12:57.750,-0.0315869199586,-0.330694033243,-0.932437975701,0.0849245265126,-0.213386580348,-0.253936946392,-0.6668522,0.89240515,9.87529655,-18.5092658997,3.92390632629,-0.616871654987,0.395058333874,-0.0487973839045,-0.201718628407,-0.959999978542,-447.592926025,-90.3558502197,34.524398803699995,4.55172288418,8.315460205100003,11.97003173828,18.460789004800212,-0.645132482051998,16.0
2018-09-11 19:12:57.800,-0.0315869199586,-0.330694033243,-0.932437975701,0.0849245265126,-0.213386580348,-0.253936946392,-0.6668522,0.89240515,9.87529655,-18.5092658997,3.92390632629,-0.616871654987,0.395058333874,-0.0487973839045,-0.201718628407,-0.939999997616,-423.958770752,-88.5299606323,29.3731842041,5.95164012909,2.899337768500004,11.54190301895,18.286812106600213,-0.746441900729998,16.0
2018-09-11 19:12:57.850,-0.0315869199586,-0.330694033243,-0.932437975701,0.0849245265126,-0.213386580348,-0.253936946392,-0.6668522,0.89240515,9.87529655,-18.5092658997,3.92390632629,-0.616871654987,0.395058333874,-0.0487973839045,-0.201718628407,-0.939999997616,-423.958770752,-88.5299606323,29.3731842041,5.96164011956,2.899337768500004,11.30047225952,18.18998936790021,-0.764764010905998,16.0
2018-09-11 19:12:57.900,-0.0315869199586,-0.330694033243,-0.932437975701,0.0849245265126,-0.213386580348,-0.253936946392,-0.6668522,0.89240515,9.87529655,-18.5092658997,3.92390632629,-0.616871654987,0.395058333874,-0.0487973839045,-0.201718628407,-0.919999957085,-423.958770752,-86.7209701538,29.3731842041,6.00164031983,1.1393356323000035,10.793495178219999,17.984806338700214,-0.767740786075998,16.0
2018-09-11 19:12:57.950,-0.0315869199586,-0.330694033243,-0.932437975701,0.0849245265126,-0.213386580348,-0.253936946392,-0.6668522,0.89240515,9.87529655,-17.9300327301,5.34064722061,-0.756684660912,0.0849245265126,-0.213386580348,-0.253936946392,-0.919999957085,-423.958770752,-86.7209701538,29.3731842041,6.00164031983,1.1393356323000035,10.793495178219999,17.984806338700214,-0.767740786075998,16.0
2018-09-11 19:12:58.000,-0.0315869199586,-0.330694033243,-0.932437975701,0.0849245265126,-0.213386580348,-0.253936946392,-0.6668522,0.89240515,9.87529655,-17.9300327301,5.34064722061,-0.756684660912,0.0849245265126,-0.213386580348,-0.253936946392,-0.889999985695,-397.300354004,-84.9373550415,29.3731842041,6.00164031983,1.1493377685000041,10.38401269913,17.819032947000213,-0.732260763644998,16.0
2018-09-11 19:12:58.050,-0.0315869199586,-0.330694033243,-0.932437975701,0.0849245265126,-0.213386580348,-0.253936946392,-0.6668522,0.89240515,9.87529655,-17.9300327301,5.34064722061,-0.756684660912,0.0849245265126,-0.213386580348,-0.253936946392,-0.889999985695,-397.300354004,-84.9373550415,29.3731842041,5.93164014817,-0.9306640625,10.10774087906,17.70554570340021,-0.699958443641998,16.0
2018-09-11 19:12:58.100,-0.0315869199586,-0.330694033243,-0.932437975701,0.0849245265126,-0.213386580348,-0.253936946392,-0.6668522,0.89240515,9.87529655,-17.9300327301,5.34064722061,-0.756684660912,0.0849245265126,-0.213386580348,-0.253936946392,-0.870000004768,-397.300354004,-83.1875152588,29.3731842041,5.80164027214,-3.190662384099994,9.56866502762,17.473350802900214,-0.656091988086998,16.0
2018-09-11 19:12:58.150,-0.0573434949199,-0.327665641415,-0.921718270536,-0.0194128975272,-0.202027142048,-0.211305513978,-0.0588399,0.95124505,12.85651815,-17.9300327301,5.34064722061,-0.756684660912,0.0849245265126,-0.213386580348,-0.253936946392,-0.870000004768,-397.300354004,-83.1875152588,29.3731842041,5.80164027214,-3.190662384099994,9.431939125060001,17.41105298180021,-0.640570163726998,16.0
2018-09-11 19:12:58.200,-0.0573434949199,-0.327665641415,-0.921718270536,-0.0194128975272,-0.202027142048,-0.211305513978,-0.0588399,0.95124505,12.85651815,-17.2240028381,6.96806907654,-0.593670785427,-0.0194128975272,-0.202027142048,-0.211305513978,-0.849999964237,-353.880310059,-81.4799804688,22.084510803200004,5.22255194187,-3.2666168212999978,9.03193092346,17.22400883810021,-0.593670785426998,16.0
2018-09-11 19:12:58.250,-0.0573434949199,-0.327665641415,-0.921718270536,-0.0194128975272,-0.202027142048,-0.211305513978,-0.0588399,0.95124505,12.85651815,-17.2240028381,6.96806907654,-0.593670785427,-0.0194128975272,-0.202027142048,-0.211305513978,-0.849999964237,-353.880310059,-81.4799804688,22.084510803200004,5.06255185604,-5.7166175842000015,8.49591827393,16.962993899800214,-0.49254763126399803,16.0
2018-09-11 19:12:58.300,-0.0573434949199,-0.327665641415,-0.921718270536,-0.0194128975272,-0.202027142048,-0.211305513978,-0.0588399,0.95124505,12.85651815,-17.2240028381,6.96806907654,-0.593670785427,-0.0194128975272,-0.202027142048,-0.211305513978,-0.839999973774,-353.880310059,-79.789352417,22.084510803200004,4.86255180836,-8.3266162872,8.49591827393,16.962993899800214,-0.49254763126399803,16.0
2018-09-11 19:12:58.350,-0.0573434949199,-0.327665641415,-0.921718270536,-0.0194128975272,-0.202027142048,-0.211305513978,-0.0588399,0.95124505,12.85651815,-17.2240028381,6.96806907654,-0.593670785427,-0.0194128975272,-0.202027142048,-0.211305513978,-0.839999973774,-353.880310059,-79.789352417,22.084510803200004,4.86255180836,-8.3266162872,8.1103515625,16.757320682000213,-0.4159203469749981,16.0
2018-09-11 19:12:58.400,-0.0573434949199,-0.327665641415,-0.921718270536,-0.0194128975272,-0.202027142048,-0.211305513978,-0.0588399,0.95124505,12.85651815,-17.2240028381,6.96806907654,-0.593670785427,-0.0194128975272,-0.202027142048,-0.211305513978,-0.839999973774,-353.121948242,-78.1578903198,22.084510803200004,4.66255199909,-10.996616363500003,7.648057937620001,16.486198703200213,-0.35780030488999803,16.0
2018-09-11 19:12:58.450,-0.0573434949199,-0.327665641415,-0.921718270536,-0.0194128975272,-0.202027142048,-0.211305513978,-0.0588399,0.95124505,12.85651815,-16.4234371185,8.45815944672,-0.353348970413,-0.0194128975272,-0.202027142048,-0.211305513978,-0.839999973774,-353.121948242,-78.1578903198,22.084510803200004,4.66255199909,-10.996616363500003,7.54184055328,16.423443118500213,-0.35334897041299806,16.0
2018-09-11 19:12:58.500,-0.0573434949199,-0.327665641415,-0.921718270536,-0.0194128975272,-0.202027142048,-0.211305513978,-0.0588399,0.95124505,12.85651815,-16.4234371185,8.45815944672,-0.353348970413,-0.0194128975272,-0.202027142048,-0.211305513978,-0.839999973774,-353.121948242,-76.5517959595,22.084510803200004,4.5125519037299995,-13.416616439800002,7.146244049070001,16.18133000510021,-0.35428708791699803,16.0
2018-09-11 19:12:58.550,-0.0690155603821,-0.30786874241,-0.916832027355,-0.229741290212,-0.135627403855,-0.229811161757,-0.04903325,1.176798,11.83662655,-16.4234371185,8.45815944672,-0.353348970413,-0.0194128975272,-0.202027142048,-0.211305513978,-0.839999973774,-353.121948242,-76.5517959595,22.084510803200004,4.5125519037299995,-13.416616439800002,7.146244049070001,16.18133000510021,-0.35428708791699803,16.0
2018-09-11 19:12:58.600,-0.0690155603821,-0.30786874241,-0.916832027355,-0.229741290212,-0.135627403855,-0.229811161757,-0.04903325,1.176798,11.83662655,-16.4234371185,8.45815944672,-0.353348970413,-0.0194128975272,-0.202027142048,-0.211305513978,-0.849999964237,-349.848754883,-74.9794845581,16.5728988647,4.311698794370001,-13.670867919900004,6.61076831818,15.812830249300212,-0.37767985463099807,16.0
2018-09-11 19:12:58.650,-0.0690155603821,-0.30786874241,-0.916832027355,-0.229741290212,-0.135627403855,-0.229811161757,-0.04903325,1.176798,11.83662655,-16.4234371185,8.45815944672,-0.353348970413,-0.0194128975272,-0.202027142048,-0.211305513978,-0.849999964237,-349.848754883,-74.9794845581,16.5728988647,4.29169881344,-13.670867919900004,6.357284545900001,15.629075328300212,-0.38769730925599805,16.0
2018-09-11 19:12:58.700,-0.0690155603821,-0.30786874241,-0.916832027355,-0.229741290212,-0.135627403855,-0.229811161757,-0.04903325,1.176798,11.83662655,-15.6290693283,9.6427154541,-0.387697309256,-0.229741290212,-0.135627403855,-0.229811161757,-0.8599999547,-349.848754883,-73.4410095215,16.5728988647,4.19169890881,-15.970869064300004,6.27492809296,15.563851634500212,-0.38877218961699805,16.0
2018-09-11 19:12:58.750,-0.0690155603821,-0.30786874241,-0.916832027355,-0.229741290212,-0.135627403855,-0.229811161757,-0.04903325,1.176798,11.83662655,-15.6290693283,9.6427154541,-0.387697309256,-0.229741290212,-0.135627403855,-0.229811161757,-0.8599999547,-349.848754883,-73.4410095215,16.5728988647,4.19169890881,-15.970869064300004,6.02487945557,15.365391055500213,-0.38115122914299804,16.0
2018-09-11 19:12:58.800,-0.0690155603821,-0.30786874241,-0.916832027355,-0.229741290212,-0.135627403855,-0.229811161757,-0.04903325,1.176798,11.83662655,-15.6290693283,9.6427154541,-0.387697309256,-0.229741290212,-0.135627403855,-0.229811161757,-0.870000004768,-340.234954834,-71.936340332,16.5728988647,4.081699013710001,-18.410867691000004,5.7794799805,15.166422168200212,-0.37834897637399806,16.0
2018-09-11 19:12:58.850,-0.0690155603821,-0.30786874241,-0.916832027355,-0.229741290212,-0.135627403855,-0.229811161757,-0.04903325,1.176798,11.83662655,-15.6290693283,9.6427154541,-0.387697309256,-0.229741290212,-0.135627403855,-0.229811161757,-0.870000004768,-340.234954834,-71.936340332,16.5728988647,4.061698794370001,-18.410867691000004,5.6220312118999995,15.038350383200212,-0.38351643085499804,16.0
2018-09-11 19:12:58.900,-0.0690155603821,-0.30786874241,-0.916832027355,-0.229741290212,-0.135627403855,-0.229811161757,-0.04903325,1.176798,11.83662655,-15.6290693283,9.6427154541,-0.387697309256,-0.229741290212,-0.135627403855,-0.229811161757,-0.870000004768,-340.234954834,-70.4485855103,16.5728988647,3.96169888974,-20.810868263200003,5.475995063799999,14.915760318200212,-0.39825341105499806,16.0
2018-09-11 19:12:58.950,-0.0690155603821,-0.30786874241,-0.916832027355,-0.229741290212,-0.135627403855,-0.229811161757,-0.04903325,1.176798,11.83662655,-14.8534975052,10.5909957886,-0.40689226985,-0.229741290212,-0.135627403855,-0.229811161757,-0.870000004768,-340.234954834,-70.4485855103,16.5728988647,3.93169891835,-20.810868263200003,5.277397155799999,14.726332942400212,-0.4189454615119981,16.0
2018-09-11 19:12:59.000,-0.066969240442,-0.250158271988,-0.910014519955,-0.326036453247,-0.121277950704,-0.251289397478,-0.22555295,0.8825985,10.4146623,-14.8534975052,10.5909957886,-0.40689226985,-0.229741290212,-0.135627403855,-0.229811161757,-0.870000004768,-331.143768311,-69.0200042725,16.5728988647,3.8616989851,-23.010868072500003,5.143649101299999,14.600380221800211,-0.42365106940299807,16.0
2018-09-11 19:12:59.050,-0.066969240442,-0.250158271988,-0.910014519955,-0.326036453247,-0.121277950704,-0.251289397478,-0.22555295,0.8825985,10.4146623,-14.8534975052,10.5909957886,-0.40689226985,-0.229741290212,-0.135627403855,-0.229811161757,-0.870000004768,-331.143768311,-69.0200042725,7.447719573999997,4.7474899292,-16.1877059937,4.9492940903000004,14.416834155500212,-0.43534770607899803,16.0
2018-09-11 19:12:59.100,-0.066969240442,-0.250158271988,-0.910014519955,-0.326036453247,-0.121277950704,-0.251289397478,-0.22555295,0.8825985,10.4146623,-14.8534975052,10.5909957886,-0.40689226985,-0.229741290212,-0.135627403855,-0.229811161757,-0.870000004768,-331.143768311,-67.5829162598,7.447719573999997,4.67748975754,-18.4077062607,4.8323059082,14.294660846200212,-0.45114126801499804,16.0
2018-09-11 19:12:59.150,-0.066969240442,-0.250158271988,-0.910014519955,-0.326036453247,-0.121277950704,-0.251289397478,-0.22555295,0.8825985,10.4146623,-14.8534975052,10.5909957886,-0.40689226985,-0.229741290212,-0.135627403855,-0.229811161757,-0.870000004768,-331.143768311,-67.5829162598,7.447719573999997,4.67748975754,-18.4077062607,4.8323059082,14.294660846200212,-0.45114126801499804,16.0
2018-09-11 19:12:59.200,-0.066969240442,-0.250158271988,-0.910014519955,-0.326036453247,-0.121277950704,-0.251289397478,-0.22555295,0.8825985,10.4146623,-14.060505867,11.3821802139,-0.464353352785,-0.326036453247,-0.121277950704,-0.251289397478,-0.870000004768,-339.72644043,-66.2050476074,7.447719573999997,4.59748983384,-20.417706489609998,4.495272636399999,13.932415286500213,-0.44106814265299804,16.0
2018-09-11 19:12:59.250,-0.066969240442,-0.250158271988,-0.910014519955,-0.326036453247,-0.121277950704,-0.251289397478,-0.22555295,0.8825985,10.4146623,-14.060505867,11.3821802139,-0.464353352785,-0.326036453247,-0.121277950704,-0.251289397478,-0.870000004768,-339.72644043,-66.2050476074,7.447719573999997,4.58748984337,-20.417706489609998,4.3735275269,13.806049624900211,-0.39185285568199807,16.0
2018-09-11 19:12:59.300,-0.066969240442,-0.250158271988,-0.910014519955,-0.326036453247,-0.121277950704,-0.251289397478,-0.22555295,0.8825985,10.4146623,-14.060505867,11.3821802139,-0.464353352785,-0.326036453247,-0.121277950704,-0.251289397478,-0.870000004768,-339.72644043,-66.2050476074,7.447719573999997,4.58748984337,-20.417706489609998,4.3735275269,13.806049624900211,-0.39185285568199807,16.0
2018-09-11 19:12:59.350,-0.0683063700461,-0.203848479636,-0.906890910485,-0.285657554865,-0.196664974093,-0.148845985532,-0.26477955,0.63743225,11.77778665,-14.060505867,11.3821802139,-0.464353352785,-0.326036453247,-0.121277950704,-0.251289397478,-0.8599999547,-339.72644043,-64.8271865845,7.447719573999997,4.43748974801,-22.69770622258,4.1315441132,13.527079860200212,-0.22715802490699802,16.0
2018-09-11 19:12:59.400,-0.0683063700461,-0.203848479636,-0.906890910485,-0.285657554865,-0.196664974093,-0.148845985532,-0.26477955,0.63743225,11.77778665,-13.2686061859,12.0773630142,-0.0504062436521,-0.285657554865,-0.196664974093,-0.148845985532,-0.879999995232,-329.153259277,-63.5000419617,2.7371978760000033,3.2268517017400002,-19.82441091541,3.9732723236,13.332402507300213,-0.09193349629639805,16.0
2018-09-11 19:12:59.450,-0.0683063700461,-0.203848479636,-0.906890910485,-0.285657554865,-0.196664974093,-0.148845985532,-0.26477955,0.63743225,11.77778665,-13.2686061859,12.0773630142,-0.0504062436521,-0.285657554865,-0.196664974093,-0.148845985532,-0.879999995232,-329.153259277,-63.5000419617,2.7371978760000033,3.2068516016000004,-19.82441091541,3.7870845795,13.081543246700212,0.06468210369350195,16.0
2018-09-11 19:12:59.500,-0.0683063700461,-0.203848479636,-0.906890910485,-0.285657554865,-0.196664974093,-0.148845985532,-0.26477955,0.63743225,11.77778665,-13.2686061859,12.0773630142,-0.0504062436521,-0.285657554865,-0.196664974093,-0.148845985532,-0.919999957085,-329.153259277,-62.2151641846,2.7371978760000033,2.90685164928,-21.824410676990002,3.7870845795,13.081543246700212,0.06468210369350195,16.0
2018-09-11 19:12:59.550,-0.0683063700461,-0.203848479636,-0.906890910485,-0.285657554865,-0.196664974093,-0.148845985532,-0.26477955,0.63743225,11.77778665,-13.2686061859,12.0773630142,-0.0504062436521,-0.285657554865,-0.196664974093,-0.148845985532,-0.919999957085,-329.153259277,-62.2151641846,2.7371978760000033,2.89685165882,-21.824410676990002,3.6516571045,12.844556132800212,0.21649503707900197,16.0
2018-09-11 19:12:59.600,-0.0683063700461,-0.203848479636,-0.906890910485,-0.285657554865,-0.196664974093,-0.148845985532,-0.26477955,0.63743225,11.77778665,-13.2686061859,12.0773630142,-0.0504062436521,-0.285657554865,-0.196664974093,-0.148845985532,-0.989999949932,-316.225616455,-60.9471664429,2.7371978760000033,2.53685164451,-23.50441074375,3.5906620026000002,12.730023662000212,0.2945624291900019,16.0
2018-09-11 19:12:59.650,-0.0683063700461,-0.203848479636,-0.906890910485,-0.285657554865,-0.196664974093,-0.148845985532,-0.26477955,0.63743225,11.77778665,-12.5686836243,12.4892892838,0.427060931921,-0.285657554865,-0.196664974093,-0.148845985532,-0.989999949932,-316.225616455,-60.9471664429,2.7371978760000033,2.52685165405,-23.50441074375,3.5363540648999994,12.621336261200213,0.37817877531100197,16.0
2018-09-11 19:12:59.700,-0.0684127252631,-0.139685386343,-0.907449797983,-0.358458161354,-0.149407938123,-0.108034104109,-0.22555295,0.8433719,12.36618565,-12.5686836243,12.4892892838,0.427060931921,-0.285657554865,-0.196664974093,-0.148845985532,-0.989999949932,-316.225616455,-60.9471664429,2.7371978760000033,2.51685166359,-23.50441074375,3.485086441,12.513109485100212,0.4788624346260019,16.0
2018-09-11 19:12:59.750,-0.0684127252631,-0.139685386343,-0.907449797983,-0.358458161354,-0.149407938123,-0.108034104109,-0.22555295,0.8433719,12.36618565,-12.5686836243,12.4892892838,0.427060931921,-0.285657554865,-0.196664974093,-0.148845985532,-1.07999992371,-316.225616455,-59.6960983276,-0.6831207274999969,-0.13639020919800005,-18.085789635742998,3.4356765747000004,12.355801860300213,0.600167870522002,16.0
2018-09-11 19:12:59.800,-0.0684127252631,-0.139685386343,-0.907449797983,-0.358458161354,-0.149407938123,-0.108034104109,-0.22555295,0.8433719,12.36618565,-12.5686836243,12.4892892838,0.427060931921,-0.285657554865,-0.196664974093,-0.148845985532,-1.18999993801,-296.995178223,-58.4788131714,-0.6831207274999969,-0.606390178204,-19.27578961846,3.4004096985000007,12.215976993000213,0.706802785397002,16.0
2018-09-11 19:12:59.850,-0.0684127252631,-0.139685386343,-0.907449797983,-0.358458161354,-0.149407938123,-0.108034104109,-0.22555295,0.8433719,12.36618565,-12.5686836243,12.4892892838,0.427060931921,-0.285657554865,-0.196664974093,-0.148845985532,-1.31999993324,-296.995178223,-57.278465271,-0.6831207274999969,-0.6263901740310001,-19.27578961846,3.3908033370999995,12.171448985500213,0.740078032017002,16.0
2018-09-11 19:12:59.900,-0.0684127252631,-0.139685386343,-0.907449797983,-0.358458161354,-0.149407938123,-0.108034104109,-0.22555295,0.8433719,12.36618565,-12.0044565201,12.6390352249,0.842392086983,-0.358458161354,-0.149407938123,-0.108034104109,-1.31999993324,-296.995178223,-57.278465271,-0.6831207274999969,-0.6263901740310001,-19.27578961846,3.3609647750999994,12.004462520100212,0.842392086983002,16.0
2018-09-11 19:12:59.950,-0.0684127252631,-0.139685386343,-0.907449797983,-0.358458161354,-0.149407938123,-0.108034104109,-0.22555295,0.8433719,12.36618565,-12.0044565201,12.6390352249,0.842392086983,-0.358458161354,-0.149407938123,-0.108034104109,-1.31999993324,-296.995178223,-57.278465271,-0.6831207274999969,-1.07639016211,-20.27578949925,3.3608493804999995,11.965970317300211,0.868060648441002,16.0
2018-09-11 19:13:00.000,-0.0684127252631,-0.139685386343,-0.907449797983,-0.358458161354,-0.149407938123,-0.108034104109,-0.22555295,0.8433719,12.36618565,-12.0044565201,12.6390352249,0.842392086983,-0.358458161354,-0.149407938123,-0.108034104109,-1.4699999094,-288.686767578,-56.0950279236,-0.6831207274999969,-1.526390135288,-20.91578960415,3.369393348699999,11.837775508400211,0.889349699020002,16.0
2018-09-11 19:13:00.050,-0.0684127252631,-0.139685386343,-0.907449797983,-0.358458161354,-0.149407938123,-0.108034104109,-0.22555295,0.8433719,12.36618565,-12.0044565201,12.6390352249,0.842392086983,-0.358458161354,-0.149407938123,-0.108034104109,-1.4699999094,-288.686767578,-56.0950279236,-0.6831207274999969,-1.536390125752,-20.91578960415,3.3868427276999995,11.761089602900212,0.862893819809002,16.0
2018-09-11 19:13:00.100,-0.0450790217947,-0.074919403208,-0.907020932333,-0.319884806871,0.0180189181119,-0.0529407337308,-0.36284605,0.6864655,9.5712904,-11.7164993286,12.5919179916,0.843020737171,-0.319884806871,0.0180189181119,-0.0529407337308,-1.61000001431,-288.686767578,-54.9200286865,-2.948898315400001,-2.1791706085199998,-13.36686062813,3.408082008399999,11.716505328600212,0.843020737171002,16.0
2018-09-11 19:13:00.150,-0.0450790217947,-0.074919403208,-0.907020932333,-0.319884806871,0.0180189181119,-0.0529407337308,-0.36284605,0.6864655,9.5712904,-11.7164993286,12.5919179916,0.843020737171,-0.319884806871,0.0180189181119,-0.0529407337308,-1.61000001431,-288.686767578,-54.9200286865,-2.948898315400001,-2.1891705989799997,-13.36686062813,3.4442157745,11.647804538200212,0.858511626720002,16.0
2018-09-11 19:13:00.200,-0.0450790217947,-0.074919403208,-0.907020932333,-0.319884806871,0.0180189181119,-0.0529407337308,-0.36284605,0.6864655,9.5712904,-11.7164993286,12.5919179916,0.843020737171,-0.319884806871,0.0180189181119,-0.0529407337308,-1.75,-264.058685303,-53.7619476318,-2.948898315400001,-2.57917058468,-13.526860713960001,3.4834117889,11.592605868800213,0.837022304535002,16.0
2018-09-11 19:13:00.250,-0.0450790217947,-0.074919403208,-0.907020932333,-0.319884806871,0.0180189181119,-0.0529407337308,-0.36284605,0.6864655,9.5712904,-11.7164993286,12.5919179916,0.843020737171,-0.319884806871,0.0180189181119,-0.0529407337308,-1.75,-264.058685303,-53.7619476318,-2.948898315400001,-2.58917057514,-13.526860713960001,3.508275985699999,11.552443782300212,0.845065534115002,16.0
2018-09-11 19:13:00.300,-0.0450790217947,-0.074919403208,-0.907020932333,-0.319884806871,0.0180189181119,-0.0529407337308,-0.36284605,0.6864655,9.5712904,-11.7164993286,12.5919179916,0.843020737171,-0.319884806871,0.0180189181119,-0.0529407337308,-1.75,-264.058685303,-53.7619476318,-2.948898315400001,-2.58917057514,-13.526860713960001,3.508275985699999,11.552443782300212,0.845065534115002,16.0
2018-09-11 19:13:00.350,-0.0310667876115,-0.0424533169807,-0.906027839077,-0.197747781873,-0.0171826072037,-0.0419255718589,-0.40207265,0.50013915,9.7674234,-11.4620332718,12.3910865784,0.911143362522,-0.197747781873,-0.0171826072037,-0.0419255718589,-1.88999998569,-264.058685303,-52.6038589478,-3.7957038878999967,-3.00263488292,-9.5743598938,3.5895099639999994,11.476542750800212,0.900890111923002,16.0
2018-09-11 19:13:00.400,-0.0310667876115,-0.0424533169807,-0.906027839077,-0.197747781873,-0.0171826072037,-0.0419255718589,-0.40207265,0.50013915,9.7674234,-11.4620332718,12.3910865784,0.911143362522,-0.197747781873,-0.0171826072037,-0.0419255718589,-2.02999997139,-239.754867554,-51.4542312622,-3.7957038878999967,-3.42263495922,-9.53435993195,3.6243410110000003,11.449392596700212,0.907679617405002,16.0
2018-09-11 19:13:00.450,-0.0310667876115,-0.0424533169807,-0.906027839077,-0.197747781873,-0.0171826072037,-0.0419255718589,-0.40207265,0.50013915,9.7674234,-11.4620332718,12.3910865784,0.911143362522,-0.197747781873,-0.0171826072037,-0.0419255718589,-2.02999997139,-239.754867554,-51.4542312622,-3.7957038878999967,-3.4326349496799997,-9.53435993195,3.6819581985000003,11.409364024600212,0.919816553593002,16.0
2018-09-11 19:13:00.500,-0.0310667876115,-0.0424533169807,-0.906027839077,-0.197747781873,-0.0171826072037,-0.0419255718589,-0.40207265,0.50013915,9.7674234,-11.4620332718,12.3910865784,0.911143362522,-0.197747781873,-0.0171826072037,-0.0419255718589,-2.16999983788,-239.754867554,-50.3130226135,-3.7957038878999967,-3.8126348257,-9.43436002732,3.7483253479,11.380749980400212,0.909810125828002,16.0
2018-09-11 19:13:00.550,-0.0310667876115,-0.0424533169807,-0.906027839077,-0.197747781873,-0.0171826072037,-0.0419255718589,-0.40207265,0.50013915,9.7674234,-11.4620332718,12.3910865784,0.911143362522,-0.197747781873,-0.0171826072037,-0.0419255718589,-2.16999983788,-239.754867554,-50.3130226135,-3.7957038878999967,-3.8126348257,-9.43436002732,3.799539566,11.365475932600212,0.895608544350002,16.0
2018-09-11 19:13:00.600,-0.0310667876115,-0.0424533169807,-0.906027839077,-0.197747781873,-0.0171826072037,-0.0419255718589,-0.40207265,0.50013915,9.7674234,-11.4620332718,12.3910865784,0.911143362522,-0.197747781873,-0.0171826072037,-0.0419255718589,-2.30999994278,-219.753845215,-49.1549491882,-3.7957038878999967,-4.17263495922,-9.11435985566,3.8706588745,11.353736201700212,0.846476376057002,16.0
2018-09-11 19:13:00.650,-0.0310667876115,-0.0424533169807,-0.906027839077,-0.197747781873,-0.0171826072037,-0.0419255718589,-0.40207265,0.50013915,9.7674234,-11.3537302017,12.1293411255,0.846476376057,-0.197747781873,-0.0171826072037,-0.0419255718589,-2.30999994278,-219.753845215,-49.1549491882,-3.7957038878999967,-4.17263495922,-9.11435985566,3.9427194594999992,11.341989795200213,0.790757179260002,16.0
2018-09-11 19:13:00.700,-0.0310667876115,-0.0424533169807,-0.906027839077,-0.197747781873,-0.0171826072037,-0.0419255718589,-0.40207265,0.50013915,9.7674234,-11.3537302017,12.1293411255,0.846476376057,-0.197747781873,-0.0171826072037,-0.0419255718589,-2.30999994278,-219.753845215,-49.1549491882,-3.7957038878999967,-4.17263495922,-9.11435985566,3.9427194594999992,11.341989795200213,0.790757179260002,16.0
2018-09-11 19:13:00.750,-0.0310667876115,-0.0424533169807,-0.906027839077,-0.197747781873,-0.0171826072037,-0.0419255718589,-0.40207265,0.50013915,9.7674234,-11.3537302017,12.1293411255,0.846476376057,-0.197747781873,-0.0171826072037,-0.0419255718589,-2.44000005722,-219.753845215,-48.0222244263,-3.7957038878999967,-4.45263493061,-8.7443599701,4.055379867599999,11.344448367600211,0.696500599384002,16.0
2018-09-11 19:13:00.800,-0.0310667876115,-0.0424533169807,-0.906027839077,-0.197747781873,-0.0171826072037,-0.0419255718589,-0.40207265,0.50013915,9.7674234,-11.3537302017,12.1293411255,0.846476376057,-0.197747781873,-0.0171826072037,-0.0419255718589,-2.54999995232,-204.45098877,-46.8810462952,-3.7957038878999967,-4.68263494968,-8.21435999871,4.136384963999999,11.352680484300212,0.608547568321002,16.0
2018-09-11 19:13:00.850,-0.0072850633231,-0.00134418127531,-0.90678582268,-0.0979459956288,0.0454072207212,0.0174088831991,-0.46091255,0.53936575,8.7475318,-11.3564357758,11.8087186813,0.582121193409,-0.0979459956288,0.0454072207212,0.0174088831991,-2.54999995232,-204.45098877,-46.8810462952,-3.8664283752000017,-4.192079246044,-2.791608899835,4.136384963999999,11.352680484300212,0.608547568321002,16.0
2018-09-11 19:13:00.900,-0.0072850633231,-0.00134418127531,-0.90678582268,-0.0979459956288,0.0454072207212,0.0174088831991,-0.46091255,0.53936575,8.7475318,-11.3564357758,11.8087186813,0.582121193409,-0.0979459956288,0.0454072207212,0.0174088831991,-2.64999985695,-204.45098877,-45.7314224243,-3.8664283752000017,-4.412079274653999,-2.251608937975,4.136384963999999,11.352680484300212,0.608547568321002,16.0
2018-09-11 19:13:00.950,-0.0072850633231,-0.00134418127531,-0.90678582268,-0.0979459956288,0.0454072207212,0.0174088831991,-0.46091255,0.53936575,8.7475318,-11.3564357758,11.8087186813,0.582121193409,-0.0979459956288,0.0454072207212,0.0174088831991,-2.64999985695,-204.45098877,-45.7314224243,-3.8664283752000017,-4.412079274653999,-2.251608937975,4.2706499099999995,11.367855350000212,0.548856198788002,16.0
2018-09-11 19:13:01.000,-0.0072850633231,-0.00134418127531,-0.90678582268,-0.0979459956288,0.0454072207212,0.0174088831991,-0.46091255,0.53936575,8.7475318,-11.3564357758,11.8087186813,0.582121193409,-0.0979459956288,0.0454072207212,0.0174088831991,-2.74000000954,-188.766479492,-44.5817756653,-3.8664283752000017,-4.662079274653999,-1.651608914135,4.4194231033,11.390911380200212,0.5372089147570019,16.0
2018-09-11 19:13:01.050,-0.0072850633231,-0.00134418127531,-0.90678582268,-0.0979459956288,0.0454072207212,0.0174088831991,-0.46091255,0.53936575,8.7475318,-11.3564357758,11.8087186813,0.582121193409,-0.0979459956288,0.0454072207212,0.0174088831991,-2.74000000954,-188.766479492,-44.5817756653,-3.8664283752000017,-4.662079274653999,-1.651608914135,4.4194231033,11.390911380200212,0.5372089147570019,16.0
2018-09-11 19:13:01.100,-0.0072850633231,-0.00134418127531,-0.90678582268,-0.0979459956288,0.0454072207212,0.0174088831991,-0.46091255,0.53936575,8.7475318,-11.4101610184,11.5001268387,0.512875497341,-0.0979459956288,0.0454072207212,0.0174088831991,-2.82999992371,-188.766479492,-43.4321479797,-3.8664283752000017,-4.892079055314,-1.031608909368,4.4998731613,11.410167018400212,0.512875497341002,16.0
2018-09-11 19:13:01.150,0.00693018210493,0.0108076837853,-0.907370679464,-0.00790520850569,0.106535539031,0.0146591952071,-0.2941995,0.4314926,9.4339973,-11.4101610184,11.5001268387,0.512875497341,-0.0979459956288,0.0454072207212,0.0174088831991,-2.90999984741,-169.582366943,-42.274055481,-3.693172454799999,-3.999744325881,0.9175633192070001,4.586228370700001,11.432537356800212,0.48772203922300195,16.0
2018-09-11 19:13:01.200,0.00693018210493,0.0108076837853,-0.907370679464,-0.00790520850569,0.106535539031,0.0146591952071,-0.2941995,0.4314926,9.4339973,-11.4101610184,11.5001268387,0.512875497341,-0.0979459956288,0.0454072207212,0.0174088831991,-2.90999984741,-169.582366943,-42.274055481,-3.693172454799999,-3.999744325881,0.9175633192070001,4.6346721649,11.446511546600211,0.45903092622800196,16.0
2018-09-11 19:13:01.250,0.00693018210493,0.0108076837853,-0.907370679464,-0.00790520850569,0.106535539031,0.0146591952071,-0.2941995,0.4314926,9.4339973,-11.4101610184,11.5001268387,0.512875497341,-0.0979459956288,0.0454072207212,0.0174088831991,-2.90999984741,-169.582366943,-42.274055481,-3.693172454799999,-4.199744611981,1.527563281358,4.702593803399999,11.458862582600212,0.39203089475600195,16.0
2018-09-11 19:13:01.300,0.00693018210493,0.0108076837853,-0.907370679464,-0.00790520850569,0.106535539031,0.0146591952071,-0.2941995,0.4314926,9.4339973,-11.4101610184,11.5001268387,0.512875497341,-0.0979459956288,0.0454072207212,0.0174088831991,-2.97000002861,-169.582366943,-41.115978241,-3.693172454799999,-4.3097442686509995,2.007563292981,4.7694587708,11.474648753600212,0.29266649484600193,16.0
2018-09-11 19:13:01.350,0.00693018210493,0.0108076837853,-0.907370679464,-0.00790520850569,0.106535539031,0.0146591952071,-0.2941995,0.4314926,9.4339973,-11.5102214813,11.140048027,0.185384750366,-0.00790520850569,0.106535539031,0.0146591952071,-2.97000002861,-169.582366943,-41.115978241,-3.693172454799999,-4.3097442686509995,2.007563292981,4.8400840759,11.500958720600213,0.20414745807600196,16.0
2018-09-11 19:13:01.400,0.00693018210493,0.0108076837853,-0.907370679464,-0.00790520850569,0.106535539031,0.0146591952071,-0.2941995,0.4314926,9.4339973,-11.5102214813,11.140048027,0.185384750366,-0.00790520850569,0.106535539031,0.0146591952071,-3.01999998093,-162.439147949,-39.957901001,-3.693172454799999,-4.389744192360999,2.59756326675,4.9022188187,11.532284060900212,0.11944808065900196,16.0
2018-09-11 19:13:01.450,0.00693018210493,0.0108076837853,-0.907370679464,-0.00790520850569,0.106535539031,0.0146591952071,-0.2941995,0.4314926,9.4339973,-11.5102214813,11.140048027,0.185384750366,-0.00790520850569,0.106535539031,0.0146591952071,-3.01999998093,-162.439147949,-39.957901001,-3.693172454799999,-4.389744192360999,2.59756326675,4.9022188187,11.532284060900212,0.11944808065900196,16.0
2018-09-11 19:13:01.500,0.0258268064877,0.00612891522986,-0.909263182488,0.0105065125972,0.0813435092568,0.0401398539543,-0.4314926,0.44129925,8.6102387,-11.5102214813,11.140048027,0.185384750366,-0.00790520850569,0.106535539031,0.0146591952071,-3.06999993324,-162.439147949,-38.7744522095,-3.693172454799999,-4.439744383101,3.1675632,4.9869966507,11.576308528400212,0.01530666928740196,16.0
2018-09-11 19:13:01.550,0.0258268064877,0.00612891522986,-0.909263182488,0.0105065125972,0.0813435092568,0.0401398539543,-0.4314926,0.44129925,8.6102387,-11.5102214813,11.140048027,0.185384750366,-0.00790520850569,0.106535539031,0.0146591952071,-3.06999993324,-162.439147949,-38.7744522095,-3.143405914299997,-2.24002933503,3.5798817872999997,5.033120155300001,11.596158305600213,-0.02043984644109804,16.0
2018-09-11 19:13:01.600,0.0258268064877,0.00612891522986,-0.909263182488,0.0105065125972,0.0813435092568,0.0401398539543,-0.4314926,0.44129925,8.6102387,-11.6212501526,10.9284763336,-0.0665958300233,0.0105065125972,0.0813435092568,0.0401398539543,-3.08999991417,-144.87399292,-37.5994682312,-3.143405914299997,-2.24002933503,3.5798817872999997,5.071523666399999,11.621256152600212,-0.06659583002329804,16.0
2018-09-11 19:13:01.650,0.0258268064877,0.00612891522986,-0.909263182488,0.0105065125972,0.0813435092568,0.0401398539543,-0.4314926,0.44129925,8.6102387,-11.6212501526,10.9284763336,-0.0665958300233,0.0105065125972,0.0813435092568,0.0401398539543,-3.08999991417,-144.87399292,-37.5994682312,-3.143405914299997,-2.26002931595,4.1898818016,5.1270780563,11.651712695600212,-0.10544532537499804,16.0
2018-09-11 19:13:01.700,0.0258268064877,0.00612891522986,-0.909263182488,0.0105065125972,0.0813435092568,0.0401398539543,-0.4314926,0.44129925,8.6102387,-11.6212501526,10.9284763336,-0.0665958300233,0.0105065125972,0.0813435092568,0.0401398539543,-3.08999991417,-144.87399292,-37.5994682312,-3.143405914299997,-2.26002931595,4.1898818016,5.1572084427,11.672836581700212,-0.15130096673999802,16.0
2018-09-11 19:13:01.750,0.0255236155273,-0.0108475063731,-0.910878831667,0.138480275869,0.06477445364,0.034367211163,-0.392266,0.46091255,9.11037785,-11.6212501526,10.9284763336,-0.0665958300233,0.0105065125972,0.0813435092568,0.0401398539543,-3.1099998951,-144.87399292,-36.4329338074,-3.143405914299997,-2.2900295257599996,5.00988173485,5.2103481293,11.700694362100212,-0.21260887384399804,16.0
2018-09-11 19:13:01.800,0.0255236155273,-0.0108475063731,-0.910878831667,0.138480275869,0.06477445364,0.034367211163,-0.392266,0.46091255,9.11037785,-11.6212501526,10.9284763336,-0.0665958300233,0.0105065125972,0.0813435092568,0.0401398539543,-3.1099998951,-143.957901001,-35.24949646,-1.6504173279000014,-1.5124337673199997,3.2121148705527003,5.2385978698999995,11.718943873800212,-0.26975059509299804,16.0
2018-09-11 19:13:01.850,0.0255236155273,-0.0108475063731,-0.910878831667,0.138480275869,0.06477445364,0.034367211163,-0.392266,0.46091255,9.11037785,-11.7536783218,10.7114276886,-0.353570461273,0.138480275869,0.06477445364,0.034367211163,-3.1099998951,-143.957901001,-35.24949646,-1.6504173279000014,-1.4724338054700001,6.172114908692699,5.277874946600001,11.744198123400212,-0.32994765043299806,16.0
2018-09-11 19:13:01.900,0.0255236155273,-0.0108475063731,-0.910878831667,0.138480275869,0.06477445364,0.034367211163,-0.392266,0.46091255,9.11037785,-11.7536783218,10.7114276886,-0.353570461273,0.138480275869,0.06477445364,0.034367211163,-3.08999991417,-143.957901001,-34.0491523743,0.3495826720999986,-1.4224336147299996,9.0121145844427,5.3235931396,11.773131648500213,-0.37960466742499804,16.0
2018-09-11 19:13:01.950,0.0255236155273,-0.0108475063731,-0.910878831667,0.138480275869,0.06477445364,0.034367211163,-0.392266,0.46091255,9.11037785,-11.7536783218,10.7114276886,-0.353570461273,0.138480275869,0.06477445364,0.034367211163,-3.08999991417,-143.957901001,-34.0491523743,0.3495826720999986,-1.4224336147299996,9.0121145844427,5.3235931396,11.773131648500213,-0.37960466742499804,16.0
2018-09-11 19:13:02.000,0.0255236155273,-0.0108475063731,-0.910878831667,0.138480275869,0.06477445364,0.034367211163,-0.392266,0.46091255,9.11037785,-11.7536783218,10.7114276886,-0.353570461273,0.138480275869,0.06477445364,0.034367211163,-3.06999993324,-147.073364258,-32.8656921387,2.3495826720999986,-1.372433424,11.632114469962701,5.3235931396,11.773131648500213,-0.37960466742499804,16.0
2018-09-11 19:13:02.050,0.0255236155273,-0.0108475063731,-0.910878831667,0.138480275869,0.06477445364,0.034367211163,-0.392266,0.46091255,9.11037785,-11.7536783218,10.7114276886,-0.353570461273,0.138480275869,0.06477445364,0.034367211163,-3.06999993324,-147.073364258,-32.8656921387,2.3495826720999986,-1.372433424,11.632114469962701,5.364922523500001,11.807882586900213,-0.47547119855899805,16.0
2018-09-11 19:13:02.100,0.0255236155273,-0.0108475063731,-0.910878831667,0.138480275869,0.06477445364,0.034367211163,-0.392266,0.46091255,9.11037785,-11.8219861984,10.6132135391,-0.505833745003,0.138480275869,0.06477445364,0.034367211163,-3.04999995232,-147.073364258,-31.6822566986,4.349582672099999,-1.3124334812199998,14.062114775162701,5.3867864609,11.821992198400212,-0.505833745002998,16.0
2018-09-11 19:13:02.150,0.0255236155273,-0.0108475063731,-0.910878831667,0.138480275869,0.06477445364,0.034367211163,-0.392266,0.46091255,9.11037785,-11.8219861984,10.6132135391,-0.505833745003,0.138480275869,0.06477445364,0.034367211163,-3.04999995232,-147.073364258,-31.6822566986,4.349582672099999,-1.3124334812199998,14.062114775162701,5.3867864609,11.821992198400212,-0.505833745002998,16.0
2018-09-11 19:13:02.200,0.0184894510433,-0.0456234602866,-0.912502286537,0.227268338203,-0.013353719376,0.0377219691873,-0.34323275,0.42168595,9.80665,-11.8219861984,10.6132135391,-0.505833745003,0.138480275869,0.06477445364,0.034367211163,-3.00999999046,-143.975646973,-30.4903697968,5.349582672099999,-1.3124334812199998,14.0721150040627,5.392692565899999,11.827002803300212,-0.536151707171998,16.0
2018-09-11 19:13:02.250,0.0184894510433,-0.0456234602866,-0.912502286537,0.227268338203,-0.013353719376,0.0377219691873,-0.34323275,0.42168595,9.80665,-11.8219861984,10.6132135391,-0.505833745003,0.138480275869,0.06477445364,0.034367211163,-3.00999999046,-143.975646973,-30.4903697968,6.157279968300003,-0.3501424789399996,12.336894512190002,5.39249897,11.827899257100212,-0.539387702941998,16.0
2018-09-11 19:13:02.300,0.0184894510433,-0.0456234602866,-0.912502286537,0.227268338203,-0.013353719376,0.0377219691873,-0.34323275,0.42168595,9.80665,-11.8219861984,10.6132135391,-0.505833745003,0.138480275869,0.06477445364,0.034367211163,-3.00999999046,-143.975646973,-30.4903697968,6.157279968300003,-0.3501424789399996,12.336894512190002,5.388203620900001,11.830450335900212,-0.527143836020998,16.0
2018-09-11 19:13:02.350,0.0184894510433,-0.0456234602866,-0.912502286537,0.227268338203,-0.013353719376,0.0377219691873,-0.34323275,0.42168595,9.80665,-11.8311843872,10.6206998825,-0.5249106884,0.227268338203,-0.013353719376,0.0377219691873,-2.97000002861,-143.975646973,-29.2900218964,8.157279968300003,-0.3001427650399995,14.44689321519,5.3803014755,11.831923762800212,-0.521958291530998,16.0
2018-09-11 19:13:02.400,0.0184894510433,-0.0456234602866,-0.912502286537,0.227268338203,-0.013353719376,0.0377219691873,-0.34323275,0.42168595,9.80665,-11.8311843872,10.6206998825,-0.5249106884,0.227268338203,-0.013353719376,0.0377219691873,-2.92999982834,-136.603363037,-28.0981330872,10.157279968300003,-0.25014257430999987,16.37689352039,5.3789405823,11.825578967500212,-0.522603511809998,16.0
2018-09-11 19:13:02.450,0.0184894510433,-0.0456234602866,-0.912502286537,0.227268338203,-0.013353719376,0.0377219691873,-0.34323275,0.42168595,9.80665,-11.8311843872,10.6206998825,-0.5249106884,0.227268338203,-0.013353719376,0.0377219691873,-2.92999982834,-136.603363037,-28.0981330872,10.157279968300003,-0.25014257430999987,16.37689352039,5.358127594000001,11.815791408000212,-0.551891267299998,16.0
2018-09-11 19:13:02.500,0.0184894510433,-0.0456234602866,-0.912502286537,0.227268338203,-0.013353719376,0.0377219691873,-0.34323275,0.42168595,9.80665,-11.8311843872,10.6206998825,-0.5249106884,0.227268338203,-0.013353719376,0.0377219691873,-2.88999986649,-136.603363037,-26.9146938324,11.157279968300003,-0.14014244080000005,18.066894054389998,5.337882995599999,11.795720378400212,-0.575180351733998,16.0
2018-09-11 19:13:02.550,0.0184894510433,-0.0456234602866,-0.912502286537,0.227268338203,-0.013353719376,0.0377219691873,-0.34323275,0.42168595,9.80665,-11.8311843872,10.6206998825,-0.5249106884,0.227268338203,-0.013353719376,0.0377219691873,-2.88999986649,-136.603363037,-26.9146938324,11.157279968300003,-0.14014244080000005,18.066894054389998,5.3138284683000006,11.773408214100213,-0.603303432464998,16.0
2018-09-11 19:13:02.600,0.00482935494441,-0.0863568155585,-0.910730770582,0.273558944464,0.03793958202,-0.0185007750988,-0.36284605,0.63743225,9.7281968,-11.7436723709,10.7181625366,-0.636141240597,0.273558944464,0.03793958202,-0.0185007750988,-2.83999991417,-141.76864624,-25.7228050232,13.521289825399997,0.41496992111,14.68871021273,5.292289733900001,11.753119746600213,-0.615641593932998,16.0
2018-09-11 19:13:02.650,0.00482935494441,-0.0863568155585,-0.910730770582,0.273558944464,0.03793958202,-0.0185007750988,-0.36284605,0.63743225,9.7281968,-11.7436723709,10.7181625366,-0.636141240597,0.273558944464,0.03793958202,-0.0185007750988,-2.83999991417,-141.76864624,-25.7228050232,13.521289825399997,0.42496967314999967,14.678709983830002,5.2722816467,11.731247226200212,-0.660712003707998,16.0
2018-09-11 19:13:02.700,0.00482935494441,-0.0863568155585,-0.910730770582,0.273558944464,0.03793958202,-0.0185007750988,-0.36284605,0.63743225,9.7281968,-11.7436723709,10.7181625366,-0.636141240597,0.273558944464,0.03793958202,-0.0185007750988,-2.77999997139,-141.76864624,-24.5478229523,14.521289825399997,0.5749697685199995,15.988711357129999,5.2149391174,11.668534556800212,-0.741212785243998,16.0
2018-09-11 19:13:02.750,0.00482935494441,-0.0863568155585,-0.910730770582,0.273558944464,0.03793958202,-0.0185007750988,-0.36284605,0.63743225,9.7281968,-11.7436723709,10.7181625366,-0.636141240597,0.273558944464,0.03793958202,-0.0185007750988,-2.77999997139,-141.76864624,-24.5478229523,14.521289825399997,0.5849697589799998,15.988711357129999,5.2149391174,11.668534556800212,-0.741212785243998,16.0
2018-09-11 19:13:02.800,0.00482935494441,-0.0863568155585,-0.910730770582,0.273558944464,0.03793958202,-0.0185007750988,-0.36284605,0.63743225,9.7281968,-11.7436723709,10.7181625366,-0.636141240597,0.273558944464,0.03793958202,-0.0185007750988,-2.72000002861,-147.302246094,-23.3728275299,16.521289825399997,0.7849695682499997,17.08870983123,5.1214561462,11.573651591700212,-0.808776199817998,16.0
2018-09-11 19:13:02.850,0.00482935494441,-0.0863568155585,-0.910730770582,0.273558944464,0.03793958202,-0.0185007750988,-0.36284605,0.63743225,9.7281968,-11.5082607269,10.9438858032,-0.835284948349,0.273558944464,0.03793958202,-0.0185007750988,-2.72000002861,-147.302246094,-23.3728275299,16.521289825399997,0.7849695682499997,17.08870983123,5.1214561462,11.573651591700212,-0.808776199817998,16.0
2018-09-11 19:13:02.900,0.00482935494441,-0.0863568155585,-0.910730770582,0.273558944464,0.03793958202,-0.0185007750988,-0.36284605,0.63743225,9.7281968,-11.5082607269,10.9438858032,-0.835284948349,0.273558944464,0.03793958202,-0.0185007750988,-2.63999986649,-147.302246094,-22.2147521973,17.521289825399997,0.9749696254699995,18.06871128083,5.033421516400001,11.487385074100212,-0.850043177604998,16.0
2018-09-11 19:13:02.950,0.00482935494441,-0.0863568155585,-0.910730770582,0.273558944464,0.03793958202,-0.0185007750988,-0.36284605,0.63743225,9.7281968,-11.5082607269,10.9438858032,-0.835284948349,0.273558944464,0.03793958202,-0.0185007750988,-2.63999986649,-147.302246094,-22.2147521973,17.521289825399997,0.9949696063999998,18.06871128083,4.958081245400001,11.407967845400211,-0.867897450923998,16.0
2018-09-11 19:13:03.000,-0.0170960112174,-0.137438529816,-0.902154918126,0.344722658396,0.0155996689573,-0.0242299269885,-0.38245935,0.61781895,9.8851032,-11.5082607269,10.9438858032,-0.835284948349,0.273558944464,0.03793958202,-0.0185007750988,-2.55999994278,-143.671035767,-21.0735797882,17.894802093499997,1.3625979423499999,12.472229957600002,4.8849964142,11.328780452200212,-0.905045270919998,16.0
2018-09-11 19:13:03.050,-0.0170960112174,-0.137438529816,-0.902154918126,0.344722658396,0.0155996689573,-0.0242299269885,-0.38245935,0.61781895,9.8851032,-11.5082607269,10.9438858032,-0.835284948349,0.273558944464,0.03793958202,-0.0185007750988,-2.55999994278,-143.671035767,-21.0735797882,17.894802093499997,1.3625979423499999,12.472229957600002,4.8849964142,11.328780452200212,-0.905045270919998,16.0
2018-09-11 19:13:03.100,-0.0170960112174,-0.137438529816,-0.902154918126,0.344722658396,0.0155996689573,-0.0242299269885,-0.38245935,0.61781895,9.8851032,-11.2565565109,11.1877393723,-0.958300471306,0.344722658396,0.0155996689573,-0.0242299269885,-2.55999994278,-143.671035767,-21.0735797882,17.894802093499997,1.38259792328,12.4622297287,4.812260627700001,11.256562510900212,-0.958300471305998,16.0
2018-09-11 19:13:03.150,-0.0170960112174,-0.137438529816,-0.902154918126,0.344722658396,0.0155996689573,-0.0242299269885,-0.38245935,0.61781895,9.8851032,-11.2565565109,11.1877393723,-0.958300471306,0.344722658396,0.0155996689573,-0.0242299269885,-2.48000001907,-143.671035767,-19.9493179321,19.894802093499997,1.6225979328100002,13.1822309494,4.812260627700001,11.256562510900212,-0.958300471305998,16.0
2018-09-11 19:13:03.200,-0.0170960112174,-0.137438529816,-0.902154918126,0.344722658396,0.0155996689573,-0.0242299269885,-0.38245935,0.61781895,9.8851032,-11.2565565109,11.1877393723,-0.958300471306,0.344722658396,0.0155996689573,-0.0242299269885,-2.37999987602,-142.062957764,-18.8335037231,20.894802093499997,1.63259792328,13.1822309494,4.6741409302,11.113905231000212,-1.042864918709998,16.0
2018-09-11 19:13:03.250,-0.0170960112174,-0.137438529816,-0.902154918126,0.344722658396,0.0155996689573,-0.0242299269885,-0.38245935,0.61781895,9.8851032,-11.2565565109,11.1877393723,-0.958300471306,0.344722658396,0.0155996689573,-0.0242299269885,-2.37999987602,-142.062957764,-18.8335037231,20.894802093499997,1.9125978946700002,13.7822294235,4.530015945400001,10.969189921800211,-1.171424627299998,16.0
2018-09-11 19:13:03.300,-0.0170960112174,-0.137438529816,-0.902154918126,0.344722658396,0.0155996689573,-0.0242299269885,-0.38245935,0.61781895,9.8851032,-11.2565565109,11.1877393723,-0.958300471306,0.344722658396,0.0155996689573,-0.0242299269885,-2.37999987602,-142.062957764,-18.8335037231,20.894802093499997,1.9125978946700002,13.7822294235,4.530015945400001,10.969189921800211,-1.171424627299998,16.0
2018-09-11 19:13:03.350,-0.0170960112174,-0.137438529816,-0.902154918126,0.344722658396,0.0155996689573,-0.0242299269885,-0.38245935,0.61781895,9.8851032,-10.8343982697,11.5987272263,-1.26999151707,0.344722658396,0.0155996689573,-0.0242299269885,-2.14999985695,-136.824035645,-16.6610584259,23.894802093499997,2.2525980472500002,14.342230796800001,4.4662399292,10.901956836200211,-1.217350363729998,16.0
2018-09-11 19:13:03.400,-0.0170960112174,-0.137438529816,-0.902154918126,0.344722658396,0.0155996689573,-0.0242299269885,-0.38245935,0.61781895,9.8851032,-10.8343982697,11.5987272263,-1.26999151707,0.344722658396,0.0155996689573,-0.0242299269885,-2.14999985695,-136.824035645,-16.6610584259,23.894802093499997,2.2525980472500002,14.342230796800001,4.331538200400001,10.764547626000212,-1.311804890629998,16.0
2018-09-11 19:13:03.450,-0.0376039034949,-0.19842450379,-0.879034676982,0.11466190964,-0.0301223229617,-0.204066768289,-0.4314926,0.8825985,9.8654899,-10.8343982697,11.5987272263,-1.26999151707,0.344722658396,0.0155996689573,-0.0242299269885,-2.14999985695,-136.824035645,-16.6610584259,23.894802093499997,2.61259794235,14.752230644199999,4.251893043500001,10.685663501200212,-1.334023714069998,16.0
2018-09-11 19:13:03.500,-0.0376039034949,-0.19842450379,-0.879034676982,0.11466190964,-0.0301223229617,-0.204066768289,-0.4314926,0.8825985,9.8654899,-10.8343982697,11.5987272263,-1.26999151707,0.344722658396,0.0155996689573,-0.0242299269885,-2.01999998093,-136.824035645,-15.5959568024,21.875946044899997,4.33312094211,7.722145080600001,4.1338729858,10.568982402300213,-1.385808706279998,16.0
2018-09-11 19:13:03.550,-0.0376039034949,-0.19842450379,-0.879034676982,0.11466190964,-0.0301223229617,-0.204066768289,-0.4314926,0.8825985,9.8654899,-10.8343982697,11.5987272263,-1.26999151707,0.344722658396,0.0155996689573,-0.0242299269885,-2.01999998093,-136.824035645,-15.5959568024,21.875946044899997,4.34312093258,7.722145080600001,4.0959587097,10.529179851000212,-1.403450727459998,16.0
2018-09-11 19:13:03.600,-0.0376039034949,-0.19842450379,-0.879034676982,0.11466190964,-0.0301223229617,-0.204066768289,-0.4314926,0.8825985,9.8654899,-10.4001083374,12.0328035355,-1.43343031406,0.11466190964,-0.0301223229617,-0.204066768289,-2.01999998093,-136.824035645,-15.5959568024,21.875946044899997,4.34312093258,7.712146759100001,3.9671964645000006,10.400114337400213,-1.433430314059998,16.0
2018-09-11 19:13:03.650,-0.0376039034949,-0.19842450379,-0.879034676982,0.11466190964,-0.0301223229617,-0.204066768289,-0.4314926,0.8825985,9.8654899,-10.4001083374,12.0328035355,-1.43343031406,0.11466190964,-0.0301223229617,-0.204066768289,-1.87999999523,-150.295837402,-14.5393199921,22.875946044899997,4.72312092781,7.922145843599999,3.8285789490000006,10.266917506700212,-1.434449791909998,16.0
2018-09-11 19:13:03.700,-0.0408980854281,-0.205215216389,-0.866121472307,0.106477692723,-0.00719213299453,-0.232582256198,-0.26477955,0.8433719,10.591182,-10.4001083374,12.0328035355,-1.43343031406,0.11466190964,-0.0301223229617,-0.204066768289,-1.87999999523,-150.295837402,-14.5393199921,22.875946044899997,4.72312092781,7.912145614700002,3.7363309860000005,10.184018413000212,-1.452249050139998,16.0
2018-09-11 19:13:03.750,-0.0408980854281,-0.205215216389,-0.866121472307,0.106477692723,-0.00719213299453,-0.232582256198,-0.26477955,0.8433719,10.591182,-10.4001083374,12.0328035355,-1.43343031406,0.11466190964,-0.0301223229617,-0.204066768289,-1.87999999523,-150.295837402,-14.5393199921,22.875946044899997,4.72312092781,7.912145614700002,3.7363309860000005,10.184018413000212,-1.452249050139998,16.0
2018-09-11 19:13:03.800,-0.0408980854281,-0.205215216389,-0.866121472307,0.106477692723,-0.00719213299453,-0.232582256198,-0.26477955,0.8433719,10.591182,-10.4001083374,12.0328035355,-1.43343031406,0.11466190964,-0.0301223229617,-0.204066768289,-1.74000000954,-150.295837402,-13.5418519974,21.0502891541,5.670105993748,7.268102645900001,3.5003938674999997,9.935772220090213,-1.485247135159998,16.0
2018-09-11 19:13:03.850,-0.0408980854281,-0.205215216389,-0.866121472307,0.106477692723,-0.00719213299453,-0.232582256198,-0.26477955,0.8433719,10.591182,-9.77999973297,12.6475639343,-1.52055358887,0.106477692723,-0.00719213299453,-0.232582256198,-1.58999991417,-141.686065674,-12.5612945557,22.0502891541,6.040105998516,7.2381019592000015,3.352436065699999,9.780005732970212,-1.520553588869998,16.0
2018-09-11 19:13:03.900,-0.0408980854281,-0.205215216389,-0.866121472307,0.106477692723,-0.00719213299453,-0.232582256198,-0.26477955,0.8433719,10.591182,-9.77999973297,12.6475639343,-1.52055358887,0.106477692723,-0.00719213299453,-0.232582256198,-1.43999993801,-141.686065674,-11.5891885757,24.0502891541,6.440105974674,7.128103256200003,3.1978607177999994,9.610672275020212,-1.537882208819998,16.0
2018-09-11 19:13:03.950,-0.0408980854281,-0.205215216389,-0.866121472307,0.106477692723,-0.00719213299453,-0.232582256198,-0.26477955,0.8433719,10.591182,-9.77999973297,12.6475639343,-1.52055358887,0.106477692723,-0.00719213299453,-0.232582256198,-1.43999993801,-141.686065674,-11.5891885757,24.0502891541,6.450105980039,7.1381034851,3.089656829799999,9.479289332820212,-1.528083205219998,16.0
2018-09-11 19:13:04.000,-0.0408980854281,-0.205215216389,-0.866121472307,0.106477692723,-0.00719213299453,-0.232582256198,-0.26477955,0.8433719,10.591182,-9.77999973297,12.6475639343,-1.52055358887,0.106477692723,-0.00719213299453,-0.232582256198,-1.43999993801,-141.686065674,-11.5891885757,24.0502891541,6.450105980039,7.158102035500001,2.9746627807999992,9.348483363590212,-1.512645244599998,16.0
2018-09-11 19:13:04.050,-0.0701422934821,-0.224082976211,-0.838717347449,0.137813985348,-0.146844133735,-0.159841582179,-0.10787315,0.5491724,11.7287534,-9.77999973297,12.6475639343,-1.52055358887,0.106477692723,-0.00719213299453,-0.232582256198,-1.28999996185,-159.46673584,-10.6508903503,25.0502891541,6.800105974078,6.808103561399999,2.7997455597,9.133207599120212,-1.459521055219998,16.0
2018-09-11 19:13:04.100,-0.0701422934821,-0.224082976211,-0.838717347449,0.137813985348,-0.146844133735,-0.159841582179,-0.10787315,0.5491724,11.7287534,-8.89998149872,13.3833875656,-1.39977240562,0.137813985348,-0.146844133735,-0.159841582179,-1.13999998569,-159.46673584,-9.75486373901,20.6643981934,6.375745505094,2.9477386474999996,2.5554008483999997,8.824613849120212,-1.375373482699998,16.0
2018-09-11 19:13:04.150,-0.0701422934821,-0.224082976211,-0.838717347449,0.137813985348,-0.146844133735,-0.159841582179,-0.10787315,0.5491724,11.7287534,-8.89998149872,13.3833875656,-1.39977240562,0.137813985348,-0.146844133735,-0.159841582179,-1.13999998569,-159.46673584,-9.75486373901,20.6643981934,6.375745505094,2.957736968999999,2.5554008483999997,8.824613849120212,-1.375373482699998,16.0
2018-09-11 19:13:04.200,-0.0701422934821,-0.224082976211,-0.838717347449,0.137813985348,-0.146844133735,-0.159841582179,-0.10787315,0.5491724,11.7287534,-8.89998149872,13.3833875656,-1.39977240562,0.137813985348,-0.146844133735,-0.159841582179,-1.0,-156.259155273,-8.90110111237,21.6643981934,6.645745515823,2.207736968999999,2.2578382492000006,8.421173373660212,-1.247406125069998,16.0
2018-09-11 19:13:04.250,-0.0701422934821,-0.224082976211,-0.838717347449,0.137813985348,-0.146844133735,-0.159841582179,-0.10787315,0.5491724,11.7287534,-8.89998149872,13.3833875656,-1.39977240562,0.137813985348,-0.146844133735,-0.159841582179,-1.0,-156.259155273,-8.90110111237,21.6643981934,6.6557455062869995,2.2177371979,2.2578382492000006,8.421173373660212,-1.247406125069998,16.0
2018-09-11 19:13:04.300,-0.0701422934821,-0.224082976211,-0.838717347449,0.137813985348,-0.146844133735,-0.159841582179,-0.10787315,0.5491724,11.7287534,-8.89998149872,13.3833875656,-1.39977240562,0.137813985348,-0.146844133735,-0.159841582179,-1.0,-156.259155273,-8.90110111237,21.6643981934,6.6557455062869995,2.2177371979,2.0851926804000005,8.175554553470212,-1.171748995779998,16.0
2018-09-11 19:13:04.350,-0.0701422934821,-0.224082976211,-0.838717347449,0.137813985348,-0.146844133735,-0.159841582179,-0.10787315,0.5491724,11.7287534,-7.93633079529,14.0769739151,-1.11798071861,0.137813985348,-0.146844133735,-0.159841582179,-0.879999995232,-156.259155273,-8.08114719391,22.6643981934,6.88574552536,1.4077377319999975,1.9230260849,7.936336795290212,-1.117980718609998,16.0
2018-09-11 19:13:04.400,-0.0701422934821,-0.224082976211,-0.838717347449,0.137813985348,-0.146844133735,-0.159841582179,-0.10787315,0.5491724,11.7287534,-7.93633079529,14.0769739151,-1.11798071861,0.137813985348,-0.146844133735,-0.159841582179,-0.769999980927,-159.283065796,-7.31191682816,22.6643981934,7.105745553969999,0.6077384948999978,1.7783126830999993,7.710886279540213,-1.075738310809998,16.0
2018-09-11 19:13:04.450,-0.0701422934821,-0.224082976211,-0.838717347449,0.137813985348,-0.146844133735,-0.159841582179,-0.10787315,0.5491724,11.7287534,-7.93633079529,14.0769739151,-1.11798071861,0.137813985348,-0.146844133735,-0.159841582179,-0.769999980927,-159.283065796,-7.31191682816,22.6643981934,7.105745553969999,0.6177387237999987,1.6808233261000005,7.553481379940212,-1.048895001409998,16.0
2018-09-11 19:13:04.500,-0.102847644728,-0.225122238353,-0.816000060681,0.0637983158231,-0.222613096237,-0.172196298838,-0.1372931,0.97085835,11.8856598,-7.93633079529,14.0769739151,-1.11798071861,0.137813985348,-0.146844133735,-0.159841582179,-0.669999957085,-159.283065796,-6.58494901657,18.7253627777,5.31200397014,-2.0300788879999985,1.4894943237000007,7.220629970030212,-0.961466252803998,16.0
2018-09-11 19:13:04.550,-0.102847644728,-0.225122238353,-0.816000060681,0.0637983158231,-0.222613096237,-0.172196298838,-0.1372931,0.97085835,11.8856598,-7.93633079529,14.0769739151,-1.11798071861,0.137813985348,-0.146844133735,-0.159841582179,-0.669999957085,-159.283065796,-6.58494901657,18.7253627777,5.31200397014,-2.0300788879999985,1.4894943237000007,7.220629970030212,-0.961466252803998,16.0
2018-09-11 19:13:04.600,-0.102847644728,-0.225122238353,-0.816000060681,0.0637983158231,-0.222613096237,-0.172196298838,-0.1372931,0.97085835,11.8856598,-6.96893119812,14.6452770233,-0.911680102348,0.0637983158231,-0.222613096237,-0.172196298838,-0.669999957085,-159.283065796,-6.58494901657,18.7253627777,5.31200397014,-2.0300788879999985,1.3547229766999997,6.968937198120212,-0.911680102347998,16.0
2018-09-11 19:13:04.650,-0.102847644728,-0.225122238353,-0.816000060681,0.0637983158231,-0.222613096237,-0.172196298838,-0.1372931,0.97085835,11.8856598,-6.96893119812,14.6452770233,-0.911680102348,0.0637983158231,-0.222613096237,-0.172196298838,-0.569999992847,-171.089355469,-5.89179706573,19.7253627777,5.50200402736,-3.0500793456999986,1.2268505096000002,6.724592486820212,-0.8629038929939981,16.0
