%time,field.orientation.x,field.orientation.y,field.orientation.z,field.angular_velocity.x,field.angular_velocity.y,field.angular_velocity.z,field.linear_acceleration.x,field.linear_acceleration.y,field.linear_acceleration.z,field.twist.linear.x,field.twist.linear.y,field.twist.linear.z,field.twist.angular.x,field.twist.angular.y,field.twist.angular.z,field.alt_error,field.aspd_error,field.xtrack_error,delta_yaw,delta_pitch,delta_roll,delta_x,delta_y,delta_z,delta_roll_airspeed,field.orientation.x_imu_data,field.orientation.y_imu_data,field.orientation.z_imu_data,field.angular_velocity.x_imu_data,field.angular_velocity.y_imu_data,field.angular_velocity.z_imu_data,field.linear_acceleration.x_imu_data,field.linear_acceleration.y_imu_data,field.linear_acceleration.z_imu_data,field.twist.linear.x_local_position,field.twist.linear.y_local_position,field.twist.linear.z_local_position,field.twist.angular.x_local_position,field.twist.angular.y_local_position,field.twist.angular.z_local_position,field.alt_error_errors,field.aspd_error_errors,field.xtrack_error_errors,delta_yaw_yaw,delta_pitch_pitch,delta_roll_roll,delta_x_velocity,delta_y_velocity,delta_z_velocity,delta_roll_airspeed
2018-07-18 20:40:12.650,,,,,,,,,,,,,,,,-0.299999982119,-502.687255859,-38.1405677795,179.265686035,6.727041721340001,2.6090393066000033,31.9370775223,14.973027460899873,0.587557554245002,-5.026872634899998,,,,,,,,,,,,,,,,-0.299999982119,-502.687255859,-38.1405677795,179.265686035,6.727041721340001,2.6090393066000033,31.9370775223,14.973027460899873,0.587557554245002,-5.026872634899998
2018-07-18 20:40:12.700,,,,,,,,,,,,,,,,-0.399999976158,-483.644683838,-36.0254898071,180.265686035,7.34704160689,2.6090393066000033,31.5634241104,15.235220187099873,0.48981314897500194,-4.8364467621,,,,,,,,,,,,,,,,-0.399999976158,-483.644683838,-36.0254898071,180.265686035,7.34704160689,2.6090393066000033,31.5634241104,15.235220187099873,0.48981314897500194,-4.8364467621
2018-07-18 20:40:12.750,,,,,,,,,,,,,,,,-0.399999976158,-483.644683838,-36.0254898071,180.265686035,7.34704160689,2.6090393066000033,31.3038158417,15.413999789099874,0.42292663455000196,-4.8364467621,,,,,,,,,,,,,,,,-0.399999976158,-483.644683838,-36.0254898071,180.265686035,7.34704160689,2.6090393066000033,31.3038158417,15.413999789099874,0.42292663455000196,-4.8364467621
2018-07-18 20:40:12.800,,,,,,,,,,-15.4139947891,-15.3038158417,0.42292663455,0.174582958221,-0.23505371809,-0.253942936659,-0.399999976158,-483.644683838,-36.0254898071,180.265686035,7.34704160689,2.6090393066000033,31.015763282800002,15.598374598399873,0.38100996613500193,-4.6415195465,,,,,,,,,,-15.4139947891,-15.3038158417,0.42292663455,0.174582958221,-0.23505371809,-0.253942936659,-0.399999976158,-483.644683838,-36.0254898071,180.265686035,7.34704160689,2.6090393066000033,31.015763282800002,15.598374598399873,0.38100996613500193,-4.6415195465
2018-07-18 20:40:12.850,0.122319875922,-0.381880895279,-0.849843477917,0.167355209589,-0.36008772254,-0.337198495865,-0.40207265,0.2745862,11.22861425,-15.4139947891,-15.3038158417,0.42292663455,0.174582958221,-0.23505371809,-0.253942936659,-0.5,-464.151947021,-33.9043388367,172.508071899,7.29418563843,-2.2951240539999986,30.4347295761,15.936714403999874,0.26756975054700194,-4.6415195465,0.122319875922,-0.381880895279,-0.849843477917,0.167355209589,-0.36008772254,-0.337198495865,-0.40207265,0.2745862,11.22861425,-15.4139947891,-15.3038158417,0.42292663455,0.174582958221,-0.23505371809,-0.253942936659,-0.5,-464.151947021,-33.9043388367,172.508071899,7.29418563843,-2.2951240539999986,30.4347295761,15.936714403999874,0.26756975054700194,-4.6415195465
2018-07-18 20:40:12.900,0.122319875922,-0.381880895279,-0.849843477917,0.167355209589,-0.36008772254,-0.337198495865,-0.40207265,0.2745862,11.22861425,-15.4139947891,-15.3038158417,0.42292663455,0.174582958221,-0.23505371809,-0.253942936659,-0.5,-464.151947021,-33.9043388367,172.508071899,7.29418563843,-2.2951240539999986,30.279841423,16.012677424299874,0.24576964974400198,-4.6415195465,0.122319875922,-0.381880895279,-0.849843477917,0.167355209589,-0.36008772254,-0.337198495865,-0.40207265,0.2745862,11.22861425,-15.4139947891,-15.3038158417,0.42292663455,0.174582958221,-0.23505371809,-0.253942936659,-0.5,-464.151947021,-33.9043388367,172.508071899,7.29418563843,-2.2951240539999986,30.279841423,16.012677424299874,0.24576964974400198,-4.6415195465
2018-07-18 20:40:12.950,0.122319875922,-0.381880895279,-0.849843477917,0.167355209589,-0.36008772254,-0.337198495865,-0.40207265,0.2745862,11.22861425,-15.4139947891,-15.3038158417,0.42292663455,0.174582958221,-0.23505371809,-0.253942936659,-0.5,-464.151947021,-33.9043388367,172.508071899,7.29418563843,-2.2951240539999986,30.279841423,16.012677424299874,0.24576964974400198,-4.6415195465,0.122319875922,-0.381880895279,-0.849843477917,0.167355209589,-0.36008772254,-0.337198495865,-0.40207265,0.2745862,11.22861425,-15.4139947891,-15.3038158417,0.42292663455,0.174582958221,-0.23505371809,-0.253942936659,-0.5,-464.151947021,-33.9043388367,172.508071899,7.29418563843,-2.2951240539999986,30.279841423,16.012677424299874,0.24576964974400198,-4.6415195465
2018-07-18 20:40:13.000,0.122319875922,-0.381880895279,-0.849843477917,0.167355209589,-0.36008772254,-0.337198495865,-0.40207265,0.2745862,11.22861425,-16.5202445984,-13.1967334747,0.0950353890657,0.167355209589,-0.36008772254,-0.337198495865,-0.659999966621,-455.761535645,-29.8145446777,174.508071899,6.534186363219999,-2.3051261901999993,29.5173549652,16.378131144399873,0.13860760629200197,-4.5576152802,0.122319875922,-0.381880895279,-0.849843477917,0.167355209589,-0.36008772254,-0.337198495865,-0.40207265,0.2745862,11.22861425,-16.5202445984,-13.1967334747,0.0950353890657,0.167355209589,-0.36008772254,-0.337198495865,-0.659999966621,-455.761535645,-29.8145446777,174.508071899,6.534186363219999,-2.3051261901999993,29.5173549652,16.378131144399873,0.13860760629200197,-4.5576152802
2018-07-18 20:40:13.050,0.122319875922,-0.381880895279,-0.849843477917,0.167355209589,-0.36008772254,-0.337198495865,-0.40207265,0.2745862,11.22861425,-16.5202445984,-13.1967334747,0.0950353890657,0.167355209589,-0.36008772254,-0.337198495865,-0.659999966621,-455.761535645,-29.8145446777,174.508071899,5.59418582916,-2.2951240539999986,28.8477430344,16.669514887699872,0.09782368689780195,-4.5576152802,0.122319875922,-0.381880895279,-0.849843477917,0.167355209589,-0.36008772254,-0.337198495865,-0.40207265,0.2745862,11.22861425,-16.5202445984,-13.1967334747,0.0950353890657,0.167355209589,-0.36008772254,-0.337198495865,-0.659999966621,-455.761535645,-29.8145446777,174.508071899,5.59418582916,-2.2951240539999986,28.8477430344,16.669514887699872,0.09782368689780195,-4.5576152802
2018-07-18 20:40:13.100,0.122319875922,-0.381880895279,-0.849843477917,0.167355209589,-0.36008772254,-0.337198495865,-0.40207265,0.2745862,11.22861425,-16.5202445984,-13.1967334747,0.0950353890657,0.167355209589,-0.36008772254,-0.337198495865,-0.659999966621,-455.761535645,-29.8145446777,174.508071899,5.59418582916,-2.2951240539999986,28.665912628199997,16.748048060299872,0.11043035984000196,-4.5576152802,0.122319875922,-0.381880895279,-0.849843477917,0.167355209589,-0.36008772254,-0.337198495865,-0.40207265,0.2745862,11.22861425,-16.5202445984,-13.1967334747,0.0950353890657,0.167355209589,-0.36008772254,-0.337198495865,-0.659999966621,-455.761535645,-29.8145446777,174.508071899,5.59418582916,-2.2951240539999986,28.665912628199997,16.748048060299872,0.11043035984000196,-4.5576152802
2018-07-18 20:40:13.150,0.0876814930716,-0.385916753925,-0.879141417741,-0.0849935784936,-0.308204859495,-0.395004987717,-0.73549875,0.5295591,13.44491715,-16.5202445984,-13.1967334747,0.0950353890657,0.167355209589,-0.36008772254,-0.337198495865,-0.729999959469,-465.277862549,-27.7827777863,175.508071899,5.5841856002800005,-2.285125732499999,27.9543409348,17.022162669099874,0.11146298050900195,-4.652778625500002,0.0876814930716,-0.385916753925,-0.879141417741,-0.0849935784936,-0.308204859495,-0.395004987717,-0.73549875,0.5295591,13.44491715,-16.5202445984,-13.1967334747,0.0950353890657,0.167355209589,-0.36008772254,-0.337198495865,-0.729999959469,-465.277862549,-27.7827777863,175.508071899,5.5841856002800005,-2.285125732499999,27.9543409348,17.022162669099874,0.11146298050900195,-4.652778625500002
2018-07-18 20:40:13.200,0.0876814930716,-0.385916753925,-0.879141417741,-0.0849935784936,-0.308204859495,-0.395004987717,-0.73549875,0.5295591,13.44491715,-16.5202445984,-13.1967334747,0.0950353890657,0.167355209589,-0.36008772254,-0.337198495865,-0.799999952316,-476.651763916,-25.7839927673,166.35682678199998,6.110793113710001,-1.6258888244000005,27.407543182399998,17.222144358499875,0.12952786684000198,-4.7665176392,0.0876814930716,-0.385916753925,-0.879141417741,-0.0849935784936,-0.308204859495,-0.395004987717,-0.73549875,0.5295591,13.44491715,-16.5202445984,-13.1967334747,0.0950353890657,0.167355209589,-0.36008772254,-0.337198495865,-0.799999952316,-476.651763916,-25.7839927673,166.35682678199998,6.110793113710001,-1.6258888244000005,27.407543182399998,17.222144358499875,0.12952786684000198,-4.7665176392
2018-07-18 20:40:13.250,0.0876814930716,-0.385916753925,-0.879141417741,-0.0849935784936,-0.308204859495,-0.395004987717,-0.73549875,0.5295591,13.44491715,-17.2896080017,-11.215886116,0.144947439432,-0.0849935784936,-0.308204859495,-0.395004987717,-0.799999952316,-476.651763916,-25.7839927673,166.35682678199998,7.38079357152,-1.615890502899994,26.8204631805,17.420127146599874,0.16606409847700196,-4.7665176392,0.0876814930716,-0.385916753925,-0.879141417741,-0.0849935784936,-0.308204859495,-0.395004987717,-0.73549875,0.5295591,13.44491715,-17.2896080017,-11.215886116,0.144947439432,-0.0849935784936,-0.308204859495,-0.395004987717,-0.799999952316,-476.651763916,-25.7839927673,166.35682678199998,7.38079357152,-1.615890502899994,26.8204631805,17.420127146599874,0.16606409847700196,-4.7665176392
2018-07-18 20:40:13.300,0.0876814930716,-0.385916753925,-0.879141417741,-0.0849935784936,-0.308204859495,-0.395004987717,-0.73549875,0.5295591,13.44491715,-17.2896080017,-11.215886116,0.144947439432,-0.0849935784936,-0.308204859495,-0.395004987717,-0.879999995232,-483.75970459,-23.8196525574,167.35682678199998,7.810792923020001,-1.615890502899994,26.6266355515,17.478881113899874,0.17655570805100196,-4.837596893299999,0.0876814930716,-0.385916753925,-0.879141417741,-0.0849935784936,-0.308204859495,-0.395004987717,-0.73549875,0.5295591,13.44491715,-17.2896080017,-11.215886116,0.144947439432,-0.0849935784936,-0.308204859495,-0.395004987717,-0.879999995232,-483.75970459,-23.8196525574,167.35682678199998,7.810792923020001,-1.615890502899994,26.6266355515,17.478881113899874,0.17655570805100196,-4.837596893299999
2018-07-18 20:40:13.350,0.0876814930716,-0.385916753925,-0.879141417741,-0.0849935784936,-0.308204859495,-0.395004987717,-0.73549875,0.5295591,13.44491715,-17.2896080017,-11.215886116,0.144947439432,-0.0849935784936,-0.308204859495,-0.395004987717,-0.879999995232,-483.75970459,-23.8196525574,167.35682678199998,7.810792923020001,-1.615890502899994,26.6266355515,17.478881113899874,0.17655570805100196,-4.837596893299999,0.0876814930716,-0.385916753925,-0.879141417741,-0.0849935784936,-0.308204859495,-0.395004987717,-0.73549875,0.5295591,13.44491715,-17.2896080017,-11.215886116,0.144947439432,-0.0849935784936,-0.308204859495,-0.395004987717,-0.879999995232,-483.75970459,-23.8196525574,167.35682678199998,7.810792923020001,-1.615890502899994,26.6266355515,17.478881113899874,0.17655570805100196,-4.837596893299999
2018-07-18 20:40:13.400,0.0876814930716,-0.385916753925,-0.879141417741,-0.0849935784936,-0.308204859495,-0.395004987717,-0.73549875,0.5295591,13.44491715,-17.2896080017,-11.215886116,0.144947439432,-0.0849935784936,-0.308204859495,-0.395004987717,-0.969999969006,-475.483520508,-21.8722839355,168.35682678199998,7.25079345702,-1.6058883667000003,25.72342967987,17.718297236299875,0.19967694580600198,-4.7548351288,0.0876814930716,-0.385916753925,-0.879141417741,-0.0849935784936,-0.308204859495,-0.395004987717,-0.73549875,0.5295591,13.44491715,-17.2896080017,-11.215886116,0.144947439432,-0.0849935784936,-0.308204859495,-0.395004987717,-0.969999969006,-475.483520508,-21.8722839355,168.35682678199998,7.25079345702,-1.6058883667000003,25.72342967987,17.718297236299875,0.19967694580600198,-4.7548351288
2018-07-18 20:40:13.450,0.0876814930716,-0.385916753925,-0.879141417741,-0.0849935784936,-0.308204859495,-0.395004987717,-0.73549875,0.5295591,13.44491715,-17.2896080017,-11.215886116,0.144947439432,-0.0849935784936,-0.308204859495,-0.395004987717,-0.969999969006,-475.483520508,-21.8722839355,168.35682678199998,7.25079345702,-1.6058883667000003,25.72342967987,17.718297236299875,0.19967694580600198,-4.7548351288,0.0876814930716,-0.385916753925,-0.879141417741,-0.0849935784936,-0.308204859495,-0.395004987717,-0.73549875,0.5295591,13.44491715,-17.2896080017,-11.215886116,0.144947439432,-0.0849935784936,-0.308204859495,-0.395004987717,-0.969999969006,-475.483520508,-21.8722839355,168.35682678199998,7.25079345702,-1.6058883667000003,25.72342967987,17.718297236299875,0.19967694580600198,-4.7548351288
2018-07-18 20:40:13.500,0.0876814930716,-0.385916753925,-0.879141417741,-0.0849935784936,-0.308204859495,-0.395004987717,-0.73549875,0.5295591,13.44491715,-17.8616638184,-9.03115367889,0.156442418694,-0.0849935784936,-0.308204859495,-0.395004987717,-1.06999993324,-456.884399414,-20.0034542084,170.35682678199998,7.22079372402,-1.595890045099999,24.86209106445,17.889008753699873,0.14127729833100197,-4.5688438416,0.0876814930716,-0.385916753925,-0.879141417741,-0.0849935784936,-0.308204859495,-0.395004987717,-0.73549875,0.5295591,13.44491715,-17.8616638184,-9.03115367889,0.156442418694,-0.0849935784936,-0.308204859495,-0.395004987717,-1.06999993324,-456.884399414,-20.0034542084,170.35682678199998,7.22079372402,-1.595890045099999,24.86209106445,17.889008753699873,0.14127729833100197,-4.5688438416
2018-07-18 20:40:13.550,0.0876814930716,-0.385916753925,-0.879141417741,-0.0849935784936,-0.308204859495,-0.395004987717,-0.73549875,0.5295591,13.44491715,-17.8616638184,-9.03115367889,0.156442418694,-0.0849935784936,-0.308204859495,-0.395004987717,-1.06999993324,-456.884399414,-20.0034542084,170.35682678199998,7.120793342620001,-1.595890045099999,24.26078796387,17.961657755699875,0.03017568960790196,-4.5688438416,0.0876814930716,-0.385916753925,-0.879141417741,-0.0849935784936,-0.308204859495,-0.395004987717,-0.73549875,0.5295591,13.44491715,-17.8616638184,-9.03115367889,0.156442418694,-0.0849935784936,-0.308204859495,-0.395004987717,-1.06999993324,-456.884399414,-20.0034542084,170.35682678199998,7.120793342620001,-1.595890045099999,24.26078796387,17.961657755699875,0.03017568960790196,-4.5688438416
2018-07-18 20:40:13.600,0.0443368372279,-0.369725363734,-0.915133853634,-0.0716041922569,-0.349158763885,-0.334518820047,-0.87279185,-0.30400615,11.73856005,-17.8616638184,-9.03115367889,0.156442418694,-0.0849935784936,-0.308204859495,-0.395004987717,-1.14999997616,-422.000488281,-18.1564998627,171.35682678199998,6.67079353333,-1.595890045099999,24.0949754715,17.982819788799873,0.014272042550101961,-4.2200050354,0.0443368372279,-0.369725363734,-0.915133853634,-0.0716041922569,-0.349158763885,-0.334518820047,-0.87279185,-0.30400615,11.73856005,-17.8616638184,-9.03115367889,0.156442418694,-0.0849935784936,-0.308204859495,-0.395004987717,-1.14999997616,-422.000488281,-18.1564998627,171.35682678199998,6.67079353333,-1.595890045099999,24.0949754715,17.982819788799873,0.014272042550101961,-4.2200050354
2018-07-18 20:40:13.650,0.0443368372279,-0.369725363734,-0.915133853634,-0.0716041922569,-0.349158763885,-0.334518820047,-0.87279185,-0.30400615,11.73856005,-17.8616638184,-9.03115367889,0.156442418694,-0.0849935784936,-0.308204859495,-0.395004987717,-1.14999997616,-422.000488281,-18.1564998627,157.404129028,7.4337302446399995,1.268592834499998,24.0949754715,17.982819788799873,0.014272042550101961,-4.2200050354,0.0443368372279,-0.369725363734,-0.915133853634,-0.0716041922569,-0.349158763885,-0.334518820047,-0.87279185,-0.30400615,11.73856005,-17.8616638184,-9.03115367889,0.156442418694,-0.0849935784936,-0.308204859495,-0.395004987717,-1.14999997616,-422.000488281,-18.1564998627,157.404129028,7.4337302446399995,1.268592834499998,24.0949754715,17.982819788799873,0.014272042550101961,-4.2200050354
2018-07-18 20:40:13.700,0.0443368372279,-0.369725363734,-0.915133853634,-0.0716041922569,-0.349158763885,-0.334518820047,-0.87279185,-0.30400615,11.73856005,-17.8616638184,-9.03115367889,0.156442418694,-0.0849935784936,-0.308204859495,-0.395004987717,-1.23000001907,-422.138977051,-16.3104076385,158.404129028,7.22373020649,1.268592834499998,23.19034719467,18.090174906599874,0.08586595207450196,-4.2213897705,0.0443368372279,-0.369725363734,-0.915133853634,-0.0716041922569,-0.349158763885,-0.334518820047,-0.87279185,-0.30400615,11.73856005,-17.8616638184,-9.03115367889,0.156442418694,-0.0849935784936,-0.308204859495,-0.395004987717,-1.23000001907,-422.138977051,-16.3104076385,158.404129028,7.22373020649,1.268592834499998,23.19034719467,18.090174906599874,0.08586595207450196,-4.2213897705
2018-07-18 20:40:13.750,0.0443368372279,-0.369725363734,-0.915133853634,-0.0716041922569,-0.349158763885,-0.334518820047,-0.87279185,-0.30400615,11.73856005,-18.1686973572,-6.39759731293,0.210587263107,-0.0716041922569,-0.349158763885,-0.334518820047,-1.23000001907,-422.138977051,-16.3104076385,158.404129028,7.22373020649,1.268592834499998,23.19034719467,18.090174906599874,0.08586595207450196,-4.2213897705,0.0443368372279,-0.369725363734,-0.915133853634,-0.0716041922569,-0.349158763885,-0.334518820047,-0.87279185,-0.30400615,11.73856005,-18.1686973572,-6.39759731293,0.210587263107,-0.0716041922569,-0.349158763885,-0.334518820047,-1.23000001907,-422.138977051,-16.3104076385,158.404129028,7.22373020649,1.268592834499998,23.19034719467,18.090174906599874,0.08586595207450196,-4.2213897705
2018-07-18 20:40:13.800,0.0443368372279,-0.369725363734,-0.915133853634,-0.0716041922569,-0.349158763885,-0.334518820047,-0.87279185,-0.30400615,11.73856005,-18.1686973572,-6.39759731293,0.210587263107,-0.0716041922569,-0.349158763885,-0.334518820047,-1.32999992371,-431.838043213,-14.5433483124,159.404129028,6.97373020649,1.2585945128999967,22.18833684921,18.188676112099873,0.24907276034400197,-4.318380355799999,0.0443368372279,-0.369725363734,-0.915133853634,-0.0716041922569,-0.349158763885,-0.334518820047,-0.87279185,-0.30400615,11.73856005,-18.1686973572,-6.39759731293,0.210587263107,-0.0716041922569,-0.349158763885,-0.334518820047,-1.32999992371,-431.838043213,-14.5433483124,159.404129028,6.97373020649,1.2585945128999967,22.18833684921,18.188676112099873,0.24907276034400197,-4.318380355799999
2018-07-18 20:40:13.850,0.0443368372279,-0.369725363734,-0.915133853634,-0.0716041922569,-0.349158763885,-0.334518820047,-0.87279185,-0.30400615,11.73856005,-18.1686973572,-6.39759731293,0.210587263107,-0.0716041922569,-0.349158763885,-0.334518820047,-1.32999992371,-431.838043213,-14.5433483124,159.404129028,6.82373058796,1.2585945128999967,21.540769577029998,18.239566080899873,0.37522789835900194,-4.318380355799999,0.0443368372279,-0.369725363734,-0.915133853634,-0.0716041922569,-0.349158763885,-0.334518820047,-0.87279185,-0.30400615,11.73856005,-18.1686973572,-6.39759731293,0.210587263107,-0.0716041922569,-0.349158763885,-0.334518820047,-1.32999992371,-431.838043213,-14.5433483124,159.404129028,6.82373058796,1.2585945128999967,21.540769577029998,18.239566080899873,0.37522789835900194,-4.318380355799999
2018-07-18 20:40:13.900,0.0443368372279,-0.369725363734,-0.915133853634,-0.0716041922569,-0.349158763885,-0.334518820047,-0.87279185,-0.30400615,11.73856005,-18.1686973572,-6.39759731293,0.210587263107,-0.0716041922569,-0.349158763885,-0.334518820047,-1.43999993801,-441.622161865,-12.7926235199,160.404129028,6.64373028278,1.2585945128999967,20.89649915695,18.259017222299875,0.4823922216890019,-4.4162216187,0.0443368372279,-0.369725363734,-0.915133853634,-0.0716041922569,-0.349158763885,-0.334518820047,-0.87279185,-0.30400615,11.73856005,-18.1686973572,-6.39759731293,0.210587263107,-0.0716041922569,-0.349158763885,-0.334518820047,-1.43999993801,-441.622161865,-12.7926235199,160.404129028,6.64373028278,1.2585945128999967,20.89649915695,18.259017222299875,0.4823922216890019,-4.4162216187
2018-07-18 20:40:13.950,0.0136114511374,-0.374385868431,-0.923247077207,0.0492161475122,-0.333109855652,-0.292310625315,-0.53936575,0.46091255,14.8472681,-18.1686973572,-6.39759731293,0.210587263107,-0.0716041922569,-0.349158763885,-0.334518820047,-1.43999993801,-441.622161865,-12.7926235199,160.404129028,6.64373028278,1.2585945128999967,20.89649915695,18.259017222299875,0.4823922216890019,-4.4162216187,0.0136114511374,-0.374385868431,-0.923247077207,0.0492161475122,-0.333109855652,-0.292310625315,-0.53936575,0.46091255,14.8472681,-18.1686973572,-6.39759731293,0.210587263107,-0.0716041922569,-0.349158763885,-0.334518820047,-1.43999993801,-441.622161865,-12.7926235199,160.404129028,6.64373028278,1.2585945128999967,20.89649915695,18.259017222299875,0.4823922216890019,-4.4162216187
2018-07-18 20:40:14.000,0.0136114511374,-0.374385868431,-0.923247077207,0.0492161475122,-0.333109855652,-0.292310625315,-0.53936575,0.46091255,14.8472681,-18.2541427612,-4.07533454895,0.57696813345,0.0492161475122,-0.333109855652,-0.292310625315,-1.56999993324,-443.984039307,-11.1021080017,152.6541748047,6.00283813477,0.991172790499995,20.07533454895,18.254147761199874,0.576968133450002,-4.439840316800002,0.0136114511374,-0.374385868431,-0.923247077207,0.0492161475122,-0.333109855652,-0.292310625315,-0.53936575,0.46091255,14.8472681,-18.2541427612,-4.07533454895,0.57696813345,0.0492161475122,-0.333109855652,-0.292310625315,-1.56999993324,-443.984039307,-11.1021080017,152.6541748047,6.00283813477,0.991172790499995,20.07533454895,18.254147761199874,0.576968133450002,-4.439840316800002
2018-07-18 20:40:14.050,0.0136114511374,-0.374385868431,-0.923247077207,0.0492161475122,-0.333109855652,-0.292310625315,-0.53936575,0.46091255,14.8472681,-18.2541427612,-4.07533454895,0.57696813345,0.0492161475122,-0.333109855652,-0.292310625315,-1.56999993324,-443.984039307,-11.1021080017,152.6541748047,5.95283794403,0.9811706543000014,20.07533454895,18.254147761199874,0.576968133450002,-4.439840316800002,0.0136114511374,-0.374385868431,-0.923247077207,0.0492161475122,-0.333109855652,-0.292310625315,-0.53936575,0.46091255,14.8472681,-18.2541427612,-4.07533454895,0.57696813345,0.0492161475122,-0.333109855652,-0.292310625315,-1.56999993324,-443.984039307,-11.1021080017,152.6541748047,5.95283794403,0.9811706543000014,20.07533454895,18.254147761199874,0.576968133450002,-4.439840316800002
2018-07-18 20:40:14.100,0.0136114511374,-0.374385868431,-0.923247077207,0.0492161475122,-0.333109855652,-0.292310625315,-0.53936575,0.46091255,14.8472681,-18.2541427612,-4.07533454895,0.57696813345,0.0492161475122,-0.333109855652,-0.292310625315,-1.7199999094,-432.722473145,-9.44849014282,154.6541748047,5.712837696079999,0.9711723327999948,18.89698028564,18.182444804099873,0.664044916630002,-4.327224731400001,0.0136114511374,-0.374385868431,-0.923247077207,0.0492161475122,-0.333109855652,-0.292310625315,-0.53936575,0.46091255,14.8472681,-18.2541427612,-4.07533454895,0.57696813345,0.0492161475122,-0.333109855652,-0.292310625315,-1.7199999094,-432.722473145,-9.44849014282,154.6541748047,5.712837696079999,0.9711723327999948,18.89698028564,18.182444804099873,0.664044916630002,-4.327224731400001
2018-07-18 20:40:14.150,0.0136114511374,-0.374385868431,-0.923247077207,0.0492161475122,-0.333109855652,-0.292310625315,-0.53936575,0.46091255,14.8472681,-18.2541427612,-4.07533454895,0.57696813345,0.0492161475122,-0.333109855652,-0.292310625315,-1.7199999094,-432.722473145,-9.44849014282,154.6541748047,5.712837696079999,0.9611701964999995,18.53206777573,18.142344706399875,0.671001791954002,-4.327224731400001,0.0136114511374,-0.374385868431,-0.923247077207,0.0492161475122,-0.333109855652,-0.292310625315,-0.53936575,0.46091255,14.8472681,-18.2541427612,-4.07533454895,0.57696813345,0.0492161475122,-0.333109855652,-0.292310625315,-1.7199999094,-432.722473145,-9.44849014282,154.6541748047,5.712837696079999,0.9611701964999995,18.53206777573,18.142344706399875,0.671001791954002,-4.327224731400001
2018-07-18 20:40:14.200,0.0136114511374,-0.374385868431,-0.923247077207,0.0492161475122,-0.333109855652,-0.292310625315,-0.53936575,0.46091255,14.8472681,-18.047706604,-1.82870125771,0.674954473972,0.0492161475122,-0.333109855652,-0.292310625315,-1.87999999523,-410.271453857,-7.83642196655,155.6541748047,5.32283782959,0.9611701964999995,18.17910337448,18.097514384199872,0.672999024391002,-4.102714538600001,0.0136114511374,-0.374385868431,-0.923247077207,0.0492161475122,-0.333109855652,-0.292310625315,-0.53936575,0.46091255,14.8472681,-18.047706604,-1.82870125771,0.674954473972,0.0492161475122,-0.333109855652,-0.292310625315,-1.87999999523,-410.271453857,-7.83642196655,155.6541748047,5.32283782959,0.9611701964999995,18.17910337448,18.097514384199872,0.672999024391002,-4.102714538600001
2018-07-18 20:40:14.250,0.0136114511374,-0.374385868431,-0.923247077207,0.0492161475122,-0.333109855652,-0.292310625315,-0.53936575,0.46091255,14.8472681,-18.047706604,-1.82870125771,0.674954473972,0.0492161475122,-0.333109855652,-0.292310625315,-1.87999999523,-410.271453857,-7.83642196655,155.6541748047,5.32283782959,0.9611701964999995,18.17910337448,18.097514384199872,0.672999024391002,-4.102714538600001,0.0136114511374,-0.374385868431,-0.923247077207,0.0492161475122,-0.333109855652,-0.292310625315,-0.53936575,0.46091255,14.8472681,-18.047706604,-1.82870125771,0.674954473972,0.0492161475122,-0.333109855652,-0.292310625315,-1.87999999523,-410.271453857,-7.83642196655,155.6541748047,5.32283782959,0.9611701964999995,18.17910337448,18.097514384199872,0.672999024391002,-4.102714538600001
2018-07-18 20:40:14.300,0.0136114511374,-0.374385868431,-0.923247077207,0.0492161475122,-0.333109855652,-0.292310625315,-0.53936575,0.46091255,14.8472681,-18.047706604,-1.82870125771,0.674954473972,0.0492161475122,-0.333109855652,-0.292310625315,-1.87999999523,-410.271453857,-7.83642196655,155.6541748047,5.32283782959,0.951171875,17.65434968472,18.013888590699874,0.676995337009002,-4.102714538600001,0.0136114511374,-0.374385868431,-0.923247077207,0.0492161475122,-0.333109855652,-0.292310625315,-0.53936575,0.46091255,14.8472681,-18.047706604,-1.82870125771,0.674954473972,0.0492161475122,-0.333109855652,-0.292310625315,-1.87999999523,-410.271453857,-7.83642196655,155.6541748047,5.32283782959,0.951171875,17.65434968472,18.013888590699874,0.676995337009002,-4.102714538600001
2018-07-18 20:40:14.350,0.0136114511374,-0.374385868431,-0.923247077207,0.0492161475122,-0.333109855652,-0.292310625315,-0.53936575,0.46091255,14.8472681,-18.047706604,-1.82870125771,0.674954473972,0.0492161475122,-0.333109855652,-0.292310625315,-2.03999996185,-387.871154785,-6.26964187622,156.6541748047,4.712837696079999,0.9411697387999993,16.781944274902,17.835009806499873,0.699665427208002,-3.8787117004000002,0.0136114511374,-0.374385868431,-0.923247077207,0.0492161475122,-0.333109855652,-0.292310625315,-0.53936575,0.46091255,14.8472681,-18.047706604,-1.82870125771,0.674954473972,0.0492161475122,-0.333109855652,-0.292310625315,-2.03999996185,-387.871154785,-6.26964187622,156.6541748047,4.712837696079999,0.9411697387999993,16.781944274902,17.835009806499873,0.699665427208002,-3.8787117004000002
2018-07-18 20:40:14.400,-0.0322261520946,-0.369277406868,-0.928760122557,-0.101741448045,-0.269193023443,-0.305620700121,-0.6472389,-0.2157463,13.1016844,-18.047706604,-1.82870125771,0.674954473972,0.0492161475122,-0.333109855652,-0.292310625315,-2.03999996185,-387.871154785,-6.26964187622,156.6541748047,4.712837696079999,0.9411697387999993,16.781944274902,17.835009806499873,0.699665427208002,-3.8787117004000002,-0.0322261520946,-0.369277406868,-0.928760122557,-0.101741448045,-0.269193023443,-0.305620700121,-0.6472389,-0.2157463,13.1016844,-18.047706604,-1.82870125771,0.674954473972,0.0492161475122,-0.333109855652,-0.292310625315,-2.03999996185,-387.871154785,-6.26964187622,156.6541748047,4.712837696079999,0.9411697387999993,16.781944274902,17.835009806499873,0.699665427208002,-3.8787117004000002
2018-07-18 20:40:14.450,-0.0322261520946,-0.369277406868,-0.928760122557,-0.101741448045,-0.269193023443,-0.305620700121,-0.6472389,-0.2157463,13.1016844,-18.047706604,-1.82870125771,0.674954473972,0.0492161475122,-0.333109855652,-0.292310625315,-2.20000004768,-374.143615723,-4.74094390869,146.5747146606,2.90165567398,1.501800537100003,15.99908240721561,17.634640925299873,0.647719860077002,-3.7414360046000006,-0.0322261520946,-0.369277406868,-0.928760122557,-0.101741448045,-0.269193023443,-0.305620700121,-0.6472389,-0.2157463,13.1016844,-18.047706604,-1.82870125771,0.674954473972,0.0492161475122,-0.333109855652,-0.292310625315,-2.20000004768,-374.143615723,-4.74094390869,146.5747146606,2.90165567398,1.501800537100003,15.99908240721561,17.634640925299873,0.647719860077002,-3.7414360046000006
2018-07-18 20:40:14.500,-0.0322261520946,-0.369277406868,-0.928760122557,-0.101741448045,-0.269193023443,-0.305620700121,-0.6472389,-0.2157463,13.1016844,-17.5906257629,0.143636241555,0.638644695282,-0.101741448045,-0.269193023443,-0.305620700121,-2.3599998951,-354.066467285,-3.27074050903,148.5747146606,2.26165580749,1.501800537100003,15.706827074289,17.543332331499872,0.620535135269002,-3.5406646729,-0.0322261520946,-0.369277406868,-0.928760122557,-0.101741448045,-0.269193023443,-0.305620700121,-0.6472389,-0.2157463,13.1016844,-17.5906257629,0.143636241555,0.638644695282,-0.101741448045,-0.269193023443,-0.305620700121,-2.3599998951,-354.066467285,-3.27074050903,148.5747146606,2.26165580749,1.501800537100003,15.706827074289,17.543332331499872,0.620535135269002,-3.5406646729
2018-07-18 20:40:14.550,-0.0322261520946,-0.369277406868,-0.928760122557,-0.101741448045,-0.269193023443,-0.305620700121,-0.6472389,-0.2157463,13.1016844,-17.5906257629,0.143636241555,0.638644695282,-0.101741448045,-0.269193023443,-0.305620700121,-2.3599998951,-354.066467285,-3.27074050903,148.5747146606,1.9716558456399995,1.5218009948999978,15.706827074289,17.543332331499872,0.620535135269002,-3.5406646729,-0.0322261520946,-0.369277406868,-0.928760122557,-0.101741448045,-0.269193023443,-0.305620700121,-0.6472389,-0.2157463,13.1016844,-17.5906257629,0.143636241555,0.638644695282,-0.101741448045,-0.269193023443,-0.305620700121,-2.3599998951,-354.066467285,-3.27074050903,148.5747146606,1.9716558456399995,1.5218009948999978,15.706827074289,17.543332331499872,0.620535135269002,-3.5406646729
2018-07-18 20:40:14.600,-0.0322261520946,-0.369277406868,-0.928760122557,-0.101741448045,-0.269193023443,-0.305620700121,-0.6472389,-0.2157463,13.1016844,-17.5906257629,0.143636241555,0.638644695282,-0.101741448045,-0.269193023443,-0.305620700121,-2.5,-324.80657959,-1.8210105896,149.5747146606,1.26165580749,1.5317993164000043,15.073943138123,17.320410960099874,0.513258278370002,-3.248065948499999,-0.0322261520946,-0.369277406868,-0.928760122557,-0.101741448045,-0.269193023443,-0.305620700121,-0.6472389,-0.2157463,13.1016844,-17.5906257629,0.143636241555,0.638644695282,-0.101741448045,-0.269193023443,-0.305620700121,-2.5,-324.80657959,-1.8210105896,149.5747146606,1.26165580749,1.5317993164000043,15.073943138123,17.320410960099874,0.513258278370002,-3.248065948499999
2018-07-18 20:40:14.650,-0.0322261520946,-0.369277406868,-0.928760122557,-0.101741448045,-0.269193023443,-0.305620700121,-0.6472389,-0.2157463,13.1016844,-17.5906257629,0.143636241555,0.638644695282,-0.101741448045,-0.269193023443,-0.305620700121,-2.5,-324.80657959,-1.8210105896,149.5747146606,1.1116557121299997,1.5517997741999991,14.70646595955,17.174741022899873,0.4453884363170019,-3.248065948499999,-0.0322261520946,-0.369277406868,-0.928760122557,-0.101741448045,-0.269193023443,-0.305620700121,-0.6472389,-0.2157463,13.1016844,-17.5906257629,0.143636241555,0.638644695282,-0.101741448045,-0.269193023443,-0.305620700121,-2.5,-324.80657959,-1.8210105896,149.5747146606,1.1116557121299997,1.5517997741999991,14.70646595955,17.174741022899873,0.4453884363170019,-3.248065948499999
2018-07-18 20:40:14.700,-0.0322261520946,-0.369277406868,-0.928760122557,-0.101741448045,-0.269193023443,-0.305620700121,-0.6472389,-0.2157463,13.1016844,-17.1206150055,1.41956460476,0.428334653378,-0.101741448045,-0.269193023443,-0.305620700121,-2.5,-324.80657959,-1.8210105896,149.5747146606,1.06165552139,1.5517997741999991,14.58043539524,17.120620005499873,0.4283346533780019,-3.248065948499999,-0.0322261520946,-0.369277406868,-0.928760122557,-0.101741448045,-0.269193023443,-0.305620700121,-0.6472389,-0.2157463,13.1016844,-17.1206150055,1.41956460476,0.428334653378,-0.101741448045,-0.269193023443,-0.305620700121,-2.5,-324.80657959,-1.8210105896,149.5747146606,1.06165552139,1.5517997741999991,14.58043539524,17.120620005499873,0.4283346533780019,-3.248065948499999
2018-07-18 20:40:14.750,-0.041022288863,-0.347021250089,-0.93342539215,-0.0570708289742,-0.16993381083,-0.454857230186,-0.7060788,0.79433865,10.87557485,-17.1206150055,1.41956460476,0.428334653378,-0.101741448045,-0.269193023443,-0.305620700121,-2.74000000954,-298.715576172,0.98526763916,142.6132507324,2.3652087450100003,4.087604522699998,14.08758437634,16.910014384199872,0.33369988203000195,-3.1454086303999986,-0.041022288863,-0.347021250089,-0.93342539215,-0.0570708289742,-0.16993381083,-0.454857230186,-0.7060788,0.79433865,10.87557485,-17.1206150055,1.41956460476,0.428334653378,-0.101741448045,-0.269193023443,-0.305620700121,-2.74000000954,-298.715576172,0.98526763916,142.6132507324,2.3652087450100003,4.087604522699998,14.08758437634,16.910014384199872,0.33369988203000195,-3.1454086303999986
2018-07-18 20:40:14.800,-0.041022288863,-0.347021250089,-0.93342539215,-0.0570708289742,-0.16993381083,-0.454857230186,-0.7060788,0.79433865,10.87557485,-17.1206150055,1.41956460476,0.428334653378,-0.101741448045,-0.269193023443,-0.305620700121,-2.74000000954,-298.715576172,0.98526763916,142.6132507324,1.9252086877899999,4.097602844299999,13.85094404221,16.803944819299872,0.26875132322300194,-2.9871559143000006,-0.041022288863,-0.347021250089,-0.93342539215,-0.0570708289742,-0.16993381083,-0.454857230186,-0.7060788,0.79433865,10.87557485,-17.1206150055,1.41956460476,0.428334653378,-0.101741448045,-0.269193023443,-0.305620700121,-2.74000000954,-298.715576172,0.98526763916,142.6132507324,1.9252086877899999,4.097602844299999,13.85094404221,16.803944819299872,0.26875132322300194,-2.9871559143000006
2018-07-18 20:40:14.850,-0.041022288863,-0.347021250089,-0.93342539215,-0.0570708289742,-0.16993381083,-0.454857230186,-0.7060788,0.79433865,10.87557485,-17.1206150055,1.41956460476,0.428334653378,-0.101741448045,-0.269193023443,-0.305620700121,-2.74000000954,-298.715576172,0.98526763916,142.6132507324,1.9252086877899999,4.097602844299999,13.61581158638,16.697400324699874,0.19163484871400197,-2.9871559143000006,-0.041022288863,-0.347021250089,-0.93342539215,-0.0570708289742,-0.16993381083,-0.454857230186,-0.7060788,0.79433865,10.87557485,-17.1206150055,1.41956460476,0.428334653378,-0.101741448045,-0.269193023443,-0.305620700121,-2.74000000954,-298.715576172,0.98526763916,142.6132507324,1.9252086877899999,4.097602844299999,13.61581158638,16.697400324699874,0.19163484871400197,-2.9871559143000006
2018-07-18 20:40:14.900,-0.041022288863,-0.347021250089,-0.93342539215,-0.0570708289742,-0.16993381083,-0.454857230186,-0.7060788,0.79433865,10.87557485,-17.1206150055,1.41956460476,0.428334653378,-0.101741448045,-0.269193023443,-0.305620700121,-2.81999993324,-282.18572998,2.3452835083,143.6132507324,1.49520862103,4.097602844299999,13.27257227898,16.524321787699872,0.08266413211820196,-2.8218574523999997,-0.041022288863,-0.347021250089,-0.93342539215,-0.0570708289742,-0.16993381083,-0.454857230186,-0.7060788,0.79433865,10.87557485,-17.1206150055,1.41956460476,0.428334653378,-0.101741448045,-0.269193023443,-0.305620700121,-2.81999993324,-282.18572998,2.3452835083,143.6132507324,1.49520862103,4.097602844299999,13.27257227898,16.524321787699872,0.08266413211820196,-2.8218574523999997
2018-07-18 20:40:14.950,-0.041022288863,-0.347021250089,-0.93342539215,-0.0570708289742,-0.16993381083,-0.454857230186,-0.7060788,0.79433865,10.87557485,-16.4090042114,2.96429872513,0.022505460307,-0.0570708289742,-0.16993381083,-0.454857230186,-2.81999993324,-282.18572998,2.3452835083,143.6132507324,1.04520881176,4.097602844299999,12.91634941101,16.350638621199874,-0.0039948765188480406,-2.8218574523999997,-0.041022288863,-0.347021250089,-0.93342539215,-0.0570708289742,-0.16993381083,-0.454857230186,-0.7060788,0.79433865,10.87557485,-16.4090042114,2.96429872513,0.022505460307,-0.0570708289742,-0.16993381083,-0.454857230186,-2.81999993324,-282.18572998,2.3452835083,143.6132507324,1.04520881176,4.097602844299999,12.91634941101,16.350638621199874,-0.0039948765188480406,-2.8218574523999997
2018-07-18 20:40:15.000,-0.041022288863,-0.347021250089,-0.93342539215,-0.0570708289742,-0.16993381083,-0.454857230186,-0.7060788,0.79433865,10.87557485,-16.4090042114,2.96429872513,0.022505460307,-0.0570708289742,-0.16993381083,-0.454857230186,-2.88999986649,-271.739013672,3.68450164795,144.6132507324,0.9652086496399999,4.097602844299999,12.672298908230001,16.234992258899872,-0.05435281619429804,-2.7173900603999996,-0.041022288863,-0.347021250089,-0.93342539215,-0.0570708289742,-0.16993381083,-0.454857230186,-0.7060788,0.79433865,10.87557485,-16.4090042114,2.96429872513,0.022505460307,-0.0570708289742,-0.16993381083,-0.454857230186,-2.88999986649,-271.739013672,3.68450164795,144.6132507324,0.9652086496399999,4.097602844299999,12.672298908230001,16.234992258899872,-0.05435281619429804,-2.7173900603999996
2018-07-18 20:40:15.050,-0.041022288863,-0.347021250089,-0.93342539215,-0.0570708289742,-0.16993381083,-0.454857230186,-0.7060788,0.79433865,10.87557485,-16.4090042114,2.96429872513,0.022505460307,-0.0570708289742,-0.16993381083,-0.454857230186,-2.88999986649,-271.739013672,3.68450164795,144.6132507324,0.8352087736199998,4.087604522699998,12.2920165062,16.051940195899874,-0.12278416752799805,-2.7173900603999996,-0.041022288863,-0.347021250089,-0.93342539215,-0.0570708289742,-0.16993381083,-0.454857230186,-0.7060788,0.79433865,10.87557485,-16.4090042114,2.96429872513,0.022505460307,-0.0570708289742,-0.16993381083,-0.454857230186,-2.88999986649,-271.739013672,3.68450164795,144.6132507324,0.8352087736199998,4.087604522699998,12.2920165062,16.051940195899874,-0.12278416752799805,-2.7173900603999996
2018-07-18 20:40:15.100,-0.0477105632824,-0.3587936376,-0.915559785624,0.209503397346,-0.230816304684,-0.418267756701,-0.4511059,0.79433865,11.03248125,-16.4090042114,2.96429872513,0.022505460307,-0.0570708289742,-0.16993381083,-0.454857230186,-2.9399998188,-270.894226074,4.96937561035,145.6132507324,0.87520873547,4.077602386499997,12.02763319016,15.918831103199874,-0.16614022850999802,-2.708942413300001,-0.0477105632824,-0.3587936376,-0.915559785624,0.209503397346,-0.230816304684,-0.418267756701,-0.4511059,0.79433865,11.03248125,-16.4090042114,2.96429872513,0.022505460307,-0.0570708289742,-0.16993381083,-0.454857230186,-2.9399998188,-270.894226074,4.96937561035,145.6132507324,0.87520873547,4.077602386499997,12.02763319016,15.918831103199874,-0.16614022850999802,-2.708942413300001
2018-07-18 20:40:15.150,-0.0477105632824,-0.3587936376,-0.915559785624,0.209503397346,-0.230816304684,-0.418267756701,-0.4511059,0.79433865,11.03248125,-15.7141437531,4.3689494133,-0.233084380627,0.209503397346,-0.230816304684,-0.418267756701,-2.9399998188,-270.894226074,4.96937561035,135.17270660399998,4.20367193222,2.5661582946999957,11.50267887115,15.646542780799873,-0.2626118063929981,-2.708942413300001,-0.0477105632824,-0.3587936376,-0.915559785624,0.209503397346,-0.230816304684,-0.418267756701,-0.4511059,0.79433865,11.03248125,-15.7141437531,4.3689494133,-0.233084380627,0.209503397346,-0.230816304684,-0.418267756701,-2.9399998188,-270.894226074,4.96937561035,135.17270660399998,4.20367193222,2.5661582946999957,11.50267887115,15.646542780799873,-0.2626118063929981,-2.708942413300001
2018-07-18 20:40:15.200,-0.0477105632824,-0.3587936376,-0.915559785624,0.209503397346,-0.230816304684,-0.418267756701,-0.4511059,0.79433865,11.03248125,-15.7141437531,4.3689494133,-0.233084380627,0.209503397346,-0.230816304684,-0.418267756701,-2.97000002861,-264.614105225,6.23038864136,137.17270660399998,4.22367191315,2.5561599730999944,11.50267887115,15.646542780799873,-0.2626118063929981,-2.708942413300001,-0.0477105632824,-0.3587936376,-0.915559785624,0.209503397346,-0.230816304684,-0.418267756701,-0.4511059,0.79433865,11.03248125,-15.7141437531,4.3689494133,-0.233084380627,0.209503397346,-0.230816304684,-0.418267756701,-2.97000002861,-264.614105225,6.23038864136,137.17270660399998,4.22367191315,2.5561599730999944,11.50267887115,15.646542780799873,-0.2626118063929981,-2.708942413300001
2018-07-18 20:40:15.250,-0.0477105632824,-0.3587936376,-0.915559785624,0.209503397346,-0.230816304684,-0.418267756701,-0.4511059,0.79433865,11.03248125,-15.7141437531,4.3689494133,-0.233084380627,0.209503397346,-0.230816304684,-0.418267756701,-2.97000002861,-264.614105225,6.23038864136,137.17270660399998,4.22367191315,2.5561599730999944,11.122438907620001,15.441202395299873,-0.35904300212899803,-2.646141052200001,-0.0477105632824,-0.3587936376,-0.915559785624,0.209503397346,-0.230816304684,-0.418267756701,-0.4511059,0.79433865,11.03248125,-15.7141437531,4.3689494133,-0.233084380627,0.209503397346,-0.230816304684,-0.418267756701,-2.97000002861,-264.614105225,6.23038864136,137.17270660399998,4.22367191315,2.5561599730999944,11.122438907620001,15.441202395299873,-0.35904300212899803,-2.646141052200001
2018-07-18 20:40:15.300,-0.0477105632824,-0.3587936376,-0.915559785624,0.209503397346,-0.230816304684,-0.418267756701,-0.4511059,0.79433865,11.03248125,-15.7141437531,4.3689494133,-0.233084380627,0.209503397346,-0.230816304684,-0.418267756701,-2.98000001907,-255.978973389,7.44563674927,138.17270660399998,4.17367184162,2.5561599730999944,10.62161684036,15.140048258699874,-0.48015668988199806,-2.5597896575999997,-0.0477105632824,-0.3587936376,-0.915559785624,0.209503397346,-0.230816304684,-0.418267756701,-0.4511059,0.79433865,11.03248125,-15.7141437531,4.3689494133,-0.233084380627,0.209503397346,-0.230816304684,-0.418267756701,-2.98000001907,-255.978973389,7.44563674927,138.17270660399998,4.17367184162,2.5561599730999944,10.62161684036,15.140048258699874,-0.48015668988199806,-2.5597896575999997
2018-07-18 20:40:15.350,-0.0477105632824,-0.3587936376,-0.915559785624,0.209503397346,-0.230816304684,-0.418267756701,-0.4511059,0.79433865,11.03248125,-15.7141437531,4.3689494133,-0.233084380627,0.209503397346,-0.230816304684,-0.418267756701,-2.98000001907,-255.978973389,7.44563674927,138.17270660399998,4.17367184162,2.5561599730999944,10.368663310999999,14.984343760399874,-0.543385922908998,-2.5597896575999997,-0.0477105632824,-0.3587936376,-0.915559785624,0.209503397346,-0.230816304684,-0.418267756701,-0.4511059,0.79433865,11.03248125,-15.7141437531,4.3689494133,-0.233084380627,0.209503397346,-0.230816304684,-0.418267756701,-2.98000001907,-255.978973389,7.44563674927,138.17270660399998,4.17367184162,2.5561599730999944,10.368663310999999,14.984343760399874,-0.543385922908998,-2.5597896575999997
2018-07-18 20:40:15.400,-0.0477105632824,-0.3587936376,-0.915559785624,0.209503397346,-0.230816304684,-0.418267756701,-0.4511059,0.79433865,11.03248125,-14.8269109726,5.88080358505,-0.602317214012,0.209503397346,-0.230816304684,-0.418267756701,-2.97000002861,-256.195648193,8.63236999512,139.17270660399998,4.15367186069,2.5561599730999944,10.11919641495,14.826915972599874,-0.602317214011998,-2.5619564056,-0.0477105632824,-0.3587936376,-0.915559785624,0.209503397346,-0.230816304684,-0.418267756701,-0.4511059,0.79433865,11.03248125,-14.8269109726,5.88080358505,-0.602317214012,0.209503397346,-0.230816304684,-0.418267756701,-2.97000002861,-256.195648193,8.63236999512,139.17270660399998,4.15367186069,2.5561599730999944,10.11919641495,14.826915972599874,-0.602317214011998,-2.5619564056
2018-07-18 20:40:15.450,-0.0477105632824,-0.3587936376,-0.915559785624,0.209503397346,-0.230816304684,-0.418267756701,-0.4511059,0.79433865,11.03248125,-14.8269109726,5.88080358505,-0.602317214012,0.209503397346,-0.230816304684,-0.418267756701,-2.97000002861,-256.195648193,8.63236999512,139.17270660399998,4.15367186069,2.5561599730999944,9.72894191742,14.574344866599874,-0.684524118899998,-2.5619564056,-0.0477105632824,-0.3587936376,-0.915559785624,0.209503397346,-0.230816304684,-0.418267756701,-0.4511059,0.79433865,11.03248125,-14.8269109726,5.88080358505,-0.602317214012,0.209503397346,-0.230816304684,-0.418267756701,-2.97000002861,-256.195648193,8.63236999512,139.17270660399998,4.15367186069,2.5561599730999944,9.72894191742,14.574344866599874,-0.684524118899998,-2.5619564056
2018-07-18 20:40:15.500,-0.0750374019451,-0.364092676202,-0.89384201212,0.0772673264146,-0.300736784935,-0.262101352215,-0.51975245,0.7060788,10.9638347,-14.8269109726,5.88080358505,-0.602317214012,0.209503397346,-0.230816304684,-0.418267756701,-2.97000002861,-256.195648193,8.63236999512,139.17270660399998,4.16367185116,2.5561599730999944,9.60919952393,14.492029421699874,-0.705199182033998,-2.5619564056,-0.0750374019451,-0.364092676202,-0.89384201212,0.0772673264146,-0.300736784935,-0.262101352215,-0.51975245,0.7060788,10.9638347,-14.8269109726,5.88080358505,-0.602317214012,0.209503397346,-0.230816304684,-0.418267756701,-2.97000002861,-256.195648193,8.63236999512,139.17270660399998,4.16367185116,2.5561599730999944,9.60919952393,14.492029421699874,-0.705199182033998,-2.5619564056
2018-07-18 20:40:15.550,-0.0750374019451,-0.364092676202,-0.89384201212,0.0772673264146,-0.300736784935,-0.262101352215,-0.51975245,0.7060788,10.9638347,-14.8269109726,5.88080358505,-0.602317214012,0.209503397346,-0.230816304684,-0.418267756701,-2.97000002861,-256.195648193,8.63236999512,139.17270660399998,4.16367185116,2.5561599730999944,9.60919952393,14.492029421699874,-0.705199182033998,-2.5619564056,-0.0750374019451,-0.364092676202,-0.89384201212,0.0772673264146,-0.300736784935,-0.262101352215,-0.51975245,0.7060788,10.9638347,-14.8269109726,5.88080358505,-0.602317214012,0.209503397346,-0.230816304684,-0.418267756701,-2.97000002861,-256.195648193,8.63236999512,139.17270660399998,4.16367185116,2.5561599730999944,9.60919952393,14.492029421699874,-0.705199182033998,-2.5619564056
2018-07-18 20:40:15.600,-0.0750374019451,-0.364092676202,-0.89384201212,0.0772673264146,-0.300736784935,-0.262101352215,-0.51975245,0.7060788,10.9638347,-14.8269109726,5.88080358505,-0.602317214012,0.209503397346,-0.230816304684,-0.418267756701,-2.89999985695,-263.170623779,10.8986473083,131.7741012573,4.925096035,1.1740608214999995,8.79479598999,13.927815668899873,-0.788299739360998,-2.6317062377999996,-0.0750374019451,-0.364092676202,-0.89384201212,0.0772673264146,-0.300736784935,-0.262101352215,-0.51975245,0.7060788,10.9638347,-14.8269109726,5.88080358505,-0.602317214012,0.209503397346,-0.230816304684,-0.418267756701,-2.89999985695,-263.170623779,10.8986473083,131.7741012573,4.925096035,1.1740608214999995,8.79479598999,13.927815668899873,-0.788299739360998,-2.6317062377999996
2018-07-18 20:40:15.650,-0.0750374019451,-0.364092676202,-0.89384201212,0.0772673264146,-0.300736784935,-0.262101352215,-0.51975245,0.7060788,10.9638347,-13.6347446442,7.59665775299,-0.841333091259,0.0772673264146,-0.300736784935,-0.262101352215,-2.89999985695,-263.170623779,10.8986473083,131.7741012573,4.925096035,1.1740608214999995,8.53066968918,13.735343211099874,-0.820950686931998,-2.6317062377999996,-0.0750374019451,-0.364092676202,-0.89384201212,0.0772673264146,-0.300736784935,-0.262101352215,-0.51975245,0.7060788,10.9638347,-13.6347446442,7.59665775299,-0.841333091259,0.0772673264146,-0.300736784935,-0.262101352215,-2.89999985695,-263.170623779,10.8986473083,131.7741012573,4.925096035,1.1740608214999995,8.53066968918,13.735343211099874,-0.820950686931998,-2.6317062377999996
2018-07-18 20:40:15.700,-0.0750374019451,-0.364092676202,-0.89384201212,0.0772673264146,-0.300736784935,-0.262101352215,-0.51975245,0.7060788,10.9638347,-13.6347446442,7.59665775299,-0.841333091259,0.0772673264146,-0.300736784935,-0.262101352215,-2.84999990463,-259.388153076,11.9618644714,132.7741012573,5.03509616851,1.1740608214999995,8.15116834641,13.432370417499873,-0.882830083369998,-2.5938816070999984,-0.0750374019451,-0.364092676202,-0.89384201212,0.0772673264146,-0.300736784935,-0.262101352215,-0.51975245,0.7060788,10.9638347,-13.6347446442,7.59665775299,-0.841333091259,0.0772673264146,-0.300736784935,-0.262101352215,-2.84999990463,-259.388153076,11.9618644714,132.7741012573,5.03509616851,1.1740608214999995,8.15116834641,13.432370417499873,-0.882830083369998,-2.5938816070999984
2018-07-18 20:40:15.750,-0.0750374019451,-0.364092676202,-0.89384201212,0.0772673264146,-0.300736784935,-0.262101352215,-0.51975245,0.7060788,10.9638347,-13.6347446442,7.59665775299,-0.841333091259,0.0772673264146,-0.300736784935,-0.262101352215,-2.84999990463,-259.388153076,11.9618644714,132.7741012573,5.02509617805,1.1740608214999995,7.63659572601,13.012879603299874,-0.936210453509998,-2.5938816070999984,-0.0750374019451,-0.364092676202,-0.89384201212,0.0772673264146,-0.300736784935,-0.262101352215,-0.51975245,0.7060788,10.9638347,-13.6347446442,7.59665775299,-0.841333091259,0.0772673264146,-0.300736784935,-0.262101352215,-2.84999990463,-259.388153076,11.9618644714,132.7741012573,5.02509617805,1.1740608214999995,7.63659572601,13.012879603299874,-0.936210453509998,-2.5938816070999984
2018-07-18 20:40:15.800,-0.0750374019451,-0.364092676202,-0.89384201212,0.0772673264146,-0.300736784935,-0.262101352215,-0.51975245,0.7060788,10.9638347,-13.6347446442,7.59665775299,-0.841333091259,0.0772673264146,-0.300736784935,-0.262101352215,-2.77999997139,-266.839233398,12.9792404175,133.7741012573,5.02509617805,1.1740608214999995,7.63659572601,13.012879603299874,-0.936210453509998,-2.5938816070999984,-0.0750374019451,-0.364092676202,-0.89384201212,0.0772673264146,-0.300736784935,-0.262101352215,-0.51975245,0.7060788,10.9638347,-13.6347446442,7.59665775299,-0.841333091259,0.0772673264146,-0.300736784935,-0.262101352215,-2.77999997139,-266.839233398,12.9792404175,133.7741012573,5.02509617805,1.1740608214999995,7.63659572601,13.012879603299874,-0.936210453509998,-2.5938816070999984
2018-07-18 20:40:15.850,-0.0750374019451,-0.364092676202,-0.89384201212,0.0772673264146,-0.300736784935,-0.262101352215,-0.51975245,0.7060788,10.9638347,-12.4580764771,9.00833892822,-0.978213310242,0.0772673264146,-0.300736784935,-0.262101352215,-2.77999997139,-266.839233398,12.9792404175,133.7741012573,5.27509617805,1.1740608214999995,7.11684703827,12.573456042199874,-0.969188392161998,-2.6683921814000016,-0.0750374019451,-0.364092676202,-0.89384201212,0.0772673264146,-0.300736784935,-0.262101352215,-0.51975245,0.7060788,10.9638347,-12.4580764771,9.00833892822,-0.978213310242,0.0772673264146,-0.300736784935,-0.262101352215,-2.77999997139,-266.839233398,12.9792404175,133.7741012573,5.27509617805,1.1740608214999995,7.11684703827,12.573456042199874,-0.969188392161998,-2.6683921814000016
2018-07-18 20:40:15.900,-0.0750374019451,-0.364092676202,-0.89384201212,0.0772673264146,-0.300736784935,-0.262101352215,-0.51975245,0.7060788,10.9638347,-12.4580764771,9.00833892822,-0.978213310242,0.0772673264146,-0.300736784935,-0.262101352215,-2.71000003815,-271.089935303,13.9525527954,134.7741012573,5.53509616851,1.1740608214999995,6.87947940826,12.353551142599875,-0.994630396365998,-2.7108993529999985,-0.0750374019451,-0.364092676202,-0.89384201212,0.0772673264146,-0.300736784935,-0.262101352215,-0.51975245,0.7060788,10.9638347,-12.4580764771,9.00833892822,-0.978213310242,0.0772673264146,-0.300736784935,-0.262101352215,-2.71000003815,-271.089935303,13.9525527954,134.7741012573,5.53509616851,1.1740608214999995,6.87947940826,12.353551142599875,-0.994630396365998,-2.7108993529999985
2018-07-18 20:40:15.950,-0.116693596082,-0.361177806786,-0.863420369619,0.0354690179229,-0.280418455601,-0.344639897346,-0.2549729,0.55897905,11.81701325,-12.4580764771,9.00833892822,-0.978213310242,0.0772673264146,-0.300736784935,-0.262101352215,-2.71000003815,-271.089935303,13.9525527954,134.7741012573,5.53509616851,-4.055938720699999,6.64703369141,12.127418749699874,-1.040697455409998,-2.7108993529999985,-0.116693596082,-0.361177806786,-0.863420369619,0.0354690179229,-0.280418455601,-0.344639897346,-0.2549729,0.55897905,11.81701325,-12.4580764771,9.00833892822,-0.978213310242,0.0772673264146,-0.300736784935,-0.262101352215,-2.71000003815,-271.089935303,13.9525527954,134.7741012573,5.53509616851,-4.055938720699999,6.64703369141,12.127418749699874,-1.040697455409998,-2.7108993529999985
2018-07-18 20:40:16.000,-0.116693596082,-0.361177806786,-0.863420369619,0.0354690179229,-0.280418455601,-0.344639897346,-0.2549729,0.55897905,11.81701325,-12.4580764771,9.00833892822,-0.978213310242,0.0772673264146,-0.300736784935,-0.262101352215,-2.62999987602,-266.546264648,14.8837471008,125.80282974240001,5.06895589829,-8.2098197937,6.30749893188,11.791764490999874,-1.093170881269998,-2.6654624939000016,-0.116693596082,-0.361177806786,-0.863420369619,0.0354690179229,-0.280418455601,-0.344639897346,-0.2549729,0.55897905,11.81701325,-12.4580764771,9.00833892822,-0.978213310242,0.0772673264146,-0.300736784935,-0.262101352215,-2.62999987602,-266.546264648,14.8837471008,125.80282974240001,5.06895589829,-8.2098197937,6.30749893188,11.791764490999874,-1.093170881269998,-2.6654624939000016
2018-07-18 20:40:16.050,-0.116693596082,-0.361177806786,-0.863420369619,0.0354690179229,-0.280418455601,-0.344639897346,-0.2549729,0.55897905,11.81701325,-12.4580764771,9.00833892822,-0.978213310242,0.0772673264146,-0.300736784935,-0.262101352215,-2.62999987602,-266.546264648,14.8837471008,125.80282974240001,5.06895589829,-8.2098197937,6.30749893188,11.791764490999874,-1.093170881269998,-2.6654624939000016,-0.116693596082,-0.361177806786,-0.863420369619,0.0354690179229,-0.280418455601,-0.344639897346,-0.2549729,0.55897905,11.81701325,-12.4580764771,9.00833892822,-0.978213310242,0.0772673264146,-0.300736784935,-0.262101352215,-2.62999987602,-266.546264648,14.8837471008,125.80282974240001,5.06895589829,-8.2098197937,6.30749893188,11.791764490999874,-1.093170881269998,-2.6654624939000016
2018-07-18 20:40:16.100,-0.116693596082,-0.361177806786,-0.863420369619,0.0354690179229,-0.280418455601,-0.344639897346,-0.2549729,0.55897905,11.81701325,-12.4580764771,9.00833892822,-0.978213310242,0.0772673264146,-0.300736784935,-0.262101352215,-2.62999987602,-266.546264648,14.8837471008,125.80282974240001,5.04895591736,-15.939821243299999,5.8747596741,11.330888979799873,-1.158552408219998,-2.6654624939000016,-0.116693596082,-0.361177806786,-0.863420369619,0.0354690179229,-0.280418455601,-0.344639897346,-0.2549729,0.55897905,11.81701325,-12.4580764771,9.00833892822,-0.978213310242,0.0772673264146,-0.300736784935,-0.262101352215,-2.62999987602,-266.546264648,14.8837471008,125.80282974240001,5.04895591736,-15.939821243299999,5.8747596741,11.330888979799873,-1.158552408219998,-2.6654624939000016
2018-07-18 20:40:16.150,-0.116693596082,-0.361177806786,-0.863420369619,0.0354690179229,-0.280418455601,-0.344639897346,-0.2549729,0.55897905,11.81701325,-10.8435897827,10.5619335175,-1.19103503227,0.0354690179229,-0.280418455601,-0.344639897346,-2.62999987602,-266.546264648,14.8837471008,125.80282974240001,5.04895591736,-15.939821243299999,5.8747596741,11.330888979799873,-1.158552408219998,-2.6654624939000016,-0.116693596082,-0.361177806786,-0.863420369619,0.0354690179229,-0.280418455601,-0.344639897346,-0.2549729,0.55897905,11.81701325,-10.8435897827,10.5619335175,-1.19103503227,0.0354690179229,-0.280418455601,-0.344639897346,-2.62999987602,-266.546264648,14.8837471008,125.80282974240001,5.04895591736,-15.939821243299999,5.8747596741,11.330888979799873,-1.158552408219998,-2.6654624939000016
2018-07-18 20:40:16.200,-0.116693596082,-0.361177806786,-0.863420369619,0.0354690179229,-0.280418455601,-0.344639897346,-0.2549729,0.55897905,11.81701325,-10.8435897827,10.5619335175,-1.19103503227,0.0354690179229,-0.280418455601,-0.344639897346,-2.53999996185,-274.298858643,15.7569198608,126.80282974240001,5.188956022259999,-18.2298202515,5.325640678399999,10.716875307899874,-1.191082358359998,-2.742988586399999,-0.116693596082,-0.361177806786,-0.863420369619,0.0354690179229,-0.280418455601,-0.344639897346,-0.2549729,0.55897905,11.81701325,-10.8435897827,10.5619335175,-1.19103503227,0.0354690179229,-0.280418455601,-0.344639897346,-2.53999996185,-274.298858643,15.7569198608,126.80282974240001,5.188956022259999,-18.2298202515,5.325640678399999,10.716875307899874,-1.191082358359998,-2.742988586399999
2018-07-18 20:40:16.250,-0.116693596082,-0.361177806786,-0.863420369619,0.0354690179229,-0.280418455601,-0.344639897346,-0.2549729,0.55897905,11.81701325,-10.8435897827,10.5619335175,-1.19103503227,0.0354690179229,-0.280418455601,-0.344639897346,-2.44000005722,-279.333129883,16.6114997864,127.80282974240001,4.9289560318,-5.9398231507000006,4.803143501299999,10.092037432599874,-1.154316186899998,-2.7933311462,-0.116693596082,-0.361177806786,-0.863420369619,0.0354690179229,-0.280418455601,-0.344639897346,-0.2549729,0.55897905,11.81701325,-10.8435897827,10.5619335175,-1.19103503227,0.0354690179229,-0.280418455601,-0.344639897346,-2.44000005722,-279.333129883,16.6114997864,127.80282974240001,4.9289560318,-5.9398231507000006,4.803143501299999,10.092037432599874,-1.154316186899998,-2.7933311462
2018-07-18 20:40:16.300,-0.116693596082,-0.361177806786,-0.863420369619,0.0354690179229,-0.280418455601,-0.344639897346,-0.2549729,0.55897905,11.81701325,-10.8435897827,10.5619335175,-1.19103503227,0.0354690179229,-0.280418455601,-0.344639897346,-2.44000005722,-279.333129883,16.6114997864,127.80282974240001,4.9289560318,-2.889820098900003,4.803143501299999,10.092037432599874,-1.154316186899998,-2.7933311462,-0.116693596082,-0.361177806786,-0.863420369619,0.0354690179229,-0.280418455601,-0.344639897346,-0.2549729,0.55897905,11.81701325,-10.8435897827,10.5619335175,-1.19103503227,0.0354690179229,-0.280418455601,-0.344639897346,-2.44000005722,-279.333129883,16.6114997864,127.80282974240001,4.9289560318,-2.889820098900003,4.803143501299999,10.092037432599874,-1.154316186899998,-2.7933311462
2018-07-18 20:40:16.350,-0.116693596082,-0.361177806786,-0.863420369619,0.0354690179229,-0.280418455601,-0.344639897346,-0.2549729,0.55897905,11.81701325,-9.59515762329,11.569978714,-1.12003791332,0.0354690179229,-0.280418455601,-0.344639897346,-2.33999991417,-294.711486816,17.3939628601,128.8028297424,5.57895588875,0.2601776122999979,4.5142831802,9.715229266049874,-1.121391296389998,-2.947114944500001,-0.116693596082,-0.361177806786,-0.863420369619,0.0354690179229,-0.280418455601,-0.344639897346,-0.2549729,0.55897905,11.81701325,-9.59515762329,11.569978714,-1.12003791332,0.0354690179229,-0.280418455601,-0.344639897346,-2.33999991417,-294.711486816,17.3939628601,128.8028297424,5.57895588875,0.2601776122999979,4.5142831802,9.715229266049874,-1.121391296389998,-2.947114944500001
