%time,field.orientation.x,field.orientation.y,field.orientation.z,field.angular_velocity.x,field.angular_velocity.y,field.angular_velocity.z,field.linear_acceleration.x,field.linear_acceleration.y,field.linear_acceleration.z,field.data,field.twist.linear.x,field.twist.linear.y,field.twist.linear.z,field.twist.angular.x,field.twist.angular.y,field.twist.angular.z,field.alt_error,field.aspd_error,field.xtrack_error,delta_yaw,delta_pitch,delta_roll,delta_x,delta_y,delta_z,delta_roll_airspeed
2018-07-21 00:58:24.600,,,,,,,,,,0.0,,,,,,,1.62999999523,-700.578125,-384.289672852,40.16896820069999,0.8527407646199991,58.3868465424,11.27099561691,22.472988128699996,-0.989048898219998,-7.005781173700001
2018-07-21 00:58:24.650,,,,,,,,,,0.0,,,,,,,1.57999992371,-710.609619141,-382.049560547,40.16896820069999,2.4827408790599996,58.4168453217,11.09748029709,22.369714736899997,-0.516986072062998,-7.1060962677
2018-07-21 00:58:24.700,,,,,,,,,,0.0,,,,,,,1.57999992371,-710.609619141,-382.049560547,40.16896820069999,2.5027408599799994,58.4268436432,10.96688270569,22.287124633799998,-0.23794578015799803,-7.1060962677
2018-07-21 00:58:24.750,,,,,,,,,,0.0,-22.2871246338,5.03311729431,-0.237945780158,1.6289678812,-0.378452479839,-0.00284350686707,1.57999992371,-710.609619141,-382.049560547,40.16896820069999,2.5027408599799994,58.4268436432,10.96688270569,22.287124633799998,-0.23794578015799803,-7.1060962677
2018-07-21 00:58:24.800,0.000717612611828,-0.139650140369,-0.98938812513,0.802229464054,-0.232096731663,0.0529514960945,-1.55925735,0.2941995,15.9848395,0.0,-22.2871246338,5.03311729431,-0.237945780158,1.6289678812,-0.378452479839,-0.00284350686707,1.44999992847,-721.847717285,-379.834838867,41.459373474100005,-2.266821742061,28.8404464722,10.65570735931,22.096149444599998,0.23451019823600197,-7.218477249100001
2018-07-21 00:58:24.850,0.000717612611828,-0.139650140369,-0.98938812513,0.802229464054,-0.232096731663,0.0529514960945,-1.55925735,0.2941995,15.9848395,0.0,-22.2871246338,5.03311729431,-0.237945780158,1.6289678812,-0.378452479839,-0.00284350686707,1.24000000954,-715.00604248,-377.653930664,41.459373474100005,-0.616821646691,28.8404464722,10.429278373719999,21.935976028399995,0.542669653893002,-7.150060653699999
2018-07-21 00:58:24.900,0.000717612611828,-0.139650140369,-0.98938812513,0.802229464054,-0.232096731663,0.0529514960945,-1.55925735,0.2941995,15.9848395,0.0,-21.7670078278,5.82990217209,0.764084815979,0.802229464054,-0.232096731663,0.0529514960945,1.24000000954,-715.00604248,-377.653930664,41.459373474100005,-0.6068216562309999,28.8404464722,10.25863742828,21.824369430499996,0.688162386417002,-7.150060653699999
2018-07-21 00:58:24.950,0.000717612611828,-0.139650140369,-0.98938812513,0.802229464054,-0.232096731663,0.0529514960945,-1.55925735,0.2941995,15.9848395,0.0,-21.7670078278,5.82990217209,0.764084815979,0.802229464054,-0.232096731663,0.0529514960945,0.989999949932,-702.645141602,-375.489898682,41.459373474100005,1.003178268671,28.8304481507,9.99577760696,21.645999908399997,0.899448454380002,-7.0264511108
2018-07-21 00:58:25.000,0.000717612611828,-0.139650140369,-0.98938812513,0.802229464054,-0.232096731663,0.0529514960945,-1.55925735,0.2941995,15.9848395,0.0,-21.7670078278,5.82990217209,0.764084815979,0.802229464054,-0.232096731663,0.0529514960945,0.989999949932,-702.645141602,-375.489898682,41.459373474100005,1.003178268671,28.8304481507,9.99577760696,21.645999908399997,0.899448454380002,-7.0264511108
2018-07-21 00:58:25.050,-0.030115276189,-0.219457532719,-0.973389632415,0.367531180382,-0.195386230946,-0.238895252347,-1.79461695,1.0002783,11.4149406,0.0,-21.7670078278,5.82990217209,0.764084815979,0.802229464054,-0.232096731663,0.0529514960945,0.989999949932,-702.645141602,-375.489898682,41.459373474100005,1.033178269863,28.8204498292,9.640216827389999,21.386362075799997,1.097515583040002,-7.0264511108
2018-07-21 00:58:25.100,-0.030115276189,-0.219457532719,-0.973389632415,0.367531180382,-0.195386230946,-0.238895252347,-1.79461695,1.0002783,11.4149406,0.0,-21.7670078278,5.82990217209,0.764084815979,0.802229464054,-0.232096731663,0.0529514960945,0.689999997616,-681.48614502,-373.376617432,38.6727523804,-2.213621914391,18.288770675600002,9.2325129509,21.124300003099997,1.225021123890002,-6.8148612976
2018-07-21 00:58:25.150,-0.030115276189,-0.219457532719,-0.973389632415,0.367531180382,-0.195386230946,-0.238895252347,-1.79461695,1.0002783,11.4149406,0.0,-20.9173488617,7.0769867897,1.31925523281,0.367531180382,-0.195386230946,-0.238895252347,0.389999985695,-658.668518066,-371.288696289,38.6727523804,-3.4336218834,16.6287708282,8.923013210299999,20.917348861699995,1.319255232810002,-6.586685180700002
2018-07-21 00:58:25.200,-0.030115276189,-0.219457532719,-0.973389632415,0.367531180382,-0.195386230946,-0.238895252347,-1.79461695,1.0002783,11.4149406,0.0,-20.9173488617,7.0769867897,1.31925523281,0.367531180382,-0.195386230946,-0.238895252347,0.389999985695,-658.668518066,-371.288696289,38.6727523804,-3.42362189293,16.618768692,8.923013210299999,20.917348861699995,1.319255232810002,-6.586685180700002
2018-07-21 00:58:25.250,-0.030115276189,-0.219457532719,-0.973389632415,0.367531180382,-0.195386230946,-0.238895252347,-1.79461695,1.0002783,11.4149406,0.0,-20.9173488617,7.0769867897,1.31925523281,0.367531180382,-0.195386230946,-0.238895252347,0.070000000298,-632.218933105,-369.268371582,38.6727523804,-1.7836219370405,14.778768539400001,8.500730037690001,20.616844177199997,1.426596045490002,-6.322189331099999
2018-07-21 00:58:25.300,-0.030115276189,-0.219457532719,-0.973389632415,0.367531180382,-0.195386230946,-0.238895252347,-1.79461695,1.0002783,11.4149406,0.0,-20.9173488617,7.0769867897,1.31925523281,0.367531180382,-0.195386230946,-0.238895252347,0.070000000298,-632.218933105,-369.268371582,38.6727523804,-1.763621933762,14.778768539400001,8.175868511200001,20.396869659399997,1.484828829770002,-6.322189331099999
2018-07-21 00:58:25.350,-0.030115276189,-0.219457532719,-0.973389632415,0.367531180382,-0.195386230946,-0.238895252347,-1.79461695,1.0002783,11.4149406,0.0,-20.9173488617,7.0769867897,1.31925523281,0.367531180382,-0.195386230946,-0.238895252347,-0.239999994636,-606.957641602,-367.256530762,38.6727523804,-0.06362199783999989,12.778768539400001,7.95098304749,20.250169753999998,1.518042564390002,-6.069576263399998
2018-07-21 00:58:25.400,-0.0621990238326,-0.272607304017,-0.953253703914,0.336592882872,-0.194277197123,-0.267442792654,-1.372931,-0.5295591,11.36590735,0.0,-20.0876541138,8.27155303955,1.52906298637,0.367531180382,-0.195386230946,-0.238895252347,-0.239999994636,-606.957641602,-367.256530762,38.6727523804,-0.043622016909999894,12.778768539400001,7.72844696045,20.087654113799996,1.529062986370002,-6.069576263399998
2018-07-21 00:58:25.450,-0.0621990238326,-0.272607304017,-0.953253703914,0.336592882872,-0.194277197123,-0.267442792654,-1.372931,-0.5295591,11.36590735,0.0,-20.0876541138,8.27155303955,1.52906298637,0.367531180382,-0.195386230946,-0.238895252347,-0.550000011921,-564.030822754,-365.303833008,31.361534118700007,-2.14731884003,3.758171081599997,7.29102802277,19.771577835099997,1.495930671690002,-5.640308380099999
2018-07-21 00:58:25.500,-0.0621990238326,-0.272607304017,-0.953253703914,0.336592882872,-0.194277197123,-0.267442792654,-1.372931,-0.5295591,11.36590735,0.0,-20.0876541138,8.27155303955,1.52906298637,0.367531180382,-0.195386230946,-0.238895252347,-0.550000011921,-564.030822754,-365.303833008,31.361534118700007,-2.14731884003,3.758171081599997,7.29102802277,19.771577835099997,1.495930671690002,-5.640308380099999
2018-07-21 00:58:25.550,-0.0621990238326,-0.272607304017,-0.953253703914,0.336592882872,-0.194277197123,-0.267442792654,-1.372931,-0.5295591,11.36590735,0.0,-20.0876541138,8.27155303955,1.52906298637,0.367531180382,-0.195386230946,-0.238895252347,-0.849999964237,-520.764160156,-363.376495361,31.361534118700007,-3.657318770886,1.5681686401999997,6.7987775802599995,19.382812499999996,1.380175828930002,-5.207641601599999
2018-07-21 00:58:25.600,-0.0621990238326,-0.272607304017,-0.953253703914,0.336592882872,-0.194277197123,-0.267442792654,-1.372931,-0.5295591,11.36590735,0.0,-20.0876541138,8.27155303955,1.52906298637,0.367531180382,-0.195386230946,-0.238895252347,-0.849999964237,-520.764160156,-363.376495361,31.361534118700007,-3.64731875062,1.5581703185999984,6.46782207489,19.117612838699998,1.350918650630002,-5.207641601599999
2018-07-21 00:58:25.650,-0.0621990238326,-0.272607304017,-0.953253703914,0.336592882872,-0.194277197123,-0.267442792654,-1.372931,-0.5295591,11.36590735,0.0,-19.1176128387,9.53217792511,1.35091865063,0.336592882872,-0.194277197123,-0.267442792654,-1.12000000477,-493.439880371,-361.508361816,31.361534118700007,-5.19731867313,-0.9318294525000006,6.21710968018,18.931167602499997,1.362724542620002,-4.9343986511
2018-07-21 00:58:25.700,-0.0831425294284,-0.285801228803,-0.944286525375,0.0915367901325,-0.19383892417,-0.0684052333236,-1.2552512,0.20593965,10.95402805,0.0,-19.1176128387,9.53217792511,1.35091865063,0.336592882872,-0.194277197123,-0.267442792654,-1.12000000477,-493.439880371,-361.508361816,31.361534118700007,-5.19731867313,-0.9318294525000006,6.21710968018,18.931167602499997,1.362724542620002,-4.9343986511
2018-07-21 00:58:25.750,-0.0831425294284,-0.285801228803,-0.944286525375,0.0915367901325,-0.19383892417,-0.0684052333236,-1.2552512,0.20593965,10.95402805,0.0,-19.1176128387,9.53217792511,1.35091865063,0.336592882872,-0.194277197123,-0.267442792654,-1.38999998569,-474.993896484,-359.673919678,27.716972351099997,-7.97095513344,-6.026845932000004,5.7134475708,18.555873870799996,1.402624249460002,-4.749938964799998
2018-07-21 00:58:25.800,-0.0831425294284,-0.285801228803,-0.944286525375,0.0915367901325,-0.19383892417,-0.0684052333236,-1.2552512,0.20593965,10.95402805,0.0,-19.1176128387,9.53217792511,1.35091865063,0.336592882872,-0.194277197123,-0.267442792654,-1.38999998569,-474.993896484,-359.673919678,27.716972351099997,-7.97095513344,-6.026845932000004,5.4858226776,18.353164672899997,1.438236832620002,-4.749938964799998
2018-07-21 00:58:25.850,-0.0831425294284,-0.285801228803,-0.944286525375,0.0915367901325,-0.19383892417,-0.0684052333236,-1.2552512,0.20593965,10.95402805,0.0,-19.1176128387,9.53217792511,1.35091865063,0.336592882872,-0.194277197123,-0.267442792654,-1.64999997616,-469.9296875,-357.924102783,27.716972351099997,-9.47095489502,-9.156845092800001,5.041589736900001,17.952114105199996,1.509604573250002,-4.699296951299999
2018-07-21 00:58:25.900,-0.0831425294284,-0.285801228803,-0.944286525375,0.0915367901325,-0.19383892417,-0.0684052333236,-1.2552512,0.20593965,10.95402805,0.0,-17.9521141052,10.9584102631,1.50960457325,0.0915367901325,-0.19383892417,-0.0684052333236,-1.64999997616,-469.9296875,-357.924102783,27.716972351099997,-9.47095489502,-9.156845092800001,5.041589736900001,17.952114105199996,1.509604573250002,-4.699296951299999
2018-07-21 00:58:25.950,-0.0831425294284,-0.285801228803,-0.944286525375,0.0915367901325,-0.19383892417,-0.0684052333236,-1.2552512,0.20593965,10.95402805,0.0,-17.9521141052,10.9584102631,1.50960457325,0.0915367901325,-0.19383892417,-0.0684052333236,-1.91999995708,-472.049530029,-356.199676514,27.716972351099997,-10.990954875949999,-12.376844406100002,4.510702133200001,17.456470489499996,1.592521071430002,-4.720495224
2018-07-21 00:58:26.000,-0.0831425294284,-0.285801228803,-0.944286525375,0.0915367901325,-0.19383892417,-0.0684052333236,-1.2552512,0.20593965,10.95402805,0.0,-17.9521141052,10.9584102631,1.50960457325,0.0915367901325,-0.19383892417,-0.0684052333236,-1.91999995708,-472.049530029,-356.199676514,27.716972351099997,-10.990954875949999,-12.376844406100002,4.510702133200001,17.456470489499996,1.592521071430002,-4.720495224
2018-07-21 00:58:26.050,-0.0831425294284,-0.285801228803,-0.944286525375,0.0915367901325,-0.19383892417,-0.0684052333236,-1.2552512,0.20593965,10.95402805,0.0,-17.9521141052,10.9584102631,1.50960457325,0.0915367901325,-0.19383892417,-0.0684052333236,-2.20000004768,-465.744598389,-354.542694092,27.716972351099997,-12.13095521927,-15.676845550500001,4.011796951299999,16.949245452899998,1.731834292410002,-4.6574459076
2018-07-21 00:58:26.100,-0.0831425294284,-0.285801228803,-0.944286525375,0.0915367901325,-0.19383892417,-0.0684052333236,-1.2552512,0.20593965,10.95402805,0.0,-17.9521141052,10.9584102631,1.50960457325,0.0915367901325,-0.19383892417,-0.0684052333236,-2.20000004768,-465.744598389,-354.542694092,27.716972351099997,-12.1509552002,-15.666845321600004,3.7931032181000006,16.696111679099996,1.720147967340002,-4.6574459076
2018-07-21 00:58:26.150,-0.0831425294284,-0.285801228803,-0.944286525375,0.0915367901325,-0.19383892417,-0.0684052333236,-1.2552512,0.20593965,10.95402805,0.0,-16.6187839508,12.268494606,1.70401263237,0.0915367901325,-0.19383892417,-0.0684052333236,-2.20000004768,-465.744598389,-354.542694092,27.716972351099997,-12.1509552002,-15.666845321600004,3.7931032181000006,16.696111679099996,1.720147967340002,-4.6574459076
2018-07-21 00:58:26.200,-0.0972722011197,-0.240493986861,-0.952028574518,-0.14752882719,0.0265016946942,-0.123909518123,-1.0198916,0.24516625,11.15016105,0.0,-16.6187839508,12.268494606,1.70401263237,0.0915367901325,-0.19383892417,-0.0684052333236,-2.49000000954,-442.746551514,-352.911254883,25.029838561999995,-15.22081518173,-13.613423347500001,3.6723594665999997,16.532358169599995,1.681048989300002,-4.427465438799999
2018-07-21 00:58:26.250,-0.0972722011197,-0.240493986861,-0.952028574518,-0.14752882719,0.0265016946942,-0.123909518123,-1.0198916,0.24516625,11.15016105,0.0,-16.6187839508,12.268494606,1.70401263237,0.0915367901325,-0.19383892417,-0.0684052333236,-2.49000000954,-442.746551514,-352.911254883,25.029838561999995,-15.22081518173,-13.613423347500001,3.462685584999999,16.214317321799996,1.541384696960002,-4.027093887300001
2018-07-21 00:58:26.300,-0.0972722011197,-0.240493986861,-0.952028574518,-0.14752882719,0.0265016946942,-0.123909518123,-1.0198916,0.24516625,11.15016105,0.0,-16.6187839508,12.268494606,1.70401263237,0.0915367901325,-0.19383892417,-0.0684052333236,-2.76999998093,-402.709381104,-351.347351074,25.029838561999995,-16.65081548691,-15.973423957800001,3.3363571167000003,16.010173797599997,1.398290157320002,-4.027093887300001
2018-07-21 00:58:26.350,-0.0972722011197,-0.240493986861,-0.952028574518,-0.14752882719,0.0265016946942,-0.123909518123,-1.0198916,0.24516625,11.15016105,0.0,-16.6187839508,12.268494606,1.70401263237,0.0915367901325,-0.19383892417,-0.0684052333236,-2.76999998093,-402.709381104,-351.347351074,25.029838561999995,-16.66081571581,-15.973423957800001,3.2890472412000005,15.938950538599997,1.352174758910002,-4.027093887300001
2018-07-21 00:58:26.400,-0.0972722011197,-0.240493986861,-0.952028574518,-0.14752882719,0.0265016946942,-0.123909518123,-1.0198916,0.24516625,11.15016105,0.0,-15.7368831635,12.818572998,1.2349871397,-0.14752882719,0.0265016946942,-0.123909518123,-3.03999996185,-363.459411621,-349.800415039,25.029838561999995,-18.070815563209997,-17.933423996000002,3.1814270019999995,15.736883163499996,1.234987139700002,-3.6345939636000004
2018-07-21 00:58:26.450,-0.0972722011197,-0.240493986861,-0.952028574518,-0.14752882719,0.0265016946942,-0.123909518123,-1.0198916,0.24516625,11.15016105,0.0,-15.7368831635,12.818572998,1.2349871397,-0.14752882719,0.0265016946942,-0.123909518123,-3.26999998093,-338.665405273,-348.295776367,25.029838561999995,-19.39081525801,-19.77342414855,3.0747632980000006,15.530699729899997,1.120141744610002,-3.3866539001000007
2018-07-21 00:58:26.500,-0.0972722011197,-0.240493986861,-0.952028574518,-0.14752882719,0.0265016946942,-0.123909518123,-1.0198916,0.24516625,11.15016105,0.0,-15.7368831635,12.818572998,1.2349871397,-0.14752882719,0.0265016946942,-0.123909518123,-3.26999998093,-338.665405273,-348.295776367,25.029838561999995,-19.39081525801,-19.77342414855,3.0398750304999993,15.427431106599997,1.000655293460002,-3.3866539001000007
2018-07-21 00:58:26.550,-0.0972722011197,-0.240493986861,-0.952028574518,-0.14752882719,0.0265016946942,-0.123909518123,-1.0198916,0.24516625,11.15016105,0.0,-15.7368831635,12.818572998,1.2349871397,-0.14752882719,0.0265016946942,-0.123909518123,-3.26999998093,-338.665405273,-348.295776367,25.029838561999995,-19.39081525801,-19.77342414855,3.0398750304999993,15.427431106599997,1.000655293460002,-3.3866539001000007
2018-07-21 00:58:26.600,-0.0479546671486,-0.168834878915,-0.961325910352,-0.58157235384,0.188192054629,-0.295476675034,-1.0591182,0.77472535,6.9234949,0.0,-15.7368831635,12.818572998,1.2349871397,-0.14752882719,0.0265016946942,-0.123909518123,-3.47000002861,-295.50112915,-346.81628418,25.029838561999995,-20.88081502911,-21.1434240341,2.9503479004000006,15.172567367599996,0.681024789810002,-2.955011367800001
2018-07-21 00:58:26.650,-0.0479546671486,-0.168834878915,-0.961325910352,-0.58157235384,0.188192054629,-0.295476675034,-1.0591182,0.77472535,6.9234949,0.0,-15.017663002,13.093372345,0.504359960556,-0.58157235384,0.188192054629,-0.295476675034,-3.62999987602,-259.958251953,-345.370758057,20.890213012700002,-17.296458959589998,-13.014215469409999,2.8982639313000007,14.970991134599997,0.42928481102000193,-2.5995826720999986
2018-07-21 00:58:26.700,-0.0479546671486,-0.168834878915,-0.961325910352,-0.58157235384,0.188192054629,-0.295476675034,-1.0591182,0.77472535,6.9234949,0.0,-15.017663002,13.093372345,0.504359960556,-0.58157235384,0.188192054629,-0.295476675034,-3.62999987602,-259.958251953,-345.370758057,20.890213012700002,-17.316459417289998,-13.014215469409999,2.8712959290000004,14.854636192299996,0.22152827680100198,-2.5995826720999986
2018-07-21 00:58:26.750,-0.0479546671486,-0.168834878915,-0.961325910352,-0.58157235384,0.188192054629,-0.295476675034,-1.0591182,0.77472535,6.9234949,0.0,-15.017663002,13.093372345,0.504359960556,-0.58157235384,0.188192054629,-0.295476675034,-3.75999999046,-219.059936523,-343.93371582,20.890213012700002,-18.70645880699,-13.984215736429999,2.8500061035,14.777645111099996,0.07138674706220195,-2.1905994415000016
2018-07-21 00:58:26.800,-0.0479546671486,-0.168834878915,-0.961325910352,-0.58157235384,0.188192054629,-0.295476675034,-1.0591182,0.77472535,6.9234949,0.0,-15.017663002,13.093372345,0.504359960556,-0.58157235384,0.188192054629,-0.295476675034,-3.75999999046,-219.059936523,-343.93371582,20.890213012700002,-18.726459264789998,-13.984215736429999,2.8500061035,14.777645111099996,0.07138674706220195,-2.1905994415000016
2018-07-21 00:58:26.850,-0.0479546671486,-0.168834878915,-0.961325910352,-0.58157235384,0.188192054629,-0.295476675034,-1.0591182,0.77472535,6.9234949,0.0,-14.5936098099,13.1569833755,-0.297681003809,-0.58157235384,0.188192054629,-0.295476675034,-3.83999991417,-194.395446777,-342.521850586,20.890213012700002,-20.046458959589998,-14.77421569829,2.8430166245000006,14.593609809899997,-0.29768100380899803,-1.9439544678000011
2018-07-21 00:58:26.900,-0.0479546671486,-0.168834878915,-0.961325910352,-0.58157235384,0.188192054629,-0.295476675034,-1.0591182,0.77472535,6.9234949,0.0,-14.5936098099,13.1569833755,-0.297681003809,-0.58157235384,0.188192054629,-0.295476675034,-3.83999991417,-194.395446777,-342.521850586,20.890213012700002,-20.05645918849,-14.784215450329999,2.8430166245000006,14.593609809899997,-0.29768100380899803,-1.9439544678000011
2018-07-21 00:58:26.950,0.00887878113576,-0.121566761225,-0.958927268082,-0.263811856508,0.239180192351,-0.202944934368,-1.06892485,-0.392266,7.0215614,0.0,-14.5936098099,13.1569833755,-0.297681003809,-0.58157235384,0.188192054629,-0.295476675034,-3.87999987602,-176.486587524,-341.118621826,16.619895935099997,-15.52159166334,-8.62712097166,2.8034420013000005,14.432773590099996,-0.640476882457998,-1.7648658752000017
2018-07-21 00:58:27.000,0.00887878113576,-0.121566761225,-0.958927268082,-0.263811856508,0.239180192351,-0.202944934368,-1.06892485,-0.392266,7.0215614,0.0,-14.5936098099,13.1569833755,-0.297681003809,-0.58157235384,0.188192054629,-0.295476675034,-3.87999987602,-176.486587524,-341.118621826,16.619895935099997,-15.52159166334,-8.62712097166,2.8034420013000005,14.432773590099996,-0.640476882457998,-1.7648658752000017
2018-07-21 00:58:27.050,0.00887878113576,-0.121566761225,-0.958927268082,-0.263811856508,0.239180192351,-0.202944934368,-1.06892485,-0.392266,7.0215614,0.0,-14.5936098099,13.1569833755,-0.297681003809,-0.58157235384,0.188192054629,-0.295476675034,-3.87999987602,-160.615539551,-339.73223877,16.619895935099997,-16.60159158704,-9.12712097166,2.8274335860999997,14.286972999599996,-1.066182136539998,-1.6061553955
2018-07-21 00:58:27.100,0.00887878113576,-0.121566761225,-0.958927268082,-0.263811856508,0.239180192351,-0.202944934368,-1.06892485,-0.392266,7.0215614,0.0,-14.5936098099,13.1569833755,-0.297681003809,-0.58157235384,0.188192054629,-0.295476675034,-3.87999987602,-160.615539551,-339.73223877,16.619895935099997,-16.611591815940002,-9.13712120054,2.8274335860999997,14.286972999599996,-1.066182136539998,-1.6061553955
2018-07-21 00:58:27.150,0.00887878113576,-0.121566761225,-0.958927268082,-0.263811856508,0.239180192351,-0.202944934368,-1.06892485,-0.392266,7.0215614,0.0,-14.5936098099,13.1569833755,-0.297681003809,-0.58157235384,0.188192054629,-0.295476675034,-3.82999992371,-147.459594727,-338.354370117,16.619895935099997,-17.57159090044,-9.5671212673,2.8274335860999997,14.286972999599996,-1.066182136539998,-1.6061553955
2018-07-21 00:58:27.200,0.00887878113576,-0.121566761225,-0.958927268082,-0.263811856508,0.239180192351,-0.202944934368,-1.06892485,-0.392266,7.0215614,0.0,-14.1545972824,13.1821165085,-1.42106068134,-0.263811856508,0.239180192351,-0.202944934368,-3.82999992371,-147.459594727,-338.354370117,16.619895935099997,-17.57159090044,-9.57712125776,2.8178834915,14.154597282399996,-1.421060681339998,-1.4745960236000002
2018-07-21 00:58:27.250,0.00887878113576,-0.121566761225,-0.958927268082,-0.263811856508,0.239180192351,-0.202944934368,-1.06892485,-0.392266,7.0215614,0.0,-14.1545972824,13.1821165085,-1.42106068134,-0.263811856508,0.239180192351,-0.202944934368,-3.75,-146.275909424,-336.984985352,16.619895935099997,-18.33159112934,-10.0071210861,2.830138206499999,14.078498840299996,-1.673105120659998,-1.4627590179000016
2018-07-21 00:58:27.300,0.00887878113576,-0.121566761225,-0.958927268082,-0.263811856508,0.239180192351,-0.202944934368,-1.06892485,-0.392266,7.0215614,0.0,-14.1545972824,13.1821165085,-1.42106068134,-0.263811856508,0.239180192351,-0.202944934368,-3.62999987602,-144.416809082,-335.623809814,16.619895935099997,-18.33159112934,-10.0071210861,2.830138206499999,14.078498840299996,-1.673105120659998,-1.4627590179000016
2018-07-21 00:58:27.350,0.00887878113576,-0.121566761225,-0.958927268082,-0.263811856508,0.239180192351,-0.202944934368,-1.06892485,-0.392266,7.0215614,0.0,-14.1545972824,13.1821165085,-1.42106068134,-0.263811856508,0.239180192351,-0.202944934368,-3.62999987602,-144.416809082,-335.623809814,16.619895935099997,-18.89159059524,-10.237121105169999,2.8237447738999997,14.021300315899996,-1.935911536219998,-1.4441680908000016
2018-07-21 00:58:27.400,0.066511376115,-0.0948832468132,-0.95396447855,-0.194461941719,0.184539496899,-0.0790973603725,-1.08853815,0.22555295,7.649187,0.0,-14.0092515945,13.1764392853,-1.97570502758,-0.263811856508,0.239180192351,-0.202944934368,-3.62999987602,-144.416809082,-335.623809814,16.619895935099997,-18.90159082414,-10.237121105169999,2.8305635452000004,14.002043724099996,-2.0256333351099984,-1.4441680908000016
2018-07-21 00:58:27.450,0.066511376115,-0.0948832468132,-0.95396447855,-0.194461941719,0.184539496899,-0.0790973603725,-1.08853815,0.22555295,7.649187,0.0,-14.0092515945,13.1764392853,-1.97570502758,-0.263811856508,0.239180192351,-0.202944934368,-3.49000000954,-134.089660645,-334.2628479,14.4214096069,-13.585510253899999,-5.540556430810001,2.8293533325,13.987514495799996,-2.128051280979998,-1.3408966064000012
2018-07-21 00:58:27.500,0.066511376115,-0.0948832468132,-0.95396447855,-0.194461941719,0.184539496899,-0.0790973603725,-1.08853815,0.22555295,7.649187,0.0,-14.0092515945,13.1764392853,-1.97570502758,-0.263811856508,0.239180192351,-0.202944934368,-3.49000000954,-134.089660645,-334.2628479,14.4214096069,-13.585510253899999,-5.540556430810001,2.8324861525999996,13.989885330199996,-2.164594888689998,-1.3408966064000012
2018-07-21 00:58:27.550,0.066511376115,-0.0948832468132,-0.95396447855,-0.194461941719,0.184539496899,-0.0790973603725,-1.08853815,0.22555295,7.649187,0.0,-14.0092515945,13.1764392853,-1.97570502758,-0.263811856508,0.239180192351,-0.202944934368,-3.31999993324,-139.335632324,-332.893371582,14.4214096069,-13.935508728,-5.620556354520001,2.8324861525999996,13.989885330199996,-2.164594888689998,-1.3408966064000012
2018-07-21 00:58:27.600,0.066511376115,-0.0948832468132,-0.95396447855,-0.194461941719,0.184539496899,-0.0790973603725,-1.08853815,0.22555295,7.649187,0.0,-13.9874706268,13.1600551605,-2.37734174728,-0.194461941719,0.184539496899,-0.0790973603725,-3.31999993324,-139.335632324,-332.893371582,14.4214096069,-13.935508728,-5.6305563449800005,2.8440265656,13.982106208799996,-2.4749085903199983,-1.393356323199999
2018-07-21 00:58:27.650,0.066511376115,-0.0948832468132,-0.95396447855,-0.194461941719,0.184539496899,-0.0790973603725,-1.08853815,0.22555295,7.649187,0.0,-13.9874706268,13.1600551605,-2.37734174728,-0.194461941719,0.184539496899,-0.0790973603725,-3.12999987602,-140.833099365,-331.523986816,14.4214096069,-14.195508956900001,-5.590556383130001,2.8419094085999994,13.983814239499996,-2.580104589459998,-1.4083309174000007
2018-07-21 00:58:27.700,0.066511376115,-0.0948832468132,-0.95396447855,-0.194461941719,0.184539496899,-0.0790973603725,-1.08853815,0.22555295,7.649187,0.0,-13.9874706268,13.1600551605,-2.37734174728,-0.194461941719,0.184539496899,-0.0790973603725,-3.12999987602,-140.833099365,-331.523986816,14.4214096069,-14.195508956900001,-5.600556373590001,2.8298940658999996,13.991151809699996,-2.7167561054199982,-1.4083309174000007
2018-07-21 00:58:27.750,0.066511376115,-0.0948832468132,-0.95396447855,-0.194461941719,0.184539496899,-0.0790973603725,-1.08853815,0.22555295,7.649187,0.0,-13.9874706268,13.1600551605,-2.37734174728,-0.194461941719,0.184539496899,-0.0790973603725,-3.12999987602,-140.833099365,-331.523986816,14.4214096069,-14.195508956900001,-5.600556373590001,2.8298940658999996,13.991151809699996,-2.7167561054199982,-1.4083309174000007
2018-07-21 00:58:27.800,0.066511376115,-0.0948832468132,-0.95396447855,-0.194461941719,0.184539496899,-0.0790973603725,-1.08853815,0.22555295,7.649187,0.0,-13.9874706268,13.1600551605,-2.37734174728,-0.194461941719,0.184539496899,-0.0790973603725,-2.91999983788,-146.482269287,-330.137542725,14.4214096069,-14.265510559099999,-5.6305563449800005,2.8162279129000005,13.999165534999996,-2.8655431270599983,-1.4648227692000013
2018-07-21 00:58:27.850,0.066511376115,-0.0948832468132,-0.95396447855,-0.194461941719,0.184539496899,-0.0790973603725,-1.08853815,0.22555295,7.649187,0.0,-14.0037212372,13.1814889908,-3.10937190056,-0.194461941719,0.184539496899,-0.0790973603725,-2.67999982834,-159.437561035,-328.75970459,14.4214096069,-14.2155094147,-5.680556297300001,2.8134593964000008,14.000213622999997,-3.031816959379998,-1.5943756104000002
2018-07-21 00:58:27.900,0.12385743224,-0.08198477561,-0.938539756045,-0.0613590851426,0.193380355835,-0.188961803913,-1.26505785,7.5300709481e-16,6.14876955,0.0,-14.0037212372,13.1814889908,-3.10937190056,-0.194461941719,0.184539496899,-0.0790973603725,-2.67999982834,-159.437561035,-328.75970459,14.4214096069,-14.2155094147,-5.680556297300001,2.8131351471000006,14.000481605499996,-3.2562618255599984,-1.5943756104000002
2018-07-21 00:58:27.950,0.12385743224,-0.08198477561,-0.938539756045,-0.0613590851426,0.193380355835,-0.188961803913,-1.26505785,7.5300709481e-16,6.14876955,0.0,-14.0037212372,13.1814889908,-3.10937190056,-0.194461941719,0.184539496899,-0.0790973603725,-2.40999984741,-156.7237854,-327.373382568,9.9340782166,-7.996036529599998,-1.83817625046,2.8120040894000002,13.996554374699997,-3.521176576609998,-1.5672378539999983
2018-07-21 00:58:28.000,0.12385743224,-0.08198477561,-0.938539756045,-0.0613590851426,0.193380355835,-0.188961803913,-1.26505785,7.5300709481e-16,6.14876955,0.0,-14.0037212372,13.1814889908,-3.10937190056,-0.194461941719,0.184539496899,-0.0790973603725,-2.40999984741,-156.7237854,-327.373382568,9.9340782166,-7.996036529599998,-1.83817625046,2.8195562363000004,13.991059303299997,-3.696988582609998,-1.5672378539999983
2018-07-21 00:58:28.050,0.12385743224,-0.08198477561,-0.938539756045,-0.0613590851426,0.193380355835,-0.188961803913,-1.26505785,7.5300709481e-16,6.14876955,0.0,-14.0037212372,13.1814889908,-3.10937190056,-0.194461941719,0.184539496899,-0.0790973603725,-2.08999991417,-152.702331543,-325.995300293,9.9340782166,-7.866037368799997,-1.8681762218500002,2.801361084,13.991917610199996,-3.911958456039998,-1.527023315400001
2018-07-21 00:58:28.100,0.12385743224,-0.08198477561,-0.938539756045,-0.0613590851426,0.193380355835,-0.188961803913,-1.26505785,7.5300709481e-16,6.14876955,0.0,-13.9987640381,13.2033777237,-3.98216819763,-0.0613590851426,0.193380355835,-0.188961803913,-2.08999991417,-152.702331543,-325.995300293,9.9340782166,-7.866037368799997,-1.8681762218500002,2.7863750458,14.005752563499996,-4.038403987879998,-1.527023315400001
2018-07-21 00:58:28.150,0.12385743224,-0.08198477561,-0.938539756045,-0.0613590851426,0.193380355835,-0.188961803913,-1.26505785,7.5300709481e-16,6.14876955,0.0,-13.9987640381,13.2033777237,-3.98216819763,-0.0613590851426,0.193380355835,-0.188961803913,-1.73000001907,-159.168243408,-324.609008789,9.9340782166,-7.716035842899998,-1.98817634583,2.7395801544000005,14.035507202099996,-4.177000045779998,-1.5916824341000009
2018-07-21 00:58:28.200,0.12385743224,-0.08198477561,-0.938539756045,-0.0613590851426,0.193380355835,-0.188961803913,-1.26505785,7.5300709481e-16,6.14876955,0.0,-13.9987640381,13.2033777237,-3.98216819763,-0.0613590851426,0.193380355835,-0.188961803913,-1.73000001907,-159.168243408,-324.609008789,9.9340782166,-7.716035842899998,-1.98817634583,2.7075634002999998,14.052265167199996,-4.252424240109998,-1.5916824341000009
2018-07-21 00:58:28.250,0.12385743224,-0.08198477561,-0.938539756045,-0.0613590851426,0.193380355835,-0.188961803913,-1.26505785,7.5300709481e-16,6.14876955,0.0,-13.9987640381,13.2033777237,-3.98216819763,-0.0613590851426,0.193380355835,-0.188961803913,-1.33999991417,-164.324951172,-323.214172363,9.9340782166,-7.5560359955,-2.07817626,2.6757268906,14.070358276399997,-4.435507774349999,-1.6432495116999988
2018-07-21 00:58:28.300,0.146965719766,-0.0780655284693,-0.930974517752,-0.126834347844,0.0975898429751,-0.00475098378956,-1.24544455,-0.392266,7.93357985,0.0,-13.9987640381,13.2033777237,-3.98216819763,-0.0613590851426,0.193380355835,-0.188961803913,-1.33999991417,-164.324951172,-323.214172363,8.021099090600003,-5.102123260500001,-0.5102965831800002,2.6619844436999998,14.071837425199996,-4.4987325668299984,-1.6432495116999988
2018-07-21 00:58:28.350,0.146965719766,-0.0780655284693,-0.930974517752,-0.126834347844,0.0975898429751,-0.00475098378956,-1.24544455,-0.392266,7.93357985,0.0,-14.1256189346,13.4042873383,-4.65521669388,-0.126834347844,0.0975898429751,-0.00475098378956,-1.33999991417,-164.324951172,-323.214172363,8.021099090600003,-5.102123260500001,-0.5102965831800002,2.6619844436999998,14.071837425199996,-4.4987325668299984,-1.6432495116999988
2018-07-21 00:58:28.400,0.146965719766,-0.0780655284693,-0.930974517752,-0.126834347844,0.0975898429751,-0.00475098378956,-1.24544455,-0.392266,7.93357985,0.0,-14.1256189346,13.4042873383,-4.65521669388,-0.126834347844,0.0975898429751,-0.00475098378956,-0.919999957085,-173.376647949,-321.819396973,8.021099090600003,-4.922124862699999,-0.5802965164200002,2.548731803900001,14.184935569799997,-4.717547416689999,-1.733766555799999
2018-07-21 00:58:28.450,0.146965719766,-0.0780655284693,-0.930974517752,-0.126834347844,0.0975898429751,-0.00475098378956,-1.24544455,-0.392266,7.93357985,0.0,-14.1256189346,13.4042873383,-4.65521669388,-0.126834347844,0.0975898429751,-0.00475098378956,-0.479999989271,-198.331634521,-320.41595459,8.021099090600003,-4.5721244811999995,-0.6002967357600002,2.548731803900001,14.184935569799997,-4.717547416689999,-1.733766555799999
2018-07-21 00:58:28.500,0.146965719766,-0.0780655284693,-0.930974517752,-0.126834347844,0.0975898429751,-0.00475098378956,-1.24544455,-0.392266,7.93357985,0.0,-14.2608995438,13.510137558,-4.84074878693,-0.126834347844,0.0975898429751,-0.00475098378956,-0.479999989271,-198.331634521,-320.41595459,8.021099090600003,-4.5721244811999995,-0.6002967357600002,2.4898624419999997,14.260899543799997,-4.840748786929998,-1.9833164214999996
2018-07-21 00:58:28.550,0.146965719766,-0.0780655284693,-0.930974517752,-0.126834347844,0.0975898429751,-0.00475098378956,-1.24544455,-0.392266,7.93357985,0.0,-14.2608995438,13.510137558,-4.84074878693,-0.126834347844,0.0975898429751,-0.00475098378956,-0.479999989271,-198.331634521,-320.41595459,8.021099090600003,-4.5721244811999995,-0.6002967357600002,2.4898624419999997,14.260899543799997,-4.840748786929998,-1.9833164214999996
2018-07-21 00:58:28.600,0.157267228736,-0.0808266432806,-0.933359559216,0.0389748848975,0.0424135588109,0.0938408002257,-1.2356379,-0.0196133,8.3356525,0.0,-14.2608995438,13.510137558,-4.84074878693,-0.126834347844,0.0975898429751,-0.00475098378956,-0.0299999993294,-205.841445923,-318.995849609,8.021099090600003,-4.2721233368,-0.5302965640999999,2.4393634796000008,14.343752860999997,-4.971944808959998,-2.0584144592000015
2018-07-21 00:58:28.650,0.157267228736,-0.0808266432806,-0.933359559216,0.0389748848975,0.0424135588109,0.0938408002257,-1.2356379,-0.0196133,8.3356525,0.0,-14.2608995438,13.510137558,-4.84074878693,-0.126834347844,0.0975898429751,-0.00475098378956,0.42999997735,-212.203216553,-317.584136963,9.5625419617,-2.805019378699999,-0.5332465171799998,2.4148836136000007,14.409249305699996,-5.070746898649999,-2.1220321654999985
2018-07-21 00:58:28.700,0.157267228736,-0.0808266432806,-0.933359559216,0.0389748848975,0.0424135588109,0.0938408002257,-1.2356379,-0.0196133,8.3356525,0.0,-14.2608995438,13.510137558,-4.84074878693,-0.126834347844,0.0975898429751,-0.00475098378956,0.42999997735,-212.203216553,-317.584136963,9.5625419617,-2.805019378699999,-0.5332465171799998,2.372402191200001,14.483193397499996,-5.130477428439998,-2.1220321654999985
2018-07-21 00:58:28.750,0.157267228736,-0.0808266432806,-0.933359559216,0.0389748848975,0.0424135588109,0.0938408002257,-1.2356379,-0.0196133,8.3356525,0.0,-14.5608854294,13.6788406372,-5.17778158188,0.0389748848975,0.0424135588109,0.0938408002257,0.909999966621,-236.092758179,-316.163970947,9.5625419617,-2.4150180816999978,-0.34324645996,2.3358974457000006,14.533473968499996,-5.161892890929998,-2.3609275817999986
2018-07-21 00:58:28.800,0.157267228736,-0.0808266432806,-0.933359559216,0.0389748848975,0.0424135588109,0.0938408002257,-1.2356379,-0.0196133,8.3356525,0.0,-14.5608854294,13.6788406372,-5.17778158188,0.0389748848975,0.0424135588109,0.0938408002257,0.909999966621,-236.092758179,-316.163970947,9.5625419617,-2.4150180816999978,-0.34324645996,2.3148651122999997,14.591852188099997,-5.202266693119999,-2.3609275817999986
2018-07-21 00:58:28.850,0.157267228736,-0.0808266432806,-0.933359559216,0.0389748848975,0.0424135588109,0.0938408002257,-1.2356379,-0.0196133,8.3356525,0.0,-14.5608854294,13.6788406372,-5.17778158188,0.0389748848975,0.0424135588109,0.0938408002257,1.40999996662,-254.898651123,-314.709960938,9.5625419617,-1.9550189971999998,-0.1432464122799999,2.2703113556000005,14.670289039599997,-5.2437047958399985,-2.5489864349000015
2018-07-21 00:58:28.900,0.157267228736,-0.0808266432806,-0.933359559216,0.0389748848975,0.0424135588109,0.0938408002257,-1.2356379,-0.0196133,8.3356525,0.0,-14.5608854294,13.6788406372,-5.17778158188,0.0389748848975,0.0424135588109,0.0938408002257,1.40999996662,-254.898651123,-314.709960938,9.5625419617,-1.9550189971999998,-0.1432464122799999,2.2459268570000006,14.729751586899997,-5.284458160399998,-2.5489864349000015
2018-07-21 00:58:28.950,0.157267228736,-0.0808266432806,-0.933359559216,0.0389748848975,0.0424135588109,0.0938408002257,-1.2356379,-0.0196133,8.3356525,0.0,-14.5608854294,13.6788406372,-5.17778158188,0.0389748848975,0.0424135588109,0.0938408002257,1.90999996662,-271.795837402,-313.239105225,9.5625419617,-1.4450187682999989,0.03675365448000001,2.166769027699999,14.831974029499996,-5.360133171079998,-2.7179584502999994
2018-07-21 00:58:29.000,0.157267228736,-0.0808266432806,-0.933359559216,0.0389748848975,0.0424135588109,0.0938408002257,-1.2356379,-0.0196133,8.3356525,0.0,-14.894618988,13.8865232468,-5.42738723755,0.0389748848975,0.0424135588109,0.0938408002257,1.90999996662,-271.795837402,-313.239105225,9.5625419617,-1.4450187682999989,0.03675365448000001,2.1458244323999995,14.854348182699997,-5.374870300289998,-2.7179584502999994
2018-07-21 00:58:29.050,0.165668109019,-0.0797780601598,-0.931125379293,0.197143852711,-0.0114284753799,-0.0540136434138,-1.34351105,-0.2549729,9.03192465,0.0,-14.894618988,13.8865232468,-5.42738723755,0.0389748848975,0.0424135588109,0.0938408002257,2.41999983788,-272.718231201,-311.759796143,9.5625419617,-1.055019378699999,0.12675356864999987,2.0735416412000003,14.938367843599996,-5.485464572909998,-2.727182388300001
2018-07-21 00:58:29.100,0.165668109019,-0.0797780601598,-0.931125379293,0.197143852711,-0.0114284753799,-0.0540136434138,-1.34351105,-0.2549729,9.03192465,0.0,-14.894618988,13.8865232468,-5.42738723755,0.0389748848975,0.0424135588109,0.0938408002257,2.41999983788,-272.718231201,-311.759796143,9.1277160645,-0.1554374695000007,0.6251797676099997,2.020441055299999,14.974575996399997,-5.520791530609999,-2.727182388300001
2018-07-21 00:58:29.150,0.165668109019,-0.0797780601598,-0.931125379293,0.197143852711,-0.0114284753799,-0.0540136434138,-1.34351105,-0.2549729,9.03192465,0.0,-14.894618988,13.8865232468,-5.42738723755,0.0389748848975,0.0424135588109,0.0938408002257,2.95000004768,-274.735839844,-310.263427734,9.1277160645,0.11456298829999767,0.5851798057599997,1.9582767486999995,15.023884773299997,-5.545490264889998,-2.7473583220999984
2018-07-21 00:58:29.200,0.165668109019,-0.0797780601598,-0.931125379293,0.197143852711,-0.0114284753799,-0.0540136434138,-1.34351105,-0.2549729,9.03192465,0.0,-14.894618988,13.8865232468,-5.42738723755,0.0389748848975,0.0424135588109,0.0938408002257,2.95000004768,-274.735839844,-310.263427734,9.1277160645,0.11456298829999767,0.5851798057599997,1.8503484726000003,15.080284118699996,-5.5553574562099985,-2.7473583220999984
2018-07-21 00:58:29.250,0.165668109019,-0.0797780601598,-0.931125379293,0.197143852711,-0.0114284753799,-0.0540136434138,-1.34351105,-0.2549729,9.03192465,0.0,-14.894618988,13.8865232468,-5.42738723755,0.0389748848975,0.0424135588109,0.0938408002257,3.48000001907,-283.096130371,-308.758789062,9.1277160645,0.4145641327000007,0.30517983437000007,1.7125148773000003,15.136757850599997,-5.530506134029999,-2.8309612273999996
2018-07-21 00:58:29.300,0.165668109019,-0.0797780601598,-0.931125379293,0.197143852711,-0.0114284753799,-0.0540136434138,-1.34351105,-0.2549729,9.03192465,0.0,-15.1367578506,14.2874851227,-5.53050613403,0.197143852711,-0.0114284753799,-0.0540136434138,3.48000001907,-283.096130371,-308.758789062,9.1277160645,0.4145641327000007,0.30517983437000007,1.6703166962000005,15.151980400099996,-5.535950660709998,-2.8309612273999996
2018-07-21 00:58:29.350,0.153040374999,-0.121438438645,-0.927332257539,0.134070128202,0.0493500828743,0.132273226976,-1.28467115,-0.36284605,9.7674234,0.0,-15.1367578506,14.2874851227,-5.53050613403,0.197143852711,-0.0114284753799,-0.0540136434138,4.00999975204,-287.627807617,-307.245666504,9.1277160645,0.5845642089999998,-0.20482015610000026,1.5298700333,15.193132400499996,-5.551849365229998,-2.8762779236
2018-07-21 00:58:29.400,0.153040374999,-0.121438438645,-0.927332257539,0.134070128202,0.0493500828743,0.132273226976,-1.28467115,-0.36284605,9.7674234,0.0,-15.1367578506,14.2874851227,-5.53050613403,0.197143852711,-0.0114284753799,-0.0540136434138,4.00999975204,-287.627807617,-307.245666504,9.484375,0.7439842224000017,-5.3509824276,1.4016208649,15.237113952599996,-5.5707659721399985,-2.8762779236
2018-07-21 00:58:29.450,0.153040374999,-0.121438438645,-0.927332257539,0.134070128202,0.0493500828743,0.132273226976,-1.28467115,-0.36284605,9.7674234,0.0,-15.1367578506,14.2874851227,-5.53050613403,0.197143852711,-0.0114284753799,-0.0540136434138,4.53999996185,-299.201385498,-305.749328613,9.484375,1.2539825439000012,-5.92098248005,1.3027887344,15.260010719299997,-5.553225994109998,-2.9920139313000007
2018-07-21 00:58:29.500,0.153040374999,-0.121438438645,-0.927332257539,0.134070128202,0.0493500828743,0.132273226976,-1.28467115,-0.36284605,9.7674234,0.0,-15.3113956451,14.8629751205,-5.57974004745,0.134070128202,0.0493500828743,0.132273226976,4.53999996185,-299.201385498,-305.749328613,9.484375,1.2539825439000012,-5.92098248005,1.2251787186000005,15.293171882599996,-5.565508842469998,-2.9920139313000007
2018-07-21 00:58:29.550,0.153040374999,-0.121438438645,-0.927332257539,0.134070128202,0.0493500828743,0.132273226976,-1.28467115,-0.36284605,9.7674234,0.0,-15.3113956451,14.8629751205,-5.57974004745,0.134070128202,0.0493500828743,0.132273226976,5.06999969482,-313.907440186,-304.219299316,9.484375,2.1739826202000003,-6.43098247051,1.0671892165999992,15.334452629099996,-5.618521690369998,-3.1390743255999993
2018-07-21 00:58:29.600,0.153040374999,-0.121438438645,-0.927332257539,0.134070128202,0.0493500828743,0.132273226976,-1.28467115,-0.36284605,9.7674234,0.0,-15.3113956451,14.8629751205,-5.57974004745,0.134070128202,0.0493500828743,0.132273226976,5.06999969482,-313.907440186,-304.219299316,9.484375,2.1739826202000003,-6.43098247051,0.9656314849999994,15.356805801399997,-5.677719116209998,-3.1390743255999993
2018-07-21 00:58:29.650,0.153040374999,-0.121438438645,-0.927332257539,0.134070128202,0.0493500828743,0.132273226976,-1.28467115,-0.36284605,9.7674234,0.0,-15.3113956451,14.8629751205,-5.57974004745,0.134070128202,0.0493500828743,0.132273226976,5.06999969482,-313.907440186,-304.219299316,9.484375,2.1739826202000003,-6.43098247051,0.9656314849999994,15.356805801399997,-5.677719116209998,-3.1390743255999993
2018-07-21 00:58:29.700,0.153040374999,-0.121438438645,-0.927332257539,0.134070128202,0.0493500828743,0.132273226976,-1.28467115,-0.36284605,9.7674234,0.0,-15.3113956451,14.8629751205,-5.57974004745,0.134070128202,0.0493500828743,0.132273226976,5.60999965668,-322.767456055,-302.697540283,9.484375,3.0739841461000026,-6.86098241806,0.8739852905000003,15.400568962099996,-5.722300529479998,-3.2276744842999996
2018-07-21 00:58:29.750,0.153040374999,-0.121438438645,-0.927332257539,0.134070128202,0.0493500828743,0.132273226976,-1.28467115,-0.36284605,9.7674234,0.0,-15.3113956451,14.8629751205,-5.57974004745,0.134070128202,0.0493500828743,0.132273226976,6.15000009537,-336.318603516,-301.167541504,9.484375,4.0439834595000015,-7.230982422828,0.7072429657000008,15.480655670199997,-5.666183471679998,-3.3631858826
2018-07-21 00:58:29.800,0.153040374999,-0.121438438645,-0.927332257539,0.134070128202,0.0493500828743,0.132273226976,-1.28467115,-0.36284605,9.7674234,0.0,-15.5019283295,15.3295841217,-5.6445889473,0.134070128202,0.0493500828743,0.132273226976,6.15000009537,-336.318603516,-301.167541504,9.484375,4.0439834595000015,-7.220982432365,0.6365423203000002,15.515074729899997,-5.6338143348699985,-3.3631858826
2018-07-21 00:58:29.850,0.140932974376,-0.116885620247,-0.941542825392,-0.219035372138,-0.0513952411711,0.110293231905,-1.4906108,0.24516625,9.3163175,0.0,-15.5019283295,15.3295841217,-5.6445889473,0.134070128202,0.0493500828743,0.132273226976,6.69000005722,-344.91998291,-299.637542725,14.026863098100002,3.0997295379,-8.197958618407,0.5713033676000006,15.563506126399997,-5.672183036799998,-3.449199676500001
2018-07-21 00:58:29.900,0.140932974376,-0.116885620247,-0.941542825392,-0.219035372138,-0.0513952411711,0.110293231905,-1.4906108,0.24516625,9.3163175,0.0,-15.5019283295,15.3295841217,-5.6445889473,0.134070128202,0.0493500828743,0.132273226976,6.69000005722,-344.91998291,-299.637542725,14.026863098100002,3.0997295379,-8.197958618407,0.5067567825000001,15.593226432799996,-5.658526897429998,-3.449199676500001
2018-07-21 00:58:29.950,0.140932974376,-0.116885620247,-0.941542825392,-0.219035372138,-0.0513952411711,0.110293231905,-1.4906108,0.24516625,9.3163175,0.0,-15.5019283295,15.3295841217,-5.6445889473,0.134070128202,0.0493500828743,0.132273226976,6.69000005722,-344.91998291,-299.637542725,14.026863098100002,3.0997295379,-8.197958618407,0.5067567825000001,15.593226432799996,-5.658526897429998,-3.449199676500001
2018-07-21 00:58:30.000,0.140932974376,-0.116885620247,-0.941542825392,-0.219035372138,-0.0513952411711,0.110293231905,-1.4906108,0.24516625,9.3163175,0.0,-15.683763504,15.5836687088,-5.76925086975,-0.219035372138,-0.0513952411711,0.110293231905,7.23999977112,-351.655395508,-298.090484619,14.026863098100002,3.879730224600001,-8.357958614831,0.44274425509999915,15.657815933199997,-5.728413581849998,-3.5165538788
2018-07-21 00:58:30.050,0.140932974376,-0.116885620247,-0.941542825392,-0.219035372138,-0.0513952411711,0.110293231905,-1.4906108,0.24516625,9.3163175,0.0,-15.683763504,15.5836687088,-5.76925086975,-0.219035372138,-0.0513952411711,0.110293231905,7.77999973297,-352.52456665,-296.535095215,14.026863098100002,3.879730224600001,-8.357958614831,0.4126577377,15.701347351099997,-5.795145511629999,-3.5252456664999983
2018-07-21 00:58:30.100,0.140932974376,-0.116885620247,-0.941542825392,-0.219035372138,-0.0513952411711,0.110293231905,-1.4906108,0.24516625,9.3163175,0.0,-15.683763504,15.5836687088,-5.76925086975,-0.219035372138,-0.0513952411711,0.110293231905,7.77999973297,-352.52456665,-296.535095215,14.026863098100002,4.6197299957,-8.317958608274001,0.38254356380000054,15.750494003299996,-5.793661594389998,-3.5252456664999983
2018-07-21 00:58:30.150,0.140932974376,-0.116885620247,-0.941542825392,-0.219035372138,-0.0513952411711,0.110293231905,-1.4906108,0.24516625,9.3163175,0.0,-15.683763504,15.5836687088,-5.76925086975,-0.219035372138,-0.0513952411711,0.110293231905,8.32999992371,-362.311157227,-294.988128662,14.026863098100002,5.449729919400001,-8.207958608870001,0.3156433105000005,15.826356887799996,-5.725170135499998,-3.6231117248999993
2018-07-21 00:58:30.200,0.140932974376,-0.116885620247,-0.941542825392,-0.219035372138,-0.0513952411711,0.110293231905,-1.4906108,0.24516625,9.3163175,0.0,-15.683763504,15.5836687088,-5.76925086975,-0.219035372138,-0.0513952411711,0.110293231905,8.32999992371,-362.311157227,-294.988128662,14.026863098100002,5.449729919400001,-8.207958608870001,0.3156433105000005,15.826356887799996,-5.725170135499998,-3.6231117248999993
2018-07-21 00:58:30.250,0.140932974376,-0.116885620247,-0.941542825392,-0.219035372138,-0.0513952411711,0.110293231905,-1.4906108,0.24516625,9.3163175,0.0,-15.683763504,15.5836687088,-5.76925086975,-0.219035372138,-0.0513952411711,0.110293231905,8.88000011444,-368.341247559,-293.407409668,14.026863098100002,6.199729919400001,-8.05795860291,0.2477025986000001,15.967804908799996,-5.690559864039998,-3.6834125518999983
2018-07-21 00:58:30.300,0.140932974376,-0.116885620247,-0.941542825392,-0.219035372138,-0.0513952411711,0.110293231905,-1.4906108,0.24516625,9.3163175,0.0,-15.9678049088,15.7522974014,-5.69055986404,-0.219035372138,-0.0513952411711,0.110293231905,8.88000011444,-368.341247559,-293.407409668,14.026863098100002,6.199729919400001,-8.05795860291,0.23335838320000057,15.993198394799997,-5.676802158359998,-3.6834125518999983
2018-07-21 00:58:30.350,0.144538735812,-0.053592093936,-0.945214144799,-0.240449249744,-0.0509521625936,-0.174468368292,-1.52003075,-0.1372931,11.6699135,0.0,-15.9678049088,15.7522974014,-5.69055986404,-0.219035372138,-0.0513952411711,0.110293231905,9.4299993515,-392.558105469,-291.818206787,12.305046081500002,5.3830394744999985,-0.39027291536100006,0.17347431179999973,16.061355590799998,-5.595025062559999,-3.9255809783999993
2018-07-21 00:58:30.400,0.144538735812,-0.053592093936,-0.945214144799,-0.240449249744,-0.0509521625936,-0.174468368292,-1.52003075,-0.1372931,11.6699135,0.0,-15.9678049088,15.7522974014,-5.69055986404,-0.219035372138,-0.0513952411711,0.110293231905,9.4299993515,-392.558105469,-291.818206787,12.305046081500002,5.3830394744999985,-0.39027291536100006,0.16057682039999932,16.10439441721979,-5.605123996729998,-3.9255809783999993
2018-07-21 00:58:30.450,0.144538735812,-0.053592093936,-0.945214144799,-0.240449249744,-0.0509521625936,-0.174468368292,-1.52003075,-0.1372931,11.6699135,0.0,-15.9678049088,15.7522974014,-5.69055986404,-0.219035372138,-0.0513952411711,0.110293231905,9.4299993515,-392.558105469,-291.818206787,12.305046081500002,5.3830394744999985,-0.39027291536100006,0.13354969020000063,16.13790462541979,-5.572677135469998,-4.0527801514
2018-07-21 00:58:30.500,0.144538735812,-0.053592093936,-0.945214144799,-0.240449249744,-0.0509521625936,-0.174468368292,-1.52003075,-0.1372931,11.6699135,0.0,-16.2194709778,15.920832634,-5.42614889145,-0.240449249744,-0.0509521625936,-0.174468368292,10.5,-437.345703125,-288.599151611,12.305046081500002,6.213039398199998,-0.24027293920300008,0.03511333470000011,16.272668343019788,-5.308579921719998,-4.373456955000002
2018-07-21 00:58:30.550,0.144538735812,-0.053592093936,-0.945214144799,-0.240449249744,-0.0509521625936,-0.174468368292,-1.52003075,-0.1372931,11.6699135,0.0,-16.2194709778,15.920832634,-5.42614889145,-0.240449249744,-0.0509521625936,-0.174468368292,10.5,-437.345703125,-288.599151611,12.305046081500002,6.213039398199998,-0.24027293920300008,0.03511333470000011,16.272668343019788,-5.308579921719998,-4.373456955000002
2018-07-21 00:58:30.600,0.144538735812,-0.053592093936,-0.945214144799,-0.240449249744,-0.0509521625936,-0.174468368292,-1.52003075,-0.1372931,11.6699135,0.0,-16.2194709778,15.920832634,-5.42614889145,-0.240449249744,-0.0509521625936,-0.174468368292,10.5,-437.345703125,-288.599151611,12.305046081500002,7.153038978599998,-0.11027294397100007,-0.016653060900001293,16.335278562258388,-5.1897978782699985,-4.373456955000002
2018-07-21 00:58:30.650,0.128462335631,-0.0442852815128,-0.943637526733,0.126705259085,-0.120172947645,0.0147003727034,-1.6279039,0.06864655,11.26784085,0.0,-16.2194709778,15.920832634,-5.42614889145,-0.240449249744,-0.0509521625936,-0.174468368292,11.0,-459.730895996,-286.988586426,10.577758789100002,5.9651536941700005,0.780780553813,-0.056760787900000054,16.40225892425839,-5.083519458769998,-4.5973091125
2018-07-21 00:58:30.700,0.128462335631,-0.0442852815128,-0.943637526733,0.126705259085,-0.120172947645,0.0147003727034,-1.6279039,0.06864655,11.26784085,0.0,-16.2194709778,15.920832634,-5.42614889145,-0.240449249744,-0.0509521625936,-0.174468368292,11.0,-459.730895996,-286.988586426,10.577758789100002,5.9651536941700005,0.780780553813,-0.056760787900000054,16.40225892425839,-5.083519458769998,-4.5973091125
2018-07-21 00:58:30.750,0.128462335631,-0.0442852815128,-0.943637526733,0.126705259085,-0.120172947645,0.0147003727034,-1.6279039,0.06864655,11.26784085,0.0,-16.4271526337,16.0552482605,-5.10654258728,0.126705259085,-0.120172947645,0.0147003727034,11.5,-469.446380615,-285.364746094,10.577758789100002,6.74515342714,0.8507804870629999,-0.04805183410000069,16.42640786525839,-5.124178409579998,-4.694463729900001
2018-07-21 00:58:30.800,0.128462335631,-0.0442852815128,-0.943637526733,0.126705259085,-0.120172947645,0.0147003727034,-1.6279039,0.06864655,11.26784085,0.0,-16.4271526337,16.0552482605,-5.10654258728,0.126705259085,-0.120172947645,0.0147003727034,11.5,-469.446380615,-285.364746094,10.577758789100002,6.74515342714,0.8507804870629999,-0.07562255850000099,16.44965272305839,-5.038124561309998,-4.694463729900001
2018-07-21 00:58:30.850,0.128462335631,-0.0442852815128,-0.943637526733,0.126705259085,-0.120172947645,0.0147003727034,-1.6279039,0.06864655,11.26784085,0.0,-16.4271526337,16.0552482605,-5.10654258728,0.126705259085,-0.120172947645,0.0147003727034,11.9899997711,-479.160888672,-283.913330078,10.577758789100002,7.53515338899,1.6707805395130002,-0.11184597020000098,16.690133482187,-4.859110832209998,-4.7916088104
2018-07-21 00:58:30.900,0.128462335631,-0.0442852815128,-0.943637526733,0.126705259085,-0.120172947645,0.0147003727034,-1.6279039,0.06864655,11.26784085,0.0,-16.4271526337,16.0552482605,-5.10654258728,0.126705259085,-0.120172947645,0.0147003727034,11.9899997711,-479.160888672,-283.913330078,10.577758789100002,7.53515338899,1.680780529973,-0.16829586030000243,16.741921812287,-4.592550277709998,-4.7916088104
2018-07-21 00:58:30.950,0.128462335631,-0.0442852815128,-0.943637526733,0.126705259085,-0.120172947645,0.0147003727034,-1.6279039,0.06864655,11.26784085,0.0,-16.4271526337,16.0552482605,-5.10654258728,0.126705259085,-0.120172947645,0.0147003727034,12.4499998093,-506.877716064,-282.38873291,10.577758789100002,8.43515348436,2.330780625343,-0.21241664889999967,16.770345121587,-4.416196346279998,-5.068777084400001
2018-07-21 00:58:31.000,0.128462335631,-0.0442852815128,-0.943637526733,0.126705259085,-0.120172947645,0.0147003727034,-1.6279039,0.06864655,11.26784085,0.0,-16.5843887329,16.2258605957,-4.32574748993,0.126705259085,-0.120172947645,0.0147003727034,12.4499998093,-506.877716064,-282.38873291,10.577758789100002,8.43515348436,2.330780625343,-0.21241664889999967,16.770345121587,-4.416196346279998,-5.068777084400001
2018-07-21 00:58:31.050,0.0934336488756,-0.0406013788387,-0.950059828658,-0.263804674149,-0.185927391052,0.0909710153937,-1.48080415,-0.0392266,13.75872995,0.0,-16.5843887329,16.2258605957,-4.32574748993,0.126705259085,-0.120172947645,0.0147003727034,12.8800001144,-527.505859375,-280.7293396,11.634494781500003,5.23396253581,1.4114114046100001,-0.2720260620000001,16.929356455779,-4.008438110349998,-5.275058746300001
2018-07-21 00:58:31.100,0.0934336488756,-0.0406013788387,-0.950059828658,-0.263804674149,-0.185927391052,0.0909710153937,-1.48080415,-0.0392266,13.75872995,0.0,-16.5843887329,16.2258605957,-4.32574748993,0.126705259085,-0.120172947645,0.0147003727034,12.8800001144,-527.505859375,-280.7293396,11.634494781500003,5.23396253581,1.4114114046100001,-0.2720260620000001,16.929356455779,-4.008438110349998,-5.275058746300001
2018-07-21 00:58:31.150,0.0934336488756,-0.0406013788387,-0.950059828658,-0.263804674149,-0.185927391052,0.0909710153937,-1.48080415,-0.0392266,13.75872995,0.0,-16.5843887329,16.2258605957,-4.32574748993,0.126705259085,-0.120172947645,0.0147003727034,13.279999733,-534.147827148,-279.21472168,12.634494781500003,5.79396247859,2.0914112329499996,-0.2958221434999988,16.943602442779,-3.802414655689998,-5.341478347799999
2018-07-21 00:58:31.200,0.0934336488756,-0.0406013788387,-0.950059828658,-0.263804674149,-0.185927391052,0.0909710153937,-1.48080415,-0.0392266,13.75872995,0.0,-16.6478023529,16.3022594452,-3.62300729752,-0.263804674149,-0.185927391052,0.0909710153937,13.279999733,-534.147827148,-279.21472168,12.634494781500003,5.79396247859,2.0914112329499996,-0.3052406311000002,16.956656336779,-3.6230072975199983,-5.341478347799999
2018-07-21 00:58:31.250,0.0934336488756,-0.0406013788387,-0.950059828658,-0.263804674149,-0.185927391052,0.0909710153937,-1.48080415,-0.0392266,13.75872995,0.0,-16.6478023529,16.3022594452,-3.62300729752,-0.263804674149,-0.185927391052,0.0909710153937,13.279999733,-534.147827148,-279.21472168,12.634494781500003,5.79396247859,2.0914112329499996,-0.3052406311000002,16.956656336779,-3.6230072975199983,-5.341478347799999
2018-07-21 00:58:31.300,0.0934336488756,-0.0406013788387,-0.950059828658,-0.263804674149,-0.185927391052,0.0909710153937,-1.48080415,-0.0392266,13.75872995,0.0,-16.6478023529,16.3022594452,-3.62300729752,-0.263804674149,-0.185927391052,0.0909710153937,13.6399993896,-557.387329102,-277.527130127,12.634494781500003,6.44396257396,2.14141118527,-0.33746147160000106,17.522396862525,-3.306787729259998,-5.573873519900001
2018-07-21 00:58:31.350,0.0934336488756,-0.0406013788387,-0.950059828658,-0.263804674149,-0.185927391052,0.0909710153937,-1.48080415,-0.0392266,13.75872995,0.0,-16.6478023529,16.3022594452,-3.62300729752,-0.263804674149,-0.185927391052,0.0909710153937,13.9600000381,-562.371643066,-276.419677734,14.634494781500003,7.00396251674,6.35141122342,-0.31517601010000007,17.544382870225,-3.038463115689998,-5.623716354399999
2018-07-21 00:58:31.400,0.0934336488756,-0.0406013788387,-0.950059828658,-0.263804674149,-0.185927391052,0.0909710153937,-1.48080415,-0.0392266,13.75872995,0.0,-16.6478023529,16.3022594452,-3.62300729752,-0.263804674149,-0.185927391052,0.0909710153937,13.9600000381,-562.371643066,-276.419677734,14.634494781500003,7.00396251674,6.35141122342,-0.3135490417999982,17.536118328525,-2.862689256669998,-5.623716354399999
2018-07-21 00:58:31.450,0.0934336488756,-0.0406013788387,-0.950059828658,-0.263804674149,-0.185927391052,0.0909710153937,-1.48080415,-0.0392266,13.75872995,0.0,-16.6590156555,16.2794513702,-2.6745660305,-0.263804674149,-0.185927391052,0.0909710153937,14.25,-572.482299805,-274.678314209,14.634494781500003,7.40396261211,6.411411166200001,-0.30796432500000037,17.526814281925,-2.7401778697999983,-5.7248229980000005
2018-07-21 00:58:31.500,0.0567398564828,-0.0255313510091,-0.958997316114,0.0689622834325,-0.140688702464,0.0468639433384,-1.53964405,0.65704555,12.50347875,0.0,-16.6590156555,16.2794513702,-2.6745660305,-0.263804674149,-0.185927391052,0.0909710153937,14.25,-572.482299805,-274.678314209,14.634494781500003,7.40396261211,6.411411166200001,-0.2910366057999987,17.519734203825,-2.617019176479998,-5.7248229980000005
2018-07-21 00:58:31.550,0.0567398564828,-0.0255313510091,-0.958997316114,0.0689622834325,-0.140688702464,0.0468639433384,-1.53964405,0.65704555,12.50347875,0.0,-16.6590156555,16.2794513702,-2.6745660305,-0.263804674149,-0.185927391052,0.0909710153937,14.5,-565.882873535,-273.111297607,17.895683288599997,3.15213441849,8.71430969239,-0.28191280359999915,17.77402162548,-2.4436070918999984,-5.6588287354
2018-07-21 00:58:31.600,0.0567398564828,-0.0255313510091,-0.958997316114,0.0689622834325,-0.140688702464,0.0468639433384,-1.53964405,0.65704555,12.50347875,0.0,-16.6590156555,16.2794513702,-2.6745660305,-0.263804674149,-0.185927391052,0.0909710153937,14.5,-565.882873535,-273.111297607,17.895683288599997,3.15213441849,8.72430992127,-0.28191280359999915,17.77402162548,-2.4436070918999984,-5.6588287354
2018-07-21 00:58:31.650,0.0567398564828,-0.0255313510091,-0.958997316114,0.0689622834325,-0.140688702464,0.0468639433384,-1.53964405,0.65704555,12.50347875,0.0,-16.6590156555,16.2794513702,-2.6745660305,-0.263804674149,-0.185927391052,0.0909710153937,14.7299995422,-560.641296387,-271.353210449,17.895683288599997,3.28213429451,8.61431026459,-0.25081348420000005,17.718874454479998,-2.1484088897699984,-5.606412887600001
2018-07-21 00:58:31.700,0.0567398564828,-0.0255313510091,-0.958997316114,0.0689622834325,-0.140688702464,0.0468639433384,-1.53964405,0.65704555,12.50347875,0.0,-16.5457344055,16.1746711731,-1.92141854763,0.0689622834325,-0.140688702464,0.0468639433384,14.7299995422,-560.641296387,-271.353210449,17.895683288599997,3.28213429451,8.61431026459,-0.22774982450000003,17.701611041979998,-2.0314252376599984,-5.606412887600001
2018-07-21 00:58:31.750,0.0567398564828,-0.0255313510091,-0.958997316114,0.0689622834325,-0.140688702464,0.0468639433384,-1.53964405,0.65704555,12.50347875,0.0,-16.5457344055,16.1746711731,-1.92141854763,0.0689622834325,-0.140688702464,0.0468639433384,14.9299993515,-554.935668945,-269.595947266,17.895683288599997,3.42213439941,8.574310302739999,-0.21163654330000092,17.65753030778,-1.866518735889998,-5.5493564605999985
