%time,field.orientation.x,field.orientation.y,field.orientation.z,field.angular_velocity.x,field.angular_velocity.y,field.angular_velocity.z,field.linear_acceleration.x,field.linear_acceleration.y,field.linear_acceleration.z,field.data,field.twist.linear.x,field.twist.linear.y,field.twist.linear.z,field.twist.angular.x,field.twist.angular.y,field.twist.angular.z,field.alt_error,field.aspd_error,field.xtrack_error,delta_yaw,delta_pitch,delta_roll,delta_x,delta_y,delta_z,delta_roll_airspeed
2018-10-18 15:07:36.500,,,,,,,,,,0.0,-12.9656858444,1.62692046165,0.454217731953,0.0267320387065,-0.0442217811942,0.0158734284341,0.0299999993294,-272.974578857,-40.663936615,190.6589126587,-1.87734533846,1.3705635368859999,-1.5715059042,12.9670534134,0.57200807333,15.0
2018-10-18 15:07:36.550,-0.00117388628801,-0.00352500333573,-0.999483237789,-0.317158132792,-0.0272155050188,0.0329314917326,-0.0392266,0.89240515,12.46425215,0.0,-12.9656858444,1.62692046165,0.454217731953,0.0267320387065,-0.0442217811942,0.0158734284341,0.0,-272.974578857,-39.3864974976,190.6589126587,-2.0673452764699998,3.340563565496,-1.5715059042,12.9670534134,0.57200807333,15.0
2018-10-18 15:07:36.600,-0.00117388628801,-0.00352500333573,-0.999483237789,-0.317158132792,-0.0272155050188,0.0329314917326,-0.0392266,0.89240515,12.46425215,0.0,-12.9656858444,1.62692046165,0.454217731953,0.0267320387065,-0.0442217811942,0.0158734284341,0.0,-272.974578857,-39.3864974976,190.6589126587,-2.0673452764699998,3.340563565496,-1.48656499386,12.9767017365,0.710144460201,15.0
2018-10-18 15:07:36.650,-0.00117388628801,-0.00352500333573,-0.999483237789,-0.317158132792,-0.0272155050188,0.0329314917326,-0.0392266,0.89240515,12.46425215,0.0,-12.9656858444,1.62692046165,0.454217731953,0.0267320387065,-0.0442217811942,0.0158734284341,0.0,-272.974578857,-39.3864974976,190.6589126587,-2.0673452764699998,3.340563565496,-1.46019589901,12.9648418427,0.741010665894,15.0
2018-10-18 15:07:36.700,-0.00117388628801,-0.00352500333573,-0.999483237789,-0.317158132792,-0.0272155050188,0.0329314917326,-0.0392266,0.89240515,12.46425215,0.0,-12.9656858444,1.62692046165,0.454217731953,0.0267320387065,-0.0442217811942,0.0158734284341,-0.070000000298,-267.455688477,-38.0503425598,190.6589126587,-2.28734518588,5.380563288926,-1.35402083397,12.9642477036,0.920593440533,15.0
2018-10-18 15:07:36.750,-0.00117388628801,-0.00352500333573,-0.999483237789,-0.317158132792,-0.0272155050188,0.0329314917326,-0.0392266,0.89240515,12.46425215,0.0,-12.9591464996,1.33425366879,0.922988474369,-0.317158132792,-0.0272155050188,0.0329314917326,-0.140000000596,-267.455688477,-36.7406959534,190.6589126587,-2.50734521449,7.380563288926,-1.35402083397,12.9642477036,0.920593440533,15.0
2018-10-18 15:07:36.800,-0.00140058813934,-0.00943100584446,-0.99961295417,0.241722375154,0.0100612333044,-0.106356807053,0.1569064,0.83356525,11.16977435,0.0,-12.9591464996,1.33425366879,0.922988474369,-0.317158132792,-0.0272155050188,0.0329314917326,-0.140000000596,-267.455688477,-36.7406959534,190.6589126587,-2.50734521449,7.380563288926,14.69910550117,12.956183433499996,0.970056951046002,15.0
2018-10-18 15:07:36.850,-0.00140058813934,-0.00943100584446,-0.99961295417,0.241722375154,0.0100612333044,-0.106356807053,0.1569064,0.83356525,11.16977435,0.0,-12.9591464996,1.33425366879,0.922988474369,-0.317158132792,-0.0272155050188,0.0329314917326,-0.219999998808,-264.929199219,-447.392303467,48.993553161600005,-2.548678115014,6.70382976532,14.7174333334,12.960983276399997,0.994553923607002,16.0
2018-10-18 15:07:36.900,-0.00140058813934,-0.00943100584446,-0.99961295417,0.241722375154,0.0100612333044,-0.106356807053,0.1569064,0.83356525,11.16977435,0.0,-12.9591464996,1.33425366879,0.922988474369,-0.317158132792,-0.0272155050188,0.0329314917326,-0.219999998808,-264.929199219,-447.392303467,48.993553161600005,-2.548678115014,6.70382976532,14.7174333334,12.960983276399997,0.994553923607002,16.0
2018-10-18 15:07:36.950,-0.00140058813934,-0.00943100584446,-0.99961295417,0.241722375154,0.0100612333044,-0.106356807053,0.1569064,0.83356525,11.16977435,0.0,-12.9457921982,1.25931978226,1.11396634579,0.241722375154,0.0100612333044,-0.106356807053,-0.299999982119,-164.929199219,-446.073608398,48.993553161600005,-6.178677991034,34.72382926945,14.74724078178,12.938032150299996,1.089611172680002,16.0
2018-10-18 15:07:37.000,-0.00140058813934,-0.00943100584446,-0.99961295417,0.241722375154,0.0100612333044,-0.106356807053,0.1569064,0.83356525,11.16977435,0.0,-12.9457921982,1.25931978226,1.11396634579,0.241722375154,0.0100612333044,-0.106356807053,-0.299999982119,-164.929199219,-446.073608398,48.993553161600005,-6.178677991034,34.72382926945,14.732172966,12.938533782999997,1.172254443170002,16.0
2018-10-18 15:07:37.050,-0.00140058813934,-0.00943100584446,-0.99961295417,0.241722375154,0.0100612333044,-0.106356807053,0.1569064,0.83356525,11.16977435,0.0,-12.9457921982,1.25931978226,1.11396634579,0.241722375154,0.0100612333044,-0.106356807053,-0.399999976158,-166.304595947,-444.75491333,48.993553161600005,-7.978678181764001,34.643827438349994,14.7114841938,12.930903434799996,1.213181734090002,16.0
2018-10-18 15:07:37.100,-0.00140058813934,-0.00943100584446,-0.99961295417,0.241722375154,0.0100612333044,-0.106356807053,0.1569064,0.83356525,11.16977435,0.0,-12.9457921982,1.25931978226,1.11396634579,0.241722375154,0.0100612333044,-0.106356807053,-0.5,-166.304595947,-443.427734375,48.993553161600005,-7.968677952884001,34.643827438349994,14.61613464355,12.916176795999997,1.279267191890002,16.0
2018-10-18 15:07:37.150,0.00208714574019,-0.103649294784,-0.994607404758,0.902060806751,0.0310279224068,-0.178293555975,-0.10787315,-0.00980665,11.2972608,0.0,-12.9457921982,1.25931978226,1.11396634579,0.241722375154,0.0100612333044,-0.106356807053,-0.5,-166.304595947,-443.427734375,48.993553161600005,-7.968677952884001,34.643827438349994,14.61613464355,12.916176795999997,1.279267191890002,16.0
2018-10-18 15:07:37.200,0.00208714574019,-0.103649294784,-0.994607404758,0.902060806751,0.0310279224068,-0.178293555975,-0.10787315,-0.00980665,11.2972608,0.0,-12.9457921982,1.25931978226,1.11396634579,0.241722375154,0.0100612333044,-0.106356807053,-0.5,-166.304595947,-443.427734375,46.35860443120001,-9.346906647081,23.510582923900003,14.35490369797,12.908152580299996,1.353175640110002,16.0
2018-10-18 15:07:37.250,0.00208714574019,-0.103649294784,-0.994607404758,0.902060806751,0.0310279224068,-0.178293555975,-0.10787315,-0.00980665,11.2972608,0.0,-12.901345253,1.70607471466,1.36943590641,0.902060806751,0.0310279224068,-0.178293555975,-0.610000014305,-163.227462769,-442.109039307,46.35860443120001,-11.186905845951,22.860581398,14.35490369797,12.908152580299996,1.353175640110002,16.0
2018-10-18 15:07:37.300,0.00208714574019,-0.103649294784,-0.994607404758,0.902060806751,0.0310279224068,-0.178293555975,-0.10787315,-0.00980665,11.2972608,0.0,-12.901345253,1.70607471466,1.36943590641,0.902060806751,0.0310279224068,-0.178293555975,-0.610000014305,-163.227462769,-442.109039307,46.35860443120001,-11.176906570751,22.860581398,14.01105451584,12.892641067499996,1.372734665870002,16.0
2018-10-18 15:07:37.350,0.00208714574019,-0.103649294784,-0.994607404758,0.902060806751,0.0310279224068,-0.178293555975,-0.10787315,-0.00980665,11.2972608,0.0,-12.901345253,1.70607471466,1.36943590641,0.902060806751,0.0310279224068,-0.178293555975,-0.610000014305,-163.227462769,-442.109039307,46.35860443120001,-11.176906570751,22.860581398,14.01105451584,12.892641067499996,1.372734665870002,16.0
2018-10-18 15:07:37.400,0.00208714574019,-0.103649294784,-0.994607404758,0.902060806751,0.0310279224068,-0.178293555975,-0.10787315,-0.00980665,11.2972608,0.0,-12.901345253,1.70607471466,1.36943590641,0.902060806751,0.0310279224068,-0.178293555975,-0.729999959469,-163.227462769,-440.790283203,46.35860443120001,-13.046906456351,21.9805841446,13.7565369606,12.877075195299996,1.258637905120002,16.0
2018-10-18 15:07:37.450,0.00208714574019,-0.103649294784,-0.994607404758,0.902060806751,0.0310279224068,-0.178293555975,-0.10787315,-0.00980665,11.2972608,0.0,-12.8585281372,2.38487482071,1.08773362637,0.902060806751,0.0310279224068,-0.178293555975,-0.839999973774,-157.741928101,-439.471588135,46.35860443120001,-13.046906456351,21.9705820084,13.71113538742,12.867540359499996,1.192398786540002,16.0
2018-10-18 15:07:37.500,0.00208714574019,-0.103649294784,-0.994607404758,0.902060806751,0.0310279224068,-0.178293555975,-0.10787315,-0.00980665,11.2972608,0.0,-12.8585281372,2.38487482071,1.08773362637,0.902060806751,0.0310279224068,-0.178293555975,-0.839999973774,-157.741928101,-439.471588135,46.35860443120001,-14.866906151151,21.150582313600005,13.50492763519,12.833267211899997,0.874571204185002,16.0
2018-10-18 15:07:37.550,0.00208714574019,-0.103649294784,-0.994607404758,0.902060806751,0.0310279224068,-0.178293555975,-0.10787315,-0.00980665,11.2972608,0.0,-12.8585281372,2.38487482071,1.08773362637,0.902060806751,0.0310279224068,-0.178293555975,-0.839999973774,-157.741928101,-439.471588135,46.35860443120001,-14.866906151151,21.150582313600005,13.50492763519,12.833267211899997,0.874571204185002,16.0
2018-10-18 15:07:37.600,0.00208714574019,-0.103649294784,-0.994607404758,0.902060806751,0.0310279224068,-0.178293555975,-0.10787315,-0.00980665,11.2972608,0.0,-12.8585281372,2.38487482071,1.08773362637,0.902060806751,0.0310279224068,-0.178293555975,-0.930000007153,-157.741928101,-438.169830322,46.35860443120001,-16.636906608950998,20.500580787700002,13.39842414856,12.784210205099997,0.33340939879400194,16.0
2018-10-18 15:07:37.650,0.00208714574019,-0.103649294784,-0.994607404758,0.902060806751,0.0310279224068,-0.178293555975,-0.10787315,-0.00980665,11.2972608,0.0,-12.8585281372,2.38487482071,1.08773362637,0.902060806751,0.0310279224068,-0.178293555975,-0.979999959469,-158.690261841,-436.859558105,46.35860443120001,-18.246905311951,20.070582389899997,13.39842414856,12.784210205099997,0.33340939879400194,16.0
2018-10-18 15:07:37.700,0.00208714574019,-0.103649294784,-0.994607404758,0.902060806751,0.0310279224068,-0.178293555975,-0.10787315,-0.00980665,11.2972608,0.0,-12.7386198044,2.77135920525,0.0340244732797,0.902060806751,0.0310279224068,-0.178293555975,-0.979999959469,-158.690261841,-435.557769775,46.35860443120001,-18.236906990451,20.040581703199997,13.22864079475,12.738619804399997,0.034024473279701956,16.0
2018-10-18 15:07:37.750,0.0457005885664,-0.261397644415,-0.963842473577,0.0204647034407,0.177258387208,-0.323445647955,-1.2552512,0.67665885,5.88399,0.0,-12.7386198044,2.77135920525,0.0340244732797,0.902060806751,0.0310279224068,-0.178293555975,-0.979999959469,-158.690261841,-435.557769775,46.35860443120001,-14.324790954589998,0.8691101074000009,13.13694286346,12.710107803299996,-0.11994472891099804,16.0
2018-10-18 15:07:37.800,0.0457005885664,-0.261397644415,-0.963842473577,0.0204647034407,0.177258387208,-0.323445647955,-1.2552512,0.67665885,5.88399,0.0,-12.7386198044,2.77135920525,0.0340244732797,0.902060806751,0.0310279224068,-0.178293555975,-0.979999959469,-158.690261841,-435.557769775,44.6783447266,-14.33479118349,0.8191089630000015,13.00372982025,12.644107818599997,-0.583636581897998,16.0
2018-10-18 15:07:37.850,0.0457005885664,-0.261397644415,-0.963842473577,0.0204647034407,0.177258387208,-0.323445647955,-1.2552512,0.67665885,5.88399,0.0,-12.7386198044,2.77135920525,0.0340244732797,0.902060806751,0.0310279224068,-0.178293555975,-0.919999957085,-146.296691895,-434.272918701,44.6783447266,-15.754791259789998,0.0991096497000008,12.8984336853,12.595738410899996,-0.915673077105998,16.0
2018-10-18 15:07:37.900,0.0457005885664,-0.261397644415,-0.963842473577,0.0204647034407,0.177258387208,-0.323445647955,-1.2552512,0.67665885,5.88399,0.0,-12.7386198044,2.77135920525,0.0340244732797,0.902060806751,0.0310279224068,-0.178293555975,-0.919999957085,-146.296691895,-434.272918701,44.6783447266,-15.624792098990001,0.03911018370000008,12.84755325317,12.555799484299996,-1.182766199109998,16.0
2018-10-18 15:07:37.950,0.0457005885664,-0.261397644415,-0.963842473577,0.0204647034407,0.177258387208,-0.323445647955,-1.2552512,0.67665885,5.88399,0.0,-12.5338945389,3.16351270676,-1.34552037716,0.0204647034407,0.177258387208,-0.323445647955,-0.810000002384,-146.296691895,-432.996459961,44.6783447266,-15.454792022689999,-0.6708908081000011,12.82052516937,12.512925147999997,-1.503203988079998,16.0
2018-10-18 15:07:38.000,0.0457005885664,-0.261397644415,-0.963842473577,0.0204647034407,0.177258387208,-0.323445647955,-1.2552512,0.67665885,5.88399,0.0,-12.5338945389,3.16351270676,-1.34552037716,0.0204647034407,0.177258387208,-0.323445647955,-0.810000002384,-146.296691895,-432.996459961,44.6783447266,-15.33479118349,-0.7608909606999994,12.71935033798,12.449492454499996,-1.899976730349998,16.0
2018-10-18 15:07:38.050,0.0457005885664,-0.261397644415,-0.963842473577,0.0204647034407,0.177258387208,-0.323445647955,-1.2552512,0.67665885,5.88399,0.0,-12.5338945389,3.16351270676,-1.34552037716,0.0204647034407,0.177258387208,-0.323445647955,-0.810000002384,-146.296691895,-432.996459961,44.6783447266,-15.33479118349,-0.7608909606999994,12.71935033798,12.449492454499996,-1.899976730349998,16.0
2018-10-18 15:07:38.100,0.0457005885664,-0.261397644415,-0.963842473577,0.0204647034407,0.177258387208,-0.323445647955,-1.2552512,0.67665885,5.88399,0.0,-12.5338945389,3.16351270676,-1.34552037716,0.0204647034407,0.177258387208,-0.323445647955,-0.379999995232,-137.230102539,-430.468811035,44.6783447266,-15.554792404189998,-1.490890502900001,12.50225257874,12.377631187399997,-2.2806112766299984,16.0
2018-10-18 15:07:38.150,0.0842072303668,-0.271898117216,-0.955422273877,-0.072588570416,0.0459705777466,-0.278922796249,-1.5298374,0.32361945,4.67777205,0.0,-12.3228225708,3.78023195267,-2.53671860695,-0.072588570416,0.0459705777466,-0.278922796249,-0.379999995232,-137.230102539,-430.468811035,39.8995895386,-9.6454601287,-3.4130172729999977,12.29149651527,12.335854530299997,-2.4713695049299984,16.0
2018-10-18 15:07:38.200,0.0842072303668,-0.271898117216,-0.955422273877,-0.072588570416,0.0459705777466,-0.278922796249,-1.5298374,0.32361945,4.67777205,0.0,-12.3228225708,3.78023195267,-2.53671860695,-0.072588570416,0.0459705777466,-0.278922796249,-0.379999995232,-137.230102539,-430.468811035,39.8995895386,-9.6954593658,-3.4830169677999976,12.07181310654,12.299779891999997,-2.641527175899998,16.0
2018-10-18 15:07:38.250,0.0842072303668,-0.271898117216,-0.955422273877,-0.072588570416,0.0459705777466,-0.278922796249,-1.5298374,0.32361945,4.67777205,0.0,-12.3228225708,3.78023195267,-2.53671860695,-0.072588570416,0.0459705777466,-0.278922796249,-0.0899999961257,-117.170906067,-429.226226807,39.8995895386,-9.735460281300002,-4.693017959599999,11.93379592896,12.276329040499997,-2.7571244239799984,16.0
2018-10-18 15:07:38.300,0.0842072303668,-0.271898117216,-0.955422273877,-0.072588570416,0.0459705777466,-0.278922796249,-1.5298374,0.32361945,4.67777205,0.0,-12.3228225708,3.78023195267,-2.53671860695,-0.072588570416,0.0459705777466,-0.278922796249,-0.0899999961257,-117.170906067,-429.226226807,39.8995895386,-9.725460052499999,-4.7530174255999995,11.77096986771,12.219989776599997,-3.004096508029998,16.0
2018-10-18 15:07:38.350,0.0842072303668,-0.271898117216,-0.955422273877,-0.072588570416,0.0459705777466,-0.278922796249,-1.5298374,0.32361945,4.67777205,0.0,-12.3228225708,3.78023195267,-2.53671860695,-0.072588570416,0.0459705777466,-0.278922796249,0.219999998808,-117.170906067,-427.992095947,39.8995895386,-9.6854610443,-5.873018264799999,11.69623994827,12.167972564699996,-3.267693996429998,16.0
2018-10-18 15:07:38.400,0.0842072303668,-0.271898117216,-0.955422273877,-0.072588570416,0.0459705777466,-0.278922796249,-1.5298374,0.32361945,4.67777205,0.0,-12.0989704132,4.32178497314,-3.64017868042,-0.072588570416,0.0459705777466,-0.278922796249,0.219999998808,-117.170906067,-427.992095947,39.8995895386,-9.625459671,-5.9030170441,11.681922912600001,12.134156227099997,-3.4464235305799984,16.0
2018-10-18 15:07:38.450,0.0842072303668,-0.271898117216,-0.955422273877,-0.072588570416,0.0459705777466,-0.278922796249,-1.5298374,0.32361945,4.67777205,0.0,-12.0989704132,4.32178497314,-3.64017868042,-0.072588570416,0.0459705777466,-0.278922796249,0.589999973774,-112.349319458,-426.766357422,39.8995895386,-9.4254608154,-6.6730175018,11.64044570923,12.010025978099996,-4.117070674899998,16.0
2018-10-18 15:07:38.500,0.106583203416,-0.278076725586,-0.948302362525,-0.157882004976,-0.0351989679039,-0.0852422788739,-1.75539035,-0.50013915,-0.40207265,0.0,-12.0989704132,4.32178497314,-3.64017868042,-0.072588570416,0.0459705777466,-0.278922796249,0.589999973774,-112.349319458,-426.766357422,39.8995895386,-9.475460052499999,-6.683017730699998,11.541802406310001,11.968167304999996,-4.284817695619998,16.0
2018-10-18 15:07:38.550,0.106583203416,-0.278076725586,-0.948302362525,-0.157882004976,-0.0351989679039,-0.0852422788739,-1.75539035,-0.50013915,-0.40207265,0.0,-12.0989704132,4.32178497314,-3.64017868042,-0.072588570416,0.0459705777466,-0.278922796249,1.02999997139,-112.349319458,-425.5574646,37.1276397705,-6.122288704000001,-7.935400009200002,11.32187271118,11.876876831099997,-4.609766006469998,16.0
2018-10-18 15:07:38.600,0.106583203416,-0.278076725586,-0.948302362525,-0.157882004976,-0.0351989679039,-0.0852422788739,-1.75539035,-0.50013915,-0.40207265,0.0,-11.8548545837,4.73483753204,-4.68929243088,-0.157882004976,-0.0351989679039,-0.0852422788739,1.02999997139,-112.349319458,-425.5574646,37.1276397705,-6.2922887803,-7.955400466900002,11.20771980286,11.833404540999997,-4.755317211149999,16.0
2018-10-18 15:07:38.650,0.106583203416,-0.278076725586,-0.948302362525,-0.157882004976,-0.0351989679039,-0.0852422788739,-1.75539035,-0.50013915,-0.40207265,0.0,-11.8548545837,4.73483753204,-4.68929243088,-0.157882004976,-0.0351989679039,-0.0852422788739,1.02999997139,-112.349319458,-425.5574646,37.1276397705,-6.2922887803,-7.955400466900002,11.20771980286,11.833404540999997,-4.755317211149999,16.0
2018-10-18 15:07:38.700,0.106583203416,-0.278076725586,-0.948302362525,-0.157882004976,-0.0351989679039,-0.0852422788739,-1.75539035,-0.50013915,-0.40207265,0.0,-11.8548545837,4.73483753204,-4.68929243088,-0.157882004976,-0.0351989679039,-0.0852422788739,1.50999999046,-97.1513748169,-424.365570068,37.1276397705,-6.442288398800001,-9.145399093600002,10.91953325272,11.752030372599997,-5.029761791229999,16.0
2018-10-18 15:07:38.750,0.106583203416,-0.278076725586,-0.948302362525,-0.157882004976,-0.0351989679039,-0.0852422788739,-1.75539035,-0.50013915,-0.40207265,0.0,-11.8548545837,4.73483753204,-4.68929243088,-0.157882004976,-0.0351989679039,-0.0852422788739,2.01999998093,-97.1513748169,-423.182128906,37.1276397705,-6.512290000999998,-10.255399704000002,10.91953325272,11.752030372599997,-5.029761791229999,16.0
2018-10-18 15:07:38.800,0.106583203416,-0.278076725586,-0.948302362525,-0.157882004976,-0.0351989679039,-0.0852422788739,-1.75539035,-0.50013915,-0.40207265,0.0,-11.8548545837,4.73483753204,-4.68929243088,-0.157882004976,-0.0351989679039,-0.0852422788739,2.01999998093,-97.1513748169,-423.182128906,37.1276397705,-6.6322889328,-10.275400161700002,10.65756130219,11.674815177899996,-5.317541599269998,16.0
2018-10-18 15:07:38.850,0.106583203416,-0.278076725586,-0.948302362525,-0.157882004976,-0.0351989679039,-0.0852422788739,-1.75539035,-0.50013915,-0.40207265,0.0,-11.6471357346,5.45969867706,-5.41346263885,-0.157882004976,-0.0351989679039,-0.0852422788739,2.01999998093,-97.1513748169,-423.182128906,37.1276397705,-6.6322889328,-10.275400161700002,10.65756130219,11.674815177899996,-5.317541599269998,16.0
2018-10-18 15:07:38.900,0.114049809159,-0.248828970862,-0.953106360105,-0.203453212976,-0.013682698831,-0.17629301548,-2.0986231,1.10815145,7.79628675,0.0,-11.6471357346,5.45969867706,-5.41346263885,-0.157882004976,-0.0351989679039,-0.0852422788739,2.56999993324,-77.7074813843,-422.015594482,37.1276397705,-6.852288246199999,-11.325399398800002,10.410012245179999,11.622171401999996,-5.481441497799998,16.0
2018-10-18 15:07:38.950,0.114049809159,-0.248828970862,-0.953106360105,-0.203453212976,-0.013682698831,-0.17629301548,-2.0986231,1.10815145,7.79628675,0.0,-11.6471357346,5.45969867706,-5.41346263885,-0.157882004976,-0.0351989679039,-0.0852422788739,2.56999993324,-77.7074813843,-422.015594482,34.620376586899994,-5.7514438629,-7.4525051117000025,10.352436542509999,11.614165306099997,-5.511010169979998,16.0
2018-10-18 15:07:39.000,0.114049809159,-0.248828970862,-0.953106360105,-0.203453212976,-0.013682698831,-0.17629301548,-2.0986231,1.10815145,7.79628675,0.0,-11.6471357346,5.45969867706,-5.41346263885,-0.157882004976,-0.0351989679039,-0.0852422788739,3.12999987602,-77.7074813843,-420.849029541,34.620376586899994,-6.141445159900002,-8.632505416900003,10.11099481583,11.573429107699997,-5.633882522579999,16.0
2018-10-18 15:07:39.050,0.114049809159,-0.248828970862,-0.953106360105,-0.203453212976,-0.013682698831,-0.17629301548,-2.0986231,1.10815145,7.79628675,0.0,-11.6471357346,5.45969867706,-5.41346263885,-0.157882004976,-0.0351989679039,-0.0852422788739,3.12999987602,-77.7074813843,-420.849029541,34.620376586899994,-6.141445159900002,-8.632505416900003,10.00788211823,11.548556327799997,-5.7208461761499985,16.0
2018-10-18 15:07:39.100,0.114049809159,-0.248828970862,-0.953106360105,-0.203453212976,-0.013682698831,-0.17629301548,-2.0986231,1.10815145,7.79628675,0.0,-11.5121736526,6.12832736969,-5.85219240189,-0.203453212976,-0.013682698831,-0.17629301548,3.69999980927,-111.37752533,-419.690856934,34.620376586899994,-6.351444244400003,-9.762506485000003,9.87167263031,11.512173652599996,-5.852192401889998,16.0
2018-10-18 15:07:39.150,0.114049809159,-0.248828970862,-0.953106360105,-0.203453212976,-0.013682698831,-0.17629301548,-2.0986231,1.10815145,7.79628675,0.0,-11.5121736526,6.12832736969,-5.85219240189,-0.203453212976,-0.013682698831,-0.17629301548,4.2999997139,-111.37752533,-418.541168213,34.620376586899994,-6.4414443970000015,-10.742506027200001,9.7506146431,11.491444587699997,-5.913204669949998,16.0
2018-10-18 15:07:39.200,0.114049809159,-0.248828970862,-0.953106360105,-0.203453212976,-0.013682698831,-0.17629301548,-2.0986231,1.10815145,7.79628675,0.0,-11.5121736526,6.12832736969,-5.85219240189,-0.203453212976,-0.013682698831,-0.17629301548,4.2999997139,-111.37752533,-418.541168213,34.620376586899994,-6.461444854700002,-10.762506485000003,9.63868808746,11.479003906199997,-5.965141296389998,16.0
2018-10-18 15:07:39.250,0.114049809159,-0.248828970862,-0.953106360105,-0.203453212976,-0.013682698831,-0.17629301548,-2.0986231,1.10815145,7.79628675,0.0,-11.5121736526,6.12832736969,-5.85219240189,-0.203453212976,-0.013682698831,-0.17629301548,4.2999997139,-111.37752533,-418.541168213,34.620376586899994,-6.461444854700002,-10.762506485000003,9.63868808746,11.479003906199997,-5.965141296389998,16.0
2018-10-18 15:07:39.300,0.114049809159,-0.248828970862,-0.953106360105,-0.203453212976,-0.013682698831,-0.17629301548,-2.0986231,1.10815145,7.79628675,0.0,-11.5121736526,6.12832736969,-5.85219240189,-0.203453212976,-0.013682698831,-0.17629301548,4.90000009537,-126.099014282,-417.391571045,34.620376586899994,-5.321445465100002,-11.842505455000001,9.264262676240001,11.434998512299996,-6.129156112669998,16.0
2018-10-18 15:07:39.350,0.131964678221,-0.211255536305,-0.953819931961,-0.224027767777,-0.00158012937754,-0.214619129896,-2.12804305,1.20621795,9.6497436,0.0,-11.5121736526,6.12832736969,-5.85219240189,-0.203453212976,-0.013682698831,-0.17629301548,4.90000009537,-126.099014282,-417.391571045,34.620376586899994,-5.321445465100002,-11.842505455000001,9.264262676240001,11.434998512299996,-6.129156112669998,16.0
2018-10-18 15:07:39.400,0.131964678221,-0.211255536305,-0.953819931961,-0.224027767777,-0.00158012937754,-0.214619129896,-2.12804305,1.20621795,9.6497436,0.0,-11.4358386993,6.9234585762,-6.12334012985,-0.224027767777,-0.00158012937754,-0.214619129896,5.50999975204,-126.099014282,-416.250396729,29.772796630900004,-0.8853702544999997,-7.449352264400002,9.01708316803,11.435175895699997,-6.129332065579998,16.0
2018-10-18 15:07:39.450,0.131964678221,-0.211255536305,-0.953819931961,-0.224027767777,-0.00158012937754,-0.214619129896,-2.12804305,1.20621795,9.6497436,0.0,-11.4358386993,6.9234585762,-6.12334012985,-0.224027767777,-0.00158012937754,-0.214619129896,6.1299996376,-130.500213623,-415.100769043,29.772796630900004,1.034629821800003,-8.4393520355,8.96700811386,11.431901931799997,-6.146929740909998,16.0
2018-10-18 15:07:39.500,0.131964678221,-0.211255536305,-0.953819931961,-0.224027767777,-0.00158012937754,-0.214619129896,-2.12804305,1.20621795,9.6497436,0.0,-11.4358386993,6.9234585762,-6.12334012985,-0.224027767777,-0.00158012937754,-0.214619129896,6.75,-130.500213623,-413.959503174,29.772796630900004,1.024629592900002,-8.4393520355,8.68249988556,11.463703155499996,-6.109374999999998,16.0
2018-10-18 15:07:39.550,0.131964678221,-0.211255536305,-0.953819931961,-0.224027767777,-0.00158012937754,-0.214619129896,-2.12804305,1.20621795,9.6497436,0.0,-11.4358386993,6.9234585762,-6.12334012985,-0.224027767777,-0.00158012937754,-0.214619129896,6.75,-130.500213623,-413.959503174,29.772796630900004,1.024629592900002,-8.4393520355,8.68249988556,11.463703155499996,-6.109374999999998,16.0
2018-10-18 15:07:39.600,0.131964678221,-0.211255536305,-0.953819931961,-0.224027767777,-0.00158012937754,-0.214619129896,-2.12804305,1.20621795,9.6497436,0.0,-11.4717855453,7.51192569733,-6.13385725021,-0.224027767777,-0.00158012937754,-0.214619129896,6.75,-130.500213623,-413.959503174,29.772796630900004,2.9046287537000026,-9.269351959200002,8.527990818020001,11.468070983899997,-6.123748302459998,16.0
2018-10-18 15:07:39.650,0.131964678221,-0.211255536305,-0.953819931961,-0.224027767777,-0.00158012937754,-0.214619129896,-2.12804305,1.20621795,9.6497436,0.0,-11.4717855453,7.51192569733,-6.13385725021,-0.224027767777,-0.00158012937754,-0.214619129896,7.36999988556,-146.871566772,-412.809875488,29.772796630900004,2.9046287537000026,-9.2793521881,8.44206762314,11.474322318999997,-6.134927749629998,16.0
2018-10-18 15:07:39.700,0.142425396464,-0.16260800418,-0.955596361288,-0.209708541632,-0.0730582475662,-0.208366587758,-2.2163029,0.8629852,9.9831697,0.0,-11.4717855453,7.51192569733,-6.13385725021,-0.224027767777,-0.00158012937754,-0.214619129896,7.36999988556,-146.871566772,-412.809875488,29.772796630900004,4.784628868100002,-10.019351959200002,8.29444599152,11.474327087399997,-6.156759262079998,16.0
2018-10-18 15:07:39.750,0.142425396464,-0.16260800418,-0.955596361288,-0.209708541632,-0.0730582475662,-0.208366587758,-2.2163029,0.8629852,9.9831697,0.0,-11.4717855453,7.51192569733,-6.13385725021,-0.224027767777,-0.00158012937754,-0.214619129896,7.98999977112,-146.871566772,-411.660125732,25.0600357056,7.574550628699999,-4.216039657600001,8.14398336411,11.461284637499997,-6.213492393489998,16.0
2018-10-18 15:07:39.800,0.142425396464,-0.16260800418,-0.955596361288,-0.209708541632,-0.0730582475662,-0.208366587758,-2.2163029,0.8629852,9.9831697,0.0,-11.4717855453,7.51192569733,-6.13385725021,-0.224027767777,-0.00158012937754,-0.214619129896,7.98999977112,-146.871566772,-411.660125732,25.0600357056,7.574550628699999,-4.206040382400001,8.0013384819,11.470036506699996,-6.2199296951299985,16.0
2018-10-18 15:07:39.850,0.142425396464,-0.16260800418,-0.955596361288,-0.209708541632,-0.0730582475662,-0.208366587758,-2.2163029,0.8629852,9.9831697,0.0,-11.5060453415,8.13308525085,-6.14156627655,-0.209708541632,-0.0730582475662,-0.208366587758,8.60999965668,-172.962768555,-410.518951416,25.0600357056,9.434550285299999,-4.906040191700001,7.91324424744,11.493911743199996,-6.170972824099998,16.0
2018-10-18 15:07:39.900,0.142425396464,-0.16260800418,-0.955596361288,-0.209708541632,-0.0730582475662,-0.208366587758,-2.2163029,0.8629852,9.9831697,0.0,-11.5060453415,8.13308525085,-6.14156627655,-0.209708541632,-0.0730582475662,-0.208366587758,8.60999965668,-172.962768555,-410.518951416,25.0600357056,9.434550285299999,-4.8960399628,7.8147640228299995,11.520365714999997,-6.108954906459998,16.0
2018-10-18 15:07:39.950,0.142425396464,-0.16260800418,-0.955596361288,-0.209708541632,-0.0730582475662,-0.208366587758,-2.2163029,0.8629852,9.9831697,0.0,-11.5060453415,8.13308525085,-6.14156627655,-0.209708541632,-0.0730582475662,-0.208366587758,9.22999954224,-172.962768555,-409.36932373,25.0600357056,11.174550056449998,-5.386039733900001,7.664826393129999,11.573046684299996,-6.024930000309999,16.0
2018-10-18 15:07:40.000,0.142425396464,-0.16260800418,-0.955596361288,-0.209708541632,-0.0730582475662,-0.208366587758,-2.2163029,0.8629852,9.9831697,0.0,-11.5060453415,8.13308525085,-6.14156627655,-0.209708541632,-0.0730582475662,-0.208366587758,9.22999954224,-172.962768555,-409.36932373,25.0600357056,11.174550056449998,-5.376039505000001,7.618927955629999,11.585619926499996,-5.997282981869998,16.0
2018-10-18 15:07:40.050,0.126572790982,-0.13483324454,-0.956615768902,0.107899859548,-0.176099270582,-0.148938730359,-1.8240369,0.5099458,11.0422879,0.0,-11.5060453415,8.13308525085,-6.14156627655,-0.209708541632,-0.0730582475662,-0.208366587758,9.82999992371,-166.003417969,-408.194061279,25.0600357056,11.18455028533,-5.3560400009,7.523397445680001,11.605031967199997,-5.964263916019998,16.0
2018-10-18 15:07:40.100,0.126572790982,-0.13483324454,-0.956615768902,0.107899859548,-0.176099270582,-0.148938730359,-1.8240369,0.5099458,11.0422879,0.0,-11.6708049774,8.74298095703,-5.76756048203,0.107899859548,-0.176099270582,-0.148938730359,9.82999992371,-166.003417969,-408.194061279,21.4083404541,10.830323696099999,-2.38394641875,7.32206344604,11.650495529199997,-5.838126182559998,16.0
2018-10-18 15:07:40.150,0.126572790982,-0.13483324454,-0.956615768902,0.107899859548,-0.176099270582,-0.148938730359,-1.8240369,0.5099458,11.0422879,0.0,-11.6708049774,8.74298095703,-5.76756048203,0.107899859548,-0.176099270582,-0.148938730359,10.4299993515,-166.003417969,-407.027526855,21.4083404541,12.460323333709999,-3.0239467620700005,7.13104629517,11.722953796399997,-5.554704189299998,16.0
2018-10-18 15:07:40.200,0.126572790982,-0.13483324454,-0.956615768902,0.107899859548,-0.176099270582,-0.148938730359,-1.8240369,0.5099458,11.0422879,0.0,-11.6708049774,8.74298095703,-5.76756048203,0.107899859548,-0.176099270582,-0.148938730359,10.9799995422,-193.999481201,-405.844085693,21.4083404541,12.460323333709999,-2.98394680022,6.91693687439,11.816920280499996,-5.200277328489999,16.0
2018-10-18 15:07:40.250,0.126572790982,-0.13483324454,-0.956615768902,0.107899859548,-0.176099270582,-0.148938730359,-1.8240369,0.5099458,11.0422879,0.0,-11.6708049774,8.74298095703,-5.76756048203,0.107899859548,-0.176099270582,-0.148938730359,10.9799995422,-193.999481201,-405.844085693,21.4083404541,12.460323333709999,-2.98394680022,6.91693687439,11.816920280499996,-5.200277328489999,16.0
2018-10-18 15:07:40.300,0.126572790982,-0.13483324454,-0.956615768902,0.107899859548,-0.176099270582,-0.148938730359,-1.8240369,0.5099458,11.0422879,0.0,-11.6708049774,8.74298095703,-5.76756048203,0.107899859548,-0.176099270582,-0.148938730359,11.5,-193.999481201,-404.65222168,21.4083404541,13.790323495829998,-3.5239467620700005,6.747680664060001,11.909549713099997,-4.909317493439998,16.0
2018-10-18 15:07:40.350,0.126572790982,-0.13483324454,-0.956615768902,0.107899859548,-0.176099270582,-0.148938730359,-1.8240369,0.5099458,11.0422879,0.0,-11.9362449646,9.28141117096,-4.82563734055,0.107899859548,-0.176099270582,-0.148938730359,11.5,-193.999481201,-404.65222168,21.4083404541,13.790323495829998,-3.5239467620700005,6.747680664060001,11.909549713099997,-4.909317493439998,16.0
2018-10-18 15:07:40.400,0.126572790982,-0.13483324454,-0.956615768902,0.107899859548,-0.176099270582,-0.148938730359,-1.8240369,0.5099458,11.0422879,0.0,-11.9362449646,9.28141117096,-4.82563734055,0.107899859548,-0.176099270582,-0.148938730359,11.5,-193.999481201,-404.65222168,21.4083404541,15.110323429069998,-3.833946228010001,6.5981950759900005,12.033718109099997,-4.5738883018499985,16.0
2018-10-18 15:07:40.450,0.0911660478502,-0.0875878789953,-0.962073658387,-0.101753860712,-0.229256957769,-0.101600654423,-1.12776475,0.93163175,13.1212977,0.0,-11.9362449646,9.28141117096,-4.82563734055,0.107899859548,-0.176099270582,-0.148938730359,11.5,-193.999481201,-404.65222168,21.4083404541,15.110323429069998,-3.833946228010001,6.5981950759900005,12.033718109099997,-4.5738883018499985,16.0
2018-10-18 15:07:40.500,0.0911660478502,-0.0875878789953,-0.962073658387,-0.101753860712,-0.229256957769,-0.101600654423,-1.12776475,0.93163175,13.1212977,0.0,-11.9362449646,9.28141117096,-4.82563734055,0.107899859548,-0.176099270582,-0.148938730359,11.9699993134,-228.042221069,-403.451904297,18.6006507874,11.25758433346,0.97382307052,6.447661399839999,12.128769874599996,-4.293872833249998,16.0
2018-10-18 15:07:40.550,0.0911660478502,-0.0875878789953,-0.962073658387,-0.101753860712,-0.229256957769,-0.101600654423,-1.12776475,0.93163175,13.1212977,0.0,-11.9362449646,9.28141117096,-4.82563734055,0.107899859548,-0.176099270582,-0.148938730359,11.9699993134,-228.042221069,-403.451904297,18.6006507874,11.25758433346,0.97382307052,6.447661399839999,12.128769874599996,-4.293872833249998,16.0
2018-10-18 15:07:40.600,0.0911660478502,-0.0875878789953,-0.962073658387,-0.101753860712,-0.229256957769,-0.101600654423,-1.12776475,0.93163175,13.1212977,0.0,-12.1808271408,9.72141933441,-4.09080886841,-0.101753860712,-0.229256957769,-0.101600654423,12.4200000763,-228.042221069,-402.234558105,18.6006507874,12.467584267296001,0.8038229942299999,6.31418037415,12.180507659899996,-4.147714138029999,16.0
2018-10-18 15:07:40.650,0.0911660478502,-0.0875878789953,-0.962073658387,-0.101753860712,-0.229256957769,-0.101600654423,-1.12776475,0.93163175,13.1212977,0.0,-12.1808271408,9.72141933441,-4.09080886841,-0.101753860712,-0.229256957769,-0.101600654423,12.8400001526,-265.593902588,-401.000396729,18.6006507874,12.4775842726605,0.8238224983200002,6.278580665590001,12.180827140799996,-4.090808868409998,16.0
2018-10-18 15:07:40.700,0.0911660478502,-0.0875878789953,-0.962073658387,-0.101753860712,-0.229256957769,-0.101600654423,-1.12776475,0.93163175,13.1212977,0.0,-12.1808271408,9.72141933441,-4.09080886841,-0.101753860712,-0.229256957769,-0.101600654423,12.8400001526,-265.593902588,-401.000396729,18.6006507874,13.68758428101,0.42382287979000033,6.1270351409899995,12.204245567299996,-3.9376604556999983,16.0
2018-10-18 15:07:40.750,0.0911660478502,-0.0875878789953,-0.962073658387,-0.101753860712,-0.229256957769,-0.101600654423,-1.12776475,0.93163175,13.1212977,0.0,-12.1808271408,9.72141933441,-4.09080886841,-0.101753860712,-0.229256957769,-0.101600654423,12.8400001526,-265.593902588,-401.000396729,18.6006507874,13.68758428101,0.42382287979000033,6.1270351409899995,12.204245567299996,-3.9376604556999983,16.0
2018-10-18 15:07:40.800,0.0444623882617,-0.107294260901,-0.959009526017,0.372695684433,-0.30191385746,-0.00205056974664,-0.48052585,-0.1765197,13.54298365,0.0,-12.1808271408,9.72141933441,-4.09080886841,-0.101753860712,-0.229256957769,-0.101600654423,13.25,-265.593902588,-399.799926758,18.6006507874,14.8275842667,-0.1261773109399993,5.9404277802,12.211929321299996,-3.6711585521699983,16.0
2018-10-18 15:07:40.850,0.0444623882617,-0.107294260901,-0.959009526017,0.372695684433,-0.30191385746,-0.00205056974664,-0.48052585,-0.1765197,13.54298365,0.0,-12.2073431015,10.269367218,-3.35725498199,0.372695684433,-0.30191385746,-0.00205056974664,13.6199998856,-292.831787109,-398.616394043,16.585998535199998,11.34104442596,-4.2204475403099995,5.6896257401,12.208850860599997,-3.2968852519999983,16.0
2018-10-18 15:07:40.900,0.0444623882617,-0.107294260901,-0.959009526017,0.372695684433,-0.30191385746,-0.00205056974664,-0.48052585,-0.1765197,13.54298365,0.0,-12.2073431015,10.269367218,-3.35725498199,0.372695684433,-0.30191385746,-0.00205056974664,13.6199998856,-292.831787109,-398.616394043,16.585998535199998,11.34104442596,-4.20044755938,5.5633897780999995,12.194311141999997,-3.138468265529998,16.0
2018-10-18 15:07:40.950,0.0444623882617,-0.107294260901,-0.959009526017,0.372695684433,-0.30191385746,-0.00205056974664,-0.48052585,-0.1765197,13.54298365,0.0,-12.2073431015,10.269367218,-3.35725498199,0.372695684433,-0.30191385746,-0.00205056974664,13.6199998856,-292.831787109,-398.616394043,16.585998535199998,11.34104442596,-4.20044755938,5.5633897780999995,12.194311141999997,-3.138468265529998,16.0
2018-10-18 15:07:41.000,0.0444623882617,-0.107294260901,-0.959009526017,0.372695684433,-0.30191385746,-0.00205056974664,-0.48052585,-0.1765197,13.54298365,0.0,-12.2073431015,10.269367218,-3.35725498199,0.372695684433,-0.30191385746,-0.00205056974664,13.9799995422,-292.831787109,-397.390716553,16.585998535199998,12.24104452133,-5.32044792178,5.342736244199999,12.146900176999996,-2.736877918239998,16.0
2018-10-18 15:07:41.050,0.0444623882617,-0.107294260901,-0.959009526017,0.372695684433,-0.30191385746,-0.00205056974664,-0.48052585,-0.1765197,13.54298365,0.0,-12.2073431015,10.269367218,-3.35725498199,0.372695684433,-0.30191385746,-0.00205056974664,13.9799995422,-292.831787109,-397.390716553,16.585998535199998,12.24104452133,-5.32044792178,5.208253860499999,12.106020927399996,-2.5302107334099984,16.0
2018-10-18 15:07:41.100,0.0444623882617,-0.107294260901,-0.959009526017,0.372695684433,-0.30191385746,-0.00205056974664,-0.48052585,-0.1765197,13.54298365,0.0,-12.0152311325,11.00390625,-2.05479288101,0.372695684433,-0.30191385746,-0.00205056974664,14.279999733,-274.696350098,-396.173248291,16.585998535199998,12.95104408264,-6.62044763567,5.0462408066,12.034389495799996,-2.177557945249998,16.0
2018-10-18 15:07:41.150,0.0444623882617,-0.107294260901,-0.959009526017,0.372695684433,-0.30191385746,-0.00205056974664,-0.48052585,-0.1765197,13.54298365,0.0,-12.0152311325,11.00390625,-2.05479288101,0.372695684433,-0.30191385746,-0.00205056974664,14.5499992371,-274.696350098,-394.981384277,16.585998535199998,13.501044273369999,-8.020447731039999,4.938017845199999,11.994011878999997,-1.944655656809998,16.0
2018-10-18 15:07:41.200,0.0444623882617,-0.107294260901,-0.959009526017,0.372695684433,-0.30191385746,-0.00205056974664,-0.48052585,-0.1765197,13.54298365,0.0,-12.0152311325,11.00390625,-2.05479288101,0.372695684433,-0.30191385746,-0.00205056974664,14.5499992371,-274.696350098,-394.981384277,16.585998535199998,13.49104452133,-8.020447731039999,4.8024787903,11.916395187399996,-1.564497470859998,16.0
2018-10-18 15:07:41.250,0.0444623882617,-0.107294260901,-0.959009526017,0.372695684433,-0.30191385746,-0.00205056974664,-0.48052585,-0.1765197,13.54298365,0.0,-12.0152311325,11.00390625,-2.05479288101,0.372695684433,-0.30191385746,-0.00205056974664,14.75,-299.560180664,-393.79788208,16.585998535199998,13.871044158930001,-9.32044768336,4.7468318939,11.861716270399997,-1.328150510789998,16.0
2018-10-18 15:07:41.300,-0.0255306745953,-0.0552727798294,-0.968944474352,-0.577492535114,-0.317740917206,0.163141742349,-0.00980665,0.6472389,15.85735305,0.0,-12.0152311325,11.00390625,-2.05479288101,0.372695684433,-0.30191385746,-0.00205056974664,14.75,-299.560180664,-393.79788208,18.134891510000003,4.453134298329999,-5.53642010689,4.6884851456,11.792421340899997,-0.846053302287998,16.0
2018-10-18 15:07:41.350,-0.0255306745953,-0.0552727798294,-0.968944474352,-0.577492535114,-0.317740917206,0.163141742349,-0.00980665,0.6472389,15.85735305,0.0,-11.7757863998,11.3218040466,-0.695769846439,-0.577492535114,-0.317740917206,0.163141742349,14.75,-299.560180664,-393.79788208,18.134891510000003,4.453134298329999,-5.53642010689,4.6884851456,11.792421340899997,-0.846053302287998,16.0
2018-10-18 15:07:41.400,-0.0255306745953,-0.0552727798294,-0.968944474352,-0.577492535114,-0.317740917206,0.163141742349,-0.00980665,0.6472389,15.85735305,0.0,-11.7757863998,11.3218040466,-0.695769846439,-0.577492535114,-0.317740917206,0.163141742349,14.8999996185,-299.560180664,-392.622924805,18.134891510000003,4.74313426018,-6.186420083044999,4.675299644500001,11.740464210499997,-0.3465996682639981,16.0
2018-10-18 15:07:41.450,-0.0255306745953,-0.0552727798294,-0.968944474352,-0.577492535114,-0.317740917206,0.163141742349,-0.00980665,0.6472389,15.85735305,0.0,-11.7757863998,11.3218040466,-0.695769846439,-0.577492535114,-0.317740917206,0.163141742349,14.9699993134,-296.807281494,-391.456390381,18.134891510000003,4.583134412770001,-6.556420058011,4.6842479705999995,11.657621383699997,0.33675083518000193,16.0
2018-10-18 15:07:41.500,-0.0255306745953,-0.0552727798294,-0.968944474352,-0.577492535114,-0.317740917206,0.163141742349,-0.00980665,0.6472389,15.85735305,0.0,-11.7757863998,11.3218040466,-0.695769846439,-0.577492535114,-0.317740917206,0.163141742349,14.9699993134,-296.807281494,-391.456390381,18.134891510000003,4.583134412770001,-6.556420058011,4.6842479705999995,11.657621383699997,0.33675083518000193,16.0
2018-10-18 15:07:41.550,-0.0255306745953,-0.0552727798294,-0.968944474352,-0.577492535114,-0.317740917206,0.163141742349,-0.00980665,0.6472389,15.85735305,0.0,-11.7757863998,11.3218040466,-0.695769846439,-0.577492535114,-0.317740917206,0.163141742349,14.9699993134,-296.807281494,-391.456390381,18.134891510000003,4.583134412770001,-6.556420058011,4.6905403137,11.596080779999996,0.686838150024002,16.0
2018-10-18 15:07:41.600,-0.0255306745953,-0.0552727798294,-0.968944474352,-0.577492535114,-0.317740917206,0.163141742349,-0.00980665,0.6472389,15.85735305,0.0,-11.5432081223,11.2890062332,0.855505406857,-0.577492535114,-0.317740917206,0.163141742349,14.9699993134,-296.807281494,-390.298156738,18.134891510000003,4.403134107590001,-6.8864200394593995,4.7161302567,11.526187896699996,0.888980150223002,16.0
2018-10-18 15:07:41.650,-0.0255306745953,-0.0552727798294,-0.968944474352,-0.577492535114,-0.317740917206,0.163141742349,-0.00980665,0.6472389,15.85735305,0.0,-11.5432081223,11.2890062332,0.855505406857,-0.577492535114,-0.317740917206,0.163141742349,14.8999996185,-293.995849609,-389.148498535,18.134891510000003,4.383134126670001,-7.10642004013,4.7161302567,11.526187896699996,0.888980150223002,16.0
2018-10-18 15:07:41.700,-0.06179476099,-0.0405231187028,-0.970991359325,0.010282933712,-0.101186566055,0.0370060503483,0.6668522,0.57859235,11.1207411,0.0,-11.5432081223,11.2890062332,0.855505406857,-0.577492535114,-0.317740917206,0.163141742349,14.8999996185,-293.995849609,-389.148498535,19.3233108521,-0.12979698180999932,-6.4129152298,4.724080085800001,11.417381286599996,1.080320239070002,16.0
2018-10-18 15:07:41.750,-0.06179476099,-0.0405231187028,-0.970991359325,0.010282933712,-0.101186566055,0.0370060503483,0.6668522,0.57859235,11.1207411,0.0,-11.5432081223,11.2890062332,0.855505406857,-0.577492535114,-0.317740917206,0.163141742349,14.8999996185,-293.995849609,-389.148498535,19.3233108521,-0.12979698180999932,-6.4129152298,4.724080085800001,11.417381286599996,1.080320239070002,16.0
2018-10-18 15:07:41.800,-0.06179476099,-0.0405231187028,-0.970991359325,0.010282933712,-0.101186566055,0.0370060503483,0.6668522,0.57859235,11.1207411,0.0,-11.5432081223,11.2890062332,0.855505406857,-0.577492535114,-0.317740917206,0.163141742349,14.8399991989,-293.995849609,-388.007141113,19.3233108521,-0.11979675293000014,-6.732915222647001,4.7410030365,11.331368446399997,1.262980818750002,16.0
2018-10-18 15:07:41.850,-0.06179476099,-0.0405231187028,-0.970991359325,0.010282933712,-0.101186566055,0.0370060503483,0.6668522,0.57859235,11.1207411,0.0,-11.3085193634,11.245891571,1.31788682938,0.010282933712,-0.101186566055,0.0370060503483,14.7599992752,-276.761627197,-386.882873535,19.3233108521,-0.22979688644999996,-7.0229151845,4.7708072662,11.283434867899997,1.388586759570002,16.0
2018-10-18 15:07:41.900,-0.06179476099,-0.0405231187028,-0.970991359325,0.010282933712,-0.101186566055,0.0370060503483,0.6668522,0.57859235,11.1207411,0.0,-11.3085193634,11.245891571,1.31788682938,0.010282933712,-0.101186566055,0.0370060503483,14.7599992752,-276.761627197,-386.882873535,19.3233108521,-0.23979711533000003,-7.0229151845,4.8850622177,11.203070640599996,1.646319389340002,16.0
2018-10-18 15:07:41.950,-0.06179476099,-0.0405231187028,-0.970991359325,0.010282933712,-0.101186566055,0.0370060503483,0.6668522,0.57859235,11.1207411,0.0,-11.3085193634,11.245891571,1.31788682938,0.010282933712,-0.101186566055,0.0370060503483,14.6499996185,-276.761627197,-385.767059326,19.3233108521,-0.4597969055199993,-6.922915220263,4.9590768814,11.176077842699996,1.756378531460002,16.0
2018-10-18 15:07:42.000,-0.06179476099,-0.0405231187028,-0.970991359325,0.010282933712,-0.101186566055,0.0370060503483,0.6668522,0.57859235,11.1207411,0.0,-11.3085193634,11.245891571,1.31788682938,0.010282933712,-0.101186566055,0.0370060503483,14.6499996185,-276.761627197,-385.767059326,19.3233108521,-0.4597969055199993,-6.9129152298,4.9590768814,11.176077842699996,1.756378531460002,16.0
2018-10-18 15:07:42.050,-0.06179476099,-0.0405231187028,-0.970991359325,0.010282933712,-0.101186566055,0.0370060503483,0.6668522,0.57859235,11.1207411,0.0,-11.1422195435,10.922375679,2.00829458237,0.010282933712,-0.101186566055,0.0370060503483,14.5199995041,-259.226226807,-384.659576416,19.3233108521,-0.8297967910799997,-6.432915210727001,5.152079582200001,11.106445312499996,2.274222612380002,16.0
2018-10-18 15:07:42.100,-0.06179476099,-0.0405231187028,-0.970991359325,0.010282933712,-0.101186566055,0.0370060503483,0.6668522,0.57859235,11.1207411,0.0,-11.1422195435,10.922375679,2.00829458237,0.010282933712,-0.101186566055,0.0370060503483,14.5199995041,-259.226226807,-384.659576416,19.3233108521,-0.8297967910799997,-6.432915210727001,5.2632713318,11.051945686299996,2.6061506271400017,16.0
2018-10-18 15:07:42.150,-0.06179476099,-0.0405231187028,-0.970991359325,0.010282933712,-0.101186566055,0.0370060503483,0.6668522,0.57859235,11.1207411,0.0,-11.1422195435,10.922375679,2.00829458237,0.010282933712,-0.101186566055,0.0370060503483,14.3400001526,-259.226226807,-383.560668945,19.3233108521,-1.48979711533,-6.1029152311411,5.334274292,11.018952369699996,2.707651615140002,16.0
2018-10-18 15:07:42.200,-0.0698364064911,0.0111918185635,-0.970021771943,0.152518078685,0.0698149651289,-0.0868686810136,0.97085835,0.73549875,14.38635555,0.0,-11.1422195435,10.922375679,2.00829458237,0.010282933712,-0.101186566055,0.0370060503483,14.3400001526,-259.226226807,-383.560668945,18.9988098145,-3.74776601791,-0.5627692975101,5.4026880264,10.991774558999996,2.753195524220002,16.0
2018-10-18 15:07:42.250,-0.0698364064911,0.0111918185635,-0.970021771943,0.152518078685,0.0698149651289,-0.0868686810136,0.97085835,0.73549875,14.38635555,0.0,-10.9284915924,10.4993724823,2.80716085434,0.152518078685,0.0698149651289,-0.0868686810136,14.1099996567,-229.071044922,-382.470184326,18.9988098145,-4.19776582717,-0.202769309282,5.480909347500001,10.943656921399997,2.7991530895200016,16.0
2018-10-18 15:07:42.300,-0.0698364064911,0.0111918185635,-0.970021771943,0.152518078685,0.0698149651289,-0.0868686810136,0.97085835,0.73549875,14.38635555,0.0,-10.9284915924,10.4993724823,2.80716085434,0.152518078685,0.0698149651289,-0.0868686810136,14.1099996567,-229.071044922,-382.470184326,18.9988098145,-4.19776582717,-0.202769309282,5.480909347500001,10.943656921399997,2.7991530895200016,16.0
2018-10-18 15:07:42.350,-0.0698364064911,0.0111918185635,-0.970021771943,0.152518078685,0.0698149651289,-0.0868686810136,0.97085835,0.73549875,14.38635555,0.0,-10.9284915924,10.4993724823,2.80716085434,0.152518078685,0.0698149651289,-0.0868686810136,13.8800001144,-229.071044922,-381.379760742,18.9988098145,-4.59776568412,-0.192769318819,5.5352878571,10.873608589199996,2.858840465550002,16.0
2018-10-18 15:07:42.400,-0.0698364064911,0.0111918185635,-0.970021771943,0.152518078685,0.0698149651289,-0.0868686810136,0.97085835,0.73549875,14.38635555,0.0,-10.9284915924,10.4993724823,2.80716085434,0.152518078685,0.0698149651289,-0.0868686810136,13.8800001144,-229.071044922,-381.379760742,18.9988098145,-4.59776568412,-0.192769318819,5.5851764679,10.806096076999996,2.8964033126800017,16.0
2018-10-18 15:07:42.450,-0.0698364064911,0.0111918185635,-0.970021771943,0.152518078685,0.0698149651289,-0.0868686810136,0.97085835,0.73549875,14.38635555,0.0,-10.9284915924,10.4993724823,2.80716085434,0.152518078685,0.0698149651289,-0.0868686810136,13.6300001144,-208.045578003,-380.305938721,18.9988098145,-5.037765741339999,-0.272769302129,5.612038612399999,10.773291587799996,2.890863180160002,16.0
2018-10-18 15:07:42.500,-0.0698364064911,0.0111918185635,-0.970021771943,0.152518078685,0.0698149651289,-0.0868686810136,0.97085835,0.73549875,14.38635555,0.0,-10.7447719574,10.374080658,2.85543060303,0.152518078685,0.0698149651289,-0.0868686810136,13.6300001144,-208.045578003,-380.305938721,18.9988098145,-5.037765741339999,-0.272769302129,5.647371292100001,10.709566116299996,2.8130469322200016,16.0
2018-10-18 15:07:42.550,-0.0795738004932,-0.0255057475144,-0.967763818241,0.217630237341,0.0272054355592,0.0242673158646,0.46091255,0.65704555,8.46313895,0.0,-10.7447719574,10.374080658,2.85543060303,0.152518078685,0.0698149651289,-0.0868686810136,13.6300001144,-208.045578003,-380.305938721,18.9988098145,-5.037765741339999,-0.272769302129,5.647371292100001,10.709566116299996,2.8130469322200016,16.0
2018-10-18 15:07:42.600,-0.0795738004932,-0.0255057475144,-0.967763818241,0.217630237341,0.0272054355592,0.0242673158646,0.46091255,0.65704555,8.46313895,0.0,-10.7447719574,10.374080658,2.85543060303,0.152518078685,0.0698149651289,-0.0868686810136,13.3899993896,-208.045578003,-379.23236084,18.0519866943,-5.447649002070001,-4.832623273132,5.688038826,10.658446311999997,2.6382079124500017,16.0
2018-10-18 15:07:42.650,-0.0795738004932,-0.0255057475144,-0.967763818241,0.217630237341,0.0272054355592,0.0242673158646,0.46091255,0.65704555,8.46313895,0.0,-10.7447719574,10.374080658,2.85543060303,0.152518078685,0.0698149651289,-0.0868686810136,13.1700000763,-184.381286621,-378.17565918,18.0519866943,-5.667649030680001,-4.922623276708,5.7428359985,10.612996101399997,2.522402286530002,16.0
2018-10-18 15:07:42.700,-0.0795738004932,-0.0255057475144,-0.967763818241,0.217630237341,0.0272054355592,0.0242673158646,0.46091255,0.65704555,8.46313895,0.0,-10.6091175079,10.2392501831,2.51285862923,0.217630237341,0.0272054355592,0.0242673158646,13.1700000763,-184.381286621,-378.17565918,18.0519866943,-5.667649030680001,-4.922623276708,5.760749816900001,10.609117507899997,2.512858629230002,16.0
2018-10-18 15:07:42.750,-0.0795738004932,-0.0255057475144,-0.967763818241,0.217630237341,0.0272054355592,0.0242673158646,0.46091255,0.65704555,8.46313895,0.0,-10.6091175079,10.2392501831,2.51285862923,0.217630237341,0.0272054355592,0.0242673158646,12.9600000381,-184.381286621,-377.119018555,18.0519866943,-6.007649183270001,-4.752623289821,5.853143692,10.552135467499996,2.8711781501800018,16.0
2018-10-18 15:07:42.800,-0.0795738004932,-0.0255057475144,-0.967763818241,0.217630237341,0.0272054355592,0.0242673158646,0.46091255,0.65704555,8.46313895,0.0,-10.6091175079,10.2392501831,2.51285862923,0.217630237341,0.0272054355592,0.0242673158646,12.9600000381,-184.381286621,-377.119018555,18.0519866943,-6.007649183270001,-4.752623289821,5.9208488464,10.526245117199997,3.018106222150002,16.0
2018-10-18 15:07:42.850,-0.0795738004932,-0.0255057475144,-0.967763818241,0.217630237341,0.0272054355592,0.0242673158646,0.46091255,0.65704555,8.46313895,0.0,-10.6091175079,10.2392501831,2.51285862923,0.217630237341,0.0272054355592,0.0242673158646,12.9600000381,-184.381286621,-377.119018555,18.0519866943,-6.007649183270001,-4.752623289821,5.9208488464,10.526245117199997,3.018106222150002,16.0
2018-10-18 15:07:42.900,-0.0664816062554,0.0142237400312,-0.96843052026,-0.140186801553,0.137309685349,-0.0316546484828,1.0395049,0.9610517,12.3759923,0.0,-10.6091175079,10.2392501831,2.51285862923,0.217630237341,0.0272054355592,0.0242673158646,12.7299995422,-171.492004395,-376.070800781,18.0519866943,-6.747649073600001,-4.512623310087,5.987061500499999,10.508357047999997,3.076101779940002,16.0
2018-10-18 15:07:42.950,-0.0664816062554,0.0142237400312,-0.96843052026,-0.140186801553,0.137309685349,-0.0316546484828,1.0395049,0.9610517,12.3759923,0.0,-10.6091175079,10.2392501831,2.51285862923,0.217630237341,0.0272054355592,0.0242673158646,12.4699993134,-171.492004395,-375.031097412,18.163799285899998,-6.922639727591999,0.599037826061,6.083165168760001,10.487604141199997,3.117342948910002,16.0
2018-10-18 15:07:43.000,-0.0664816062554,0.0142237400312,-0.96843052026,-0.140186801553,0.137309685349,-0.0316546484828,1.0395049,0.9610517,12.3759923,0.0,-10.4889736176,9.89675807953,3.13017058372,-0.140186801553,0.137309685349,-0.0316546484828,12.4699993134,-171.492004395,-375.031097412,18.163799285899998,-6.922639727591999,0.609037816524,6.12432956696,10.474073409999997,3.1765627861000016,16.0
2018-10-18 15:07:43.050,-0.0664816062554,0.0142237400312,-0.96843052026,-0.140186801553,0.137309685349,-0.0316546484828,1.0395049,0.9610517,12.3759923,0.0,-10.4889736176,9.89675807953,3.13017058372,-0.140186801553,0.137309685349,-0.0316546484828,12.1899995804,-156.120880127,-373.982910156,18.163799285899998,-7.5326397418969995,0.839037895204,6.18171215057,10.450906753499996,3.1594343185400016,16.0
2018-10-18 15:07:43.100,-0.0664816062554,0.0142237400312,-0.96843052026,-0.140186801553,0.137309685349,-0.0316546484828,1.0395049,0.9610517,12.3759923,0.0,-10.4889736176,9.89675807953,3.13017058372,-0.140186801553,0.137309685349,-0.0316546484828,12.1899995804,-156.120880127,-373.982910156,18.163799285899998,-7.5326397418969995,0.839037895204,6.1843872070299994,10.429219245899997,3.103053092960002,16.0
2018-10-18 15:07:43.150,-0.0664816062554,0.0142237400312,-0.96843052026,-0.140186801553,0.137309685349,-0.0316546484828,1.0395049,0.9610517,12.3759923,0.0,-10.4889736176,9.89675807953,3.13017058372,-0.140186801553,0.137309685349,-0.0316546484828,11.9099998474,-156.120880127,-372.942993164,18.163799285899998,-8.022639721631,0.8990378379839999,6.207314491269999,10.403997421299996,2.980641603470002,16.0
2018-10-18 15:07:43.200,-0.0664816062554,0.0142237400312,-0.96843052026,-0.140186801553,0.137309685349,-0.0316546484828,1.0395049,0.9610517,12.3759923,0.0,-10.378698349,9.78896808624,2.76374721527,-0.140186801553,0.137309685349,-0.0316546484828,11.9099998474,-156.120880127,-372.942993164,18.163799285899998,-8.022639721631,0.8990378379839999,6.20007228851,10.391074180599997,2.832097530360002,16.0
2018-10-18 15:07:43.250,-0.0664816062554,0.0142237400312,-0.96843052026,-0.140186801553,0.137309685349,-0.0316546484828,1.0395049,0.9610517,12.3759923,0.0,-10.378698349,9.78896808624,2.76374721527,-0.140186801553,0.137309685349,-0.0316546484828,11.6399993896,-145.050430298,-371.903259277,18.163799285899998,-8.312639713287,0.809037804604,6.206133842470001,10.354499816899997,2.541940212250002,16.0
2018-10-18 15:07:43.300,-0.0664816062554,0.0142237400312,-0.96843052026,-0.140186801553,0.137309685349,-0.0316546484828,1.0395049,0.9610517,12.3759923,0.0,-10.378698349,9.78896808624,2.76374721527,-0.140186801553,0.137309685349,-0.0316546484828,11.6399993896,-145.050430298,-371.903259277,18.163799285899998,-8.312639713287,0.809037804604,6.206133842470001,10.354499816899997,2.541940212250002,16.0
2018-10-18 15:07:43.350,-0.0560578934121,-0.040910208615,-0.966649710656,0.363206654787,0.0702517703176,-0.0047577386722,0.14709975,0.3726527,5.8055368,0.0,-10.378698349,9.78896808624,2.76374721527,-0.140186801553,0.137309685349,-0.0316546484828,11.4099998474,-145.050430298,-370.863372803,18.163799285899998,-8.532639741897,0.579037845135,6.17973041534,10.302000045799996,2.3812620639800017,16.0
2018-10-18 15:07:43.400,-0.0560578934121,-0.040910208615,-0.966649710656,0.363206654787,0.0702517703176,-0.0047577386722,0.14709975,0.3726527,5.8055368,0.0,-10.378698349,9.78896808624,2.76374721527,-0.140186801553,0.137309685349,-0.0316546484828,11.4099998474,-145.050430298,-370.863372803,17.1141014099,-5.800425767897,-5.320943295959,6.11568164825,10.226475715599996,2.2904145717600017,16.0
2018-10-18 15:07:43.450,-0.0560578934121,-0.040910208615,-0.966649710656,0.363206654787,0.0702517703176,-0.0047577386722,0.14709975,0.3726527,5.8055368,0.0,-10.378698349,9.78896808624,2.76374721527,-0.140186801553,0.137309685349,-0.0316546484828,11.2100000381,-34.4799041748,-369.832092285,17.1141014099,-6.090425729750001,-5.990943282846,6.11568164825,10.226475715599996,2.2904145717600017,16.0
2018-10-18 15:07:43.500,-0.0560578934121,-0.040910208615,-0.966649710656,0.363206654787,0.0702517703176,-0.0047577386722,0.14709975,0.3726527,5.8055368,0.0,-10.1880750656,9.9047832489,2.26342844963,0.363206654787,0.0702517703176,-0.0047577386722,11.2100000381,-34.4799041748,-369.832092285,17.1141014099,-6.090425729750001,-5.990943282846,6.095216751100001,10.188075065599996,2.263428449630002,16.0
2018-10-18 15:07:43.550,-0.0560578934121,-0.040910208615,-0.966649710656,0.363206654787,0.0702517703176,-0.0047577386722,0.14709975,0.3726527,5.8055368,0.0,-10.1880750656,9.9047832489,2.26342844963,0.363206654787,0.0702517703176,-0.0047577386722,11.0199995041,-34.4799041748,-368.809265137,17.1141014099,-6.43042576313,-6.410943269733,6.07266426086,10.107135772699996,2.3088965416000016,16.0
2018-10-18 15:07:43.600,-0.0560578934121,-0.040910208615,-0.966649710656,0.363206654787,0.0702517703176,-0.0047577386722,0.14709975,0.3726527,5.8055368,0.0,-10.1880750656,9.9047832489,2.26342844963,0.363206654787,0.0702517703176,-0.0047577386722,11.0199995041,-34.4799041748,-368.809265137,17.1141014099,-6.43042576313,-6.410943269733,6.08685779572,10.071041107199996,2.3796522617300018,16.0
2018-10-18 15:07:43.650,-0.0560578934121,-0.040910208615,-0.966649710656,0.363206654787,0.0702517703176,-0.0047577386722,0.14709975,0.3726527,5.8055368,0.0,-10.1880750656,9.9047832489,2.26342844963,0.363206654787,0.0702517703176,-0.0047577386722,10.8199996948,-7.12070465088,-367.794830322,17.1141014099,-6.93042576313,-6.660943269733,6.110284805299999,10.060926437399996,2.3741943836200017,16.0
2018-10-18 15:07:43.700,-0.0560578934121,-0.040910208615,-0.966649710656,0.363206654787,0.0702517703176,-0.0047577386722,0.14709975,0.3726527,5.8055368,0.0,-10.0484571457,9.85344791412,2.28618097305,0.363206654787,0.0702517703176,-0.0047577386722,10.8199996948,-7.12070465088,-367.794830322,17.1141014099,-6.93042576313,-6.660943269733,6.145574569700001,10.045265197799996,2.3160448074300017,16.0
2018-10-18 15:07:43.750,-0.0560578934121,-0.040910208615,-0.966649710656,0.363206654787,0.0702517703176,-0.0047577386722,0.14709975,0.3726527,5.8055368,0.0,-10.0484571457,9.85344791412,2.28618097305,0.363206654787,0.0702517703176,-0.0047577386722,10.6199998856,-7.12070465088,-366.797332764,17.1141014099,-7.3004257679,-6.520943284038,6.177605628969999,10.039154052699997,2.151932716370002,16.0
2018-10-18 15:07:43.800,-0.0344521033064,-0.0303123532903,-0.972154750452,0.0528507754207,0.167599469423,-0.0315270498395,0.40207265,1.0002783,8.237586,0.0,-10.0484571457,9.85344791412,2.28618097305,0.363206654787,0.0702517703176,-0.0047577386722,10.6199998856,-7.12070465088,-366.797332764,19.286491394000002,-5.28118777275,-4.6641222238580005,6.18891620636,10.029778480499996,2.0212235450700016,16.0
2018-10-18 15:07:43.850,-0.0344521033064,-0.0303123532903,-0.972154750452,0.0528507754207,0.167599469423,-0.0315270498395,0.40207265,1.0002783,8.237586,0.0,-10.0484571457,9.85344791412,2.28618097305,0.363206654787,0.0702517703176,-0.0047577386722,10.4200000763,-7.39192962646,-365.799804688,19.286491394000002,-5.42118763923,-4.554122209553,6.21340084076,10.024585723899996,1.692158699040002,16.0
