%time,field.orientation.x,field.orientation.y,field.orientation.z,field.angular_velocity.x,field.angular_velocity.y,field.angular_velocity.z,field.linear_acceleration.x,field.linear_acceleration.y,field.linear_acceleration.z,field.data,field.twist.linear.x,field.twist.linear.y,field.twist.linear.z,field.twist.angular.x,field.twist.angular.y,field.twist.angular.z,field.alt_error,field.aspd_error,field.xtrack_error,delta_yaw,delta_pitch,delta_roll,delta_x,delta_y,delta_z,delta_roll_airspeed
2018-09-11 18:27:30.450,-0.0183688546865,-0.107483858993,-0.993491341616,0.779634237289,0.0806980803609,-0.0547380000353,1.6082906,0.91201845,11.4345539,0.0,,,,,,,,,,,,,-13.328098773979999,9.648238182099998,1.3248801231399985,
2018-09-11 18:27:30.500,-0.0183688546865,-0.107483858993,-0.993491341616,0.779634237289,0.0806980803609,-0.0547380000353,1.6082906,0.91201845,11.4345539,0.0,,,,,,,-0.539999961853,-382.258422852,-35.3221626282,178.0192489624,-6.37579846382,27.4820079803,-1.363692064980106,4.098842620799999,1.32627344131,15.0
2018-09-11 18:27:30.550,-0.0183688546865,-0.107483858993,-0.993491341616,0.779634237289,0.0806980803609,-0.0547380000353,1.6082906,0.91201845,11.4345539,0.0,,,,,,,-0.539999961853,-382.258422852,-35.3221626282,178.0192489624,-6.37579846382,27.4820079803,-1.363692064980106,4.098842620799999,1.32627344131,15.0
2018-09-11 18:27:30.600,-0.0183688546865,-0.107483858993,-0.993491341616,0.779634237289,0.0806980803609,-0.0547380000353,1.6082906,0.91201845,11.4345539,0.0,-20.0627937317,1.45175349712,1.36563920975,0.779634237289,0.0806980803609,-0.0547380000353,-0.539999961853,-382.258422852,-35.3221626282,178.0192489624,-6.34579825401,27.4820079803,-1.4924301106701061,4.0420036316,1.3803447485,15.0
2018-09-11 18:27:30.650,-0.0183688546865,-0.107483858993,-0.993491341616,0.779634237289,0.0806980803609,-0.0547380000353,1.6082906,0.91201845,11.4345539,0.0,-20.0627937317,1.45175349712,1.36563920975,0.779634237289,0.0806980803609,-0.0547380000353,-0.680000007153,-382.258422852,-78.4018630981,-47.9807510376,-8.6857984066,-57.397989273099995,-1.6604470212201061,3.971759796099999,1.40805900097,16.0
2018-09-11 18:27:30.700,-0.0175300455912,-0.207109416288,-0.976846386447,0.651076793671,0.0286432113498,-0.238494217396,-0.53936575,0.6864655,11.13054775,0.0,-20.0627937317,1.45175349712,1.36563920975,0.779634237289,0.0806980803609,-0.0547380000353,-0.819999992847,-292.840759277,-78.535446167,-50.1023101807,-10.029269456864,-68.9714622498,-1.887532492380106,3.856958389300001,1.33735239506,16.0
2018-09-11 18:27:30.750,-0.0175300455912,-0.207109416288,-0.976846386447,0.651076793671,0.0286432113498,-0.238494217396,-0.53936575,0.6864655,11.13054775,0.0,-20.0627937317,1.45175349712,1.36563920975,0.779634237289,0.0806980803609,-0.0547380000353,-0.819999992847,-292.840759277,-78.535446167,-50.1023101807,-10.049269914624,-68.9714622498,-1.887532492380106,3.856958389300001,1.33735239506,16.0
2018-09-11 18:27:30.800,-0.0175300455912,-0.207109416288,-0.976846386447,0.651076793671,0.0286432113498,-0.238494217396,-0.53936575,0.6864655,11.13054775,0.0,-19.7990055084,2.00543928146,1.2914056778,0.651076793671,0.0286432113498,-0.238494217396,-0.819999992847,-292.840759277,-78.535446167,-50.1023101807,-10.049269914624,-68.9714622498,-2.0054422814601063,3.7990055084000005,1.2914056778,16.0
2018-09-11 18:27:30.850,-0.0175300455912,-0.207109416288,-0.976846386447,0.651076793671,0.0286432113498,-0.238494217396,-0.53936575,0.6864655,11.13054775,0.0,-19.7990055084,2.00543928146,1.2914056778,0.651076793671,0.0286432113498,-0.238494217396,-0.949999988079,-292.840759277,-78.7024230957,-50.1023101807,-12.389270067174,-68.9714622498,-2.246710201000106,3.6427459716999984,1.25268745422,16.0
2018-09-11 18:27:30.900,-0.0175300455912,-0.207109416288,-0.976846386447,0.651076793671,0.0286432113498,-0.238494217396,-0.53936575,0.6864655,11.13054775,0.0,-19.7990055084,2.00543928146,1.2914056778,0.651076793671,0.0286432113498,-0.238494217396,-0.949999988079,-292.840759277,-78.7024230957,-50.1023101807,-12.389270067174,-68.9714622498,-2.246710201000106,3.6427459716999984,1.25268745422,16.0
2018-09-11 18:27:30.950,-0.0175300455912,-0.207109416288,-0.976846386447,0.651076793671,0.0286432113498,-0.238494217396,-0.53936575,0.6864655,11.13054775,0.0,-19.7990055084,2.00543928146,1.2914056778,0.651076793671,0.0286432113498,-0.238494217396,-1.09000003338,-275.318328857,-78.9027938843,-50.1023101807,-14.759269952774,-68.9714622498,-2.332647224170106,3.5334358214999995,1.23270332813,16.0
2018-09-11 18:27:31.000,-0.0175300455912,-0.207109416288,-0.976846386447,0.651076793671,0.0286432113498,-0.238494217396,-0.53936575,0.6864655,11.13054775,0.0,-19.4564857483,2.33418273926,1.22265613079,0.651076793671,0.0286432113498,-0.238494217396,-1.09000003338,-275.318328857,-78.9027938843,-50.1023101807,-14.779269456874,-68.9714622498,-2.334185739260106,3.4564857483000004,1.22265613079,16.0
2018-09-11 18:27:31.050,-0.0175300455912,-0.207109416288,-0.976846386447,0.651076793671,0.0286432113498,-0.238494217396,-0.53936575,0.6864655,11.13054775,0.0,-19.4564857483,2.33418273926,1.22265613079,0.651076793671,0.0286432113498,-0.238494217396,-1.09000003338,-275.318328857,-78.9027938843,-50.1023101807,-14.779269456874,-68.9714622498,-2.334185739260106,3.4564857483000004,1.22265613079,16.0
2018-09-11 18:27:31.100,-0.0175300455912,-0.207109416288,-0.976846386447,0.651076793671,0.0286432113498,-0.238494217396,-0.53936575,0.6864655,11.13054775,0.0,-19.4564857483,2.33418273926,1.22265613079,0.651076793671,0.0286432113498,-0.238494217396,-1.24000000954,-275.318328857,-79.1143035889,-50.1023101807,-17.039268732074003,-68.9614639282,-2.2535106141401062,3.337556839000001,1.25406730175,16.0
2018-09-11 18:27:31.150,0.0172594549878,0.0286968998555,-0.997263846699,-1.19778990746,0.143392503262,-0.0508659221232,-1.01008495,0.392266,10.2381426,0.0,-19.4564857483,2.33418273926,1.22265613079,0.651076793671,0.0286432113498,-0.238494217396,-1.24000000954,-275.318328857,-79.1143035889,-50.1023101807,-17.039268732074003,-68.9614639282,-2.2535106141401062,3.337556839000001,1.25406730175,16.0
2018-09-11 18:27:31.200,0.0172594549878,0.0286968998555,-0.997263846699,-1.19778990746,0.143392503262,-0.0508659221232,-1.01008495,0.392266,10.2381426,0.0,-19.4564857483,2.33418273926,1.22265613079,0.651076793671,0.0286432113498,-0.238494217396,-1.38999998569,-252.739532471,-79.3146743774,-51.6141662598,-16.764071464569998,-41.54660820964,-2.078907867170106,3.2390060425000016,1.27064943314,16.0
2018-09-11 18:27:31.250,0.0172594549878,0.0286968998555,-0.997263846699,-1.19778990746,0.143392503262,-0.0508659221232,-1.01008495,0.392266,10.2381426,0.0,-19.4564857483,2.33418273926,1.22265613079,0.651076793671,0.0286432113498,-0.238494217396,-1.54999995232,-252.739532471,-79.5039215088,-51.6141662598,-18.97407054897,-41.53660988804,-1.9821329314501062,3.1972885132,1.23011350632,16.0
2018-09-11 18:27:31.300,0.0172594549878,0.0286968998555,-0.997263846699,-1.19778990746,0.143392503262,-0.0508659221232,-1.01008495,0.392266,10.2381426,0.0,-19.137014389,1.8239672184,1.08417069912,-1.19778990746,0.143392503262,-0.0508659221232,-1.54999995232,-252.739532471,-79.5039215088,-51.6141662598,-18.97407054897,-41.53660988804,-1.9821329314501062,3.1972885132,1.23011350632,16.0
2018-09-11 18:27:31.350,0.0172594549878,0.0286968998555,-0.997263846699,-1.19778990746,0.143392503262,-0.0508659221232,-1.01008495,0.392266,10.2381426,0.0,-19.137014389,1.8239672184,1.08417069912,-1.19778990746,0.143392503262,-0.0508659221232,-1.70999991894,-237.261581421,-79.6375045776,-51.6141662598,-20.98407077787,-41.48660683634,-1.7366512019401061,3.0938110352000017,0.949773311615,16.0
2018-09-11 18:27:31.400,0.0172594549878,0.0286968998555,-0.997263846699,-1.19778990746,0.143392503262,-0.0508659221232,-1.01008495,0.392266,10.2381426,0.0,-19.137014389,1.8239672184,1.08417069912,-1.19778990746,0.143392503262,-0.0508659221232,-1.70999991894,-237.261581421,-79.6375045776,-51.6141662598,-20.95407009127,-41.42660927774,-1.7366512019401061,3.0938110352000017,0.949773311615,16.0
2018-09-11 18:27:31.450,0.0172594549878,0.0286968998555,-0.997263846699,-1.19778990746,0.143392503262,-0.0508659221232,-1.01008495,0.392266,10.2381426,0.0,-19.137014389,1.8239672184,1.08417069912,-1.19778990746,0.143392503262,-0.0508659221232,-1.84999990463,-237.261581421,-79.7710876465,-51.6141662598,-21.66407108307,-41.386608362240004,-1.466660996180106,2.9906578064000016,0.52256321907,16.0
2018-09-11 18:27:31.500,0.0172594549878,0.0286968998555,-0.997263846699,-1.19778990746,0.143392503262,-0.0508659221232,-1.01008495,0.392266,10.2381426,0.0,-19.137014389,1.8239672184,1.08417069912,-1.19778990746,0.143392503262,-0.0508659221232,-1.84999990463,-237.261581421,-79.7710876465,-51.6141662598,-21.66407108307,-41.29660820964,-1.466660996180106,2.9906578064000016,0.52256321907,16.0
2018-09-11 18:27:31.550,0.0172594549878,0.0286968998555,-0.997263846699,-1.19778990746,0.143392503262,-0.0508659221232,-1.01008495,0.392266,10.2381426,0.0,-18.9052734375,1.2274774313,0.0992422401905,-1.19778990746,0.143392503262,-0.0508659221232,-1.93999993801,-204.672622681,-79.8378753662,-51.6141662598,-20.85406970977,-41.19660973554,-1.1545958716701061,2.8604450226000004,-0.173131674528,16.0
2018-09-11 18:27:31.600,0.0878095003587,0.223222137879,-0.96882767168,-0.618680179119,0.252047210932,0.0605944022536,-1.4906108,0.46091255,3.04986815,0.0,-18.9052734375,1.2274774313,0.0992422401905,-1.19778990746,0.143392503262,-0.0508659221232,-1.93999993801,-204.672622681,-79.8378753662,-51.6141662598,-20.85406970977,-41.19660973554,-1.1545958716701061,2.8604450226000004,-0.173131674528,16.0
2018-09-11 18:27:31.650,0.0878095003587,0.223222137879,-0.96882767168,-0.618680179119,0.252047210932,0.0605944022536,-1.4906108,0.46091255,3.04986815,0.0,-18.9052734375,1.2274774313,0.0992422401905,-1.19778990746,0.143392503262,-0.0508659221232,-1.97999989986,-204.672622681,-79.8935317993,-53.254867553699995,-13.85746860508,-17.8862361908,-0.9999295670781061,2.726760864300001,-0.935654819012,16.0
2018-09-11 18:27:31.700,0.0878095003587,0.223222137879,-0.96882767168,-0.618680179119,0.252047210932,0.0605944022536,-1.4906108,0.46091255,3.04986815,0.0,-18.9052734375,1.2274774313,0.0992422401905,-1.19778990746,0.143392503262,-0.0508659221232,-1.97999989986,-204.672622681,-79.8935317993,-53.254867553699995,-13.85746860508,-17.8862361908,-0.9999295670781061,2.726760864300001,-0.935654819012,16.0
2018-09-11 18:27:31.750,0.0878095003587,0.223222137879,-0.96882767168,-0.618680179119,0.252047210932,0.0605944022536,-1.4906108,0.46091255,3.04986815,0.0,-18.9052734375,1.2274774313,0.0992422401905,-1.19778990746,0.143392503262,-0.0508659221232,-1.92999994755,-179.801757812,-79.915802002,-53.254867553699995,-13.467469215380001,-17.816236495999995,-0.8803357679631061,2.6565666199000013,-1.34229445457,16.0
2018-09-11 18:27:31.800,0.0878095003587,0.223222137879,-0.96882767168,-0.618680179119,0.252047210932,0.0605944022536,-1.4906108,0.46091255,3.04986815,0.0,-18.6210689545,0.777763545513,-1.56436944008,-0.618680179119,0.252047210932,0.0605944022536,-1.92999994755,-179.801757812,-79.915802002,-53.254867553699995,-13.217469215380001,-17.736234664899996,-0.6556437809261061,2.5947246552000003,-1.74188446999,16.0
2018-09-11 18:27:31.850,0.0878095003587,0.223222137879,-0.96882767168,-0.618680179119,0.252047210932,0.0605944022536,-1.4906108,0.46091255,3.04986815,0.0,-18.6210689545,0.777763545513,-1.56436944008,-0.618680179119,0.252047210932,0.0605944022536,-1.81999993324,-179.801757812,-79.9380645752,-53.254867553699995,-13.147469520579998,-17.6662349701,-0.4229135412961061,2.5633888244999987,-1.96462762356,16.0
2018-09-11 18:27:31.900,0.0878095003587,0.223222137879,-0.96882767168,-0.618680179119,0.252047210932,0.0605944022536,-1.4906108,0.46091255,3.04986815,0.0,-18.6210689545,0.777763545513,-1.56436944008,-0.618680179119,0.252047210932,0.0605944022536,-1.63999998569,-150.410842896,-79.9046707153,-53.254867553699995,-13.097468376179998,-17.5462360382,-0.2254924524811061,2.5223770142,-2.25027418137,16.0
2018-09-11 18:27:31.950,0.0878095003587,0.223222137879,-0.96882767168,-0.618680179119,0.252047210932,0.0605944022536,-1.4906108,0.46091255,3.04986815,0.0,-18.6210689545,0.777763545513,-1.56436944008,-0.618680179119,0.252047210932,0.0605944022536,-1.63999998569,-150.410842896,-79.9046707153,-53.254867553699995,-13.037468910180001,-17.4562358856,-0.2254924524811061,2.5223770142,-2.25027418137,16.0
2018-09-11 18:27:32.000,0.115018979349,0.265579447615,-0.956770950588,-0.172730982304,0.123478621244,0.342322349548,-1.6671305,0.57859235,3.6480738,0.0,-18.6210689545,0.777763545513,-1.56436944008,-0.618680179119,0.252047210932,0.0605944022536,-1.63999998569,-150.410842896,-79.9046707153,-50.81452178959999,-9.2913999557,-12.226779937799996,-0.12378849575810612,2.4812030792,-2.50511908531,16.0
2018-09-11 18:27:32.050,0.115018979349,0.265579447615,-0.956770950588,-0.172730982304,0.123478621244,0.342322349548,-1.6671305,0.57859235,3.6480738,0.0,-18.4289245605,0.0543260797858,-2.81401276588,-0.172730982304,0.123478621244,0.342322349548,-1.63999998569,-150.410842896,-79.9046707153,-50.81452178959999,-9.2913999557,-12.226779937799996,-0.05432907978590611,2.4289245605000005,-2.81401276588,16.0
2018-09-11 18:27:32.100,0.115018979349,0.265579447615,-0.956770950588,-0.172730982304,0.123478621244,0.342322349548,-1.6671305,0.57859235,3.6480738,0.0,-18.4289245605,0.0543260797858,-2.81401276588,-0.172730982304,0.123478621244,0.342322349548,-1.12000000477,-99.9898910522,-79.7933502197,-50.81452178959999,-8.9214010238,-11.866779327399996,0.1289848636598939,2.2578353882,-3.78946137428,16.0
2018-09-11 18:27:32.150,0.115018979349,0.265579447615,-0.956770950588,-0.172730982304,0.123478621244,0.342322349548,-1.6671305,0.57859235,3.6480738,0.0,-18.4289245605,0.0543260797858,-2.81401276588,-0.172730982304,0.123478621244,0.342322349548,-1.12000000477,-99.9898910522,-79.7933502197,-50.81452178959999,-8.9214010238,-11.866779327399996,0.1289848636598939,2.2578353882,-3.78946137428,16.0
2018-09-11 18:27:32.200,0.115018979349,0.265579447615,-0.956770950588,-0.172730982304,0.123478621244,0.342322349548,-1.6671305,0.57859235,3.6480738,0.0,-18.4289245605,0.0543260797858,-2.81401276588,-0.172730982304,0.123478621244,0.342322349548,-1.12000000477,-99.9898910522,-79.7933502197,-50.81452178959999,-8.701401710499999,-11.696781158499995,0.32796985914389387,2.1634864807000014,-4.37043428421,16.0
2018-09-11 18:27:32.250,0.115018979349,0.265579447615,-0.956770950588,-0.172730982304,0.123478621244,0.342322349548,-1.6671305,0.57859235,3.6480738,0.0,-18.4289245605,0.0543260797858,-2.81401276588,-0.172730982304,0.123478621244,0.342322349548,-0.759999990463,-99.9898910522,-79.7265548706,-50.81452178959999,-8.6114015579,-11.626781463699999,0.47025779893089387,2.1270389557000016,-4.61227655411,16.0
2018-09-11 18:27:32.300,0.138554965612,0.30089109966,-0.943038418825,-0.187333956361,-0.0452611856163,0.23411770165,-1.8240369,0.08825985,5.38385085,0.0,-18.0968647003,-0.606950044632,-4.82698631287,-0.172730982304,0.123478621244,0.342322349548,-0.759999990463,-99.9898910522,-79.7265548706,-50.81452178959999,-8.4914007186,-11.5367813111,0.6862545411798939,2.0817070007,-4.93015193939,16.0
2018-09-11 18:27:32.350,0.138554965612,0.30089109966,-0.943038418825,-0.187333956361,-0.0452611856163,0.23411770165,-1.8240369,0.08825985,5.38385085,0.0,-18.0968647003,-0.606950044632,-4.82698631287,-0.172730982304,0.123478621244,0.342322349548,-0.299999982119,-64.5652770996,-79.626373291,-45.514953613299994,-3.9799079895000027,-7.6215133667,0.8554247420038938,2.0582180022999985,-5.13366127014,16.0
2018-09-11 18:27:32.400,0.138554965612,0.30089109966,-0.943038418825,-0.187333956361,-0.0452611856163,0.23411770165,-1.8240369,0.08825985,5.38385085,0.0,-18.0968647003,-0.606950044632,-4.82698631287,-0.172730982304,0.123478621244,0.342322349548,-0.299999982119,-64.5652770996,-79.626373291,-45.514953613299994,-3.9799079895000027,-7.6215133667,0.8554247420038938,2.0582180022999985,-5.13366127014,16.0
2018-09-11 18:27:32.450,0.138554965612,0.30089109966,-0.943038418825,-0.187333956361,-0.0452611856163,0.23411770165,-1.8240369,0.08825985,5.38385085,0.0,-18.0968647003,-0.606950044632,-4.82698631287,-0.172730982304,0.123478621244,0.342322349548,0.209999993443,-64.5652770996,-79.5039215088,-45.514953613299994,-3.7299079895000027,-7.4915122986,1.3880457680398939,2.004720687900001,-5.65306472778,16.0
2018-09-11 18:27:32.500,0.138554965612,0.30089109966,-0.943038418825,-0.187333956361,-0.0452611856163,0.23411770165,-1.8240369,0.08825985,5.38385085,0.0,-18.0968647003,-0.606950044632,-4.82698631287,-0.172730982304,0.123478621244,0.342322349548,0.209999993443,-64.5652770996,-79.5039215088,-45.514953613299994,-3.7299079895000027,-7.4915122986,1.3880457680398939,2.004720687900001,-5.65306472778,16.0
2018-09-11 18:27:32.550,0.138554965612,0.30089109966,-0.943038418825,-0.187333956361,-0.0452611856163,0.23411770165,-1.8240369,0.08825985,5.38385085,0.0,-18.0968647003,-0.606950044632,-4.82698631287,-0.172730982304,0.123478621244,0.342322349548,0.209999993443,-64.5652770996,-79.5039215088,-45.514953613299994,-3.7299079895000027,-7.4915122986,1.3880457680398939,2.004720687900001,-5.65306472778,16.0
2018-09-11 18:27:32.600,0.138554965612,0.30089109966,-0.943038418825,-0.187333956361,-0.0452611856163,0.23411770165,-1.8240369,0.08825985,5.38385085,0.0,-17.9660167694,-1.84440338612,-6.06426668167,-0.187333956361,-0.0452611856163,0.23411770165,0.759999990463,-41.820526123,-79.3146743774,-45.514953613299994,-3.5399074555,-7.3115119934000035,1.8444003861198939,1.9660167693999995,-6.06426668167,16.0
2018-09-11 18:27:32.650,0.138554965612,0.30089109966,-0.943038418825,-0.187333956361,-0.0452611856163,0.23411770165,-1.8240369,0.08825985,5.38385085,0.0,-17.9660167694,-1.84440338612,-6.06426668167,-0.187333956361,-0.0452611856163,0.23411770165,1.33999991417,-41.820526123,-79.1031723022,-45.514953613299994,-3.4399070740000006,-7.191513061600006,2.188368419909894,1.923122406000001,-6.42871952057,16.0
2018-09-11 18:27:32.700,0.138554965612,0.30089109966,-0.943038418825,-0.187333956361,-0.0452611856163,0.23411770165,-1.8240369,0.08825985,5.38385085,0.0,-17.9660167694,-1.84440338612,-6.06426668167,-0.187333956361,-0.0452611856163,0.23411770165,1.33999991417,-41.820526123,-79.1031723022,-45.514953613299994,-3.4399070740000006,-7.191513061600006,2.188368419909894,1.923122406000001,-6.42871952057,16.0
2018-09-11 18:27:32.750,0.138554965612,0.30089109966,-0.943038418825,-0.187333956361,-0.0452611856163,0.23411770165,-1.8240369,0.08825985,5.38385085,0.0,-17.901758194,-2.79425096512,-6.78616380692,-0.187333956361,-0.0452611856163,0.23411770165,1.95999991894,-29.4296264648,-78.8248748779,-45.514953613299994,-3.1699085236,-7.0015144349000025,2.686113695399894,1.9013252258000009,-6.74283266068,16.0
2018-09-11 18:27:32.800,0.140402555742,0.33386687394,-0.927970859928,-0.122552864254,-0.175339609385,0.292500257492,-1.79461695,-0.22555295,8.7867584,0.0,-17.901758194,-2.79425096512,-6.78616380692,-0.187333956361,-0.0452611856163,0.23411770165,1.95999991894,-29.4296264648,-78.8248748779,-45.514953613299994,-3.1699085236,-7.0015144349000025,2.686113695399894,1.9013252258000009,-6.74283266068,16.0
2018-09-11 18:27:32.850,0.140402555742,0.33386687394,-0.927970859928,-0.122552864254,-0.175339609385,0.292500257492,-1.79461695,-0.22555295,8.7867584,0.0,-17.901758194,-2.79425096512,-6.78616380692,-0.187333956361,-0.0452611856163,0.23411770165,2.6099998951,-29.4296264648,-78.5131835938,-39.8246383667,-0.899394989000001,-2.6488342285,3.297304729719894,1.9237060546999984,-6.86239099503,16.0
2018-09-11 18:27:32.900,0.140402555742,0.33386687394,-0.927970859928,-0.122552864254,-0.175339609385,0.292500257492,-1.79461695,-0.22555295,8.7867584,0.0,-17.901758194,-2.79425096512,-6.78616380692,-0.187333956361,-0.0452611856163,0.23411770165,3.26999998093,-32.2904586792,-78.1124343872,-39.8246383667,-1.2693939209000007,-1.3288307189999955,3.297304729719894,1.9237060546999984,-6.86239099503,16.0
2018-09-11 18:27:32.950,0.140402555742,0.33386687394,-0.927970859928,-0.122552864254,-0.175339609385,0.292500257492,-1.79461695,-0.22555295,8.7867584,0.0,-17.901758194,-2.79425096512,-6.78616380692,-0.187333956361,-0.0452611856163,0.23411770165,3.26999998093,-32.2904586792,-78.1124343872,-39.8246383667,-1.449394225999999,-1.2388305663999972,4.003374914429894,1.9646816254000008,-6.86078882217,16.0
2018-09-11 18:27:33.000,0.140402555742,0.33386687394,-0.927970859928,-0.122552864254,-0.175339609385,0.292500257492,-1.79461695,-0.22555295,8.7867584,0.0,-17.901758194,-2.79425096512,-6.78616380692,-0.187333956361,-0.0452611856163,0.23411770165,3.26999998093,-32.2904586792,-78.1124343872,-39.8246383667,-1.5993938446000016,-1.1388320922999995,4.457478384279894,1.9823493958,-6.83659362793,16.0
2018-09-11 18:27:33.050,0.140402555742,0.33386687394,-0.927970859928,-0.122552864254,-0.175339609385,0.292500257492,-1.79461695,-0.22555295,8.7867584,0.0,-17.9869995117,-4.60199403763,-6.82854747772,-0.122552864254,-0.175339609385,0.292500257492,3.92999982834,-32.2904586792,-77.6671600342,-39.8246383667,-1.719394683800001,0.3311691283999991,4.746832708619894,1.9884109497000004,-6.82465028763,16.0
2018-09-11 18:27:33.100,0.140402555742,0.33386687394,-0.927970859928,-0.122552864254,-0.175339609385,0.292500257492,-1.79461695,-0.22555295,8.7867584,0.0,-17.9869995117,-4.60199403763,-6.82854747772,-0.122552864254,-0.175339609385,0.292500257492,3.92999982834,-32.2904586792,-77.6671600342,-39.8246383667,-1.719394683800001,0.3311691283999991,4.746832708619894,1.9884109497000004,-6.82465028763,16.0
2018-09-11 18:27:33.150,0.140402555742,0.33386687394,-0.927970859928,-0.122552864254,-0.175339609385,0.292500257492,-1.79461695,-0.22555295,8.7867584,0.0,-17.9869995117,-4.60199403763,-6.82854747772,-0.122552864254,-0.175339609385,0.292500257492,4.56999969482,-41.0997390747,-77.1216964722,-39.8246383667,-1.899394989000001,2.041168212900004,5.439731458919894,1.9610557556000003,-6.89241170883,16.0
2018-09-11 18:27:33.200,0.140995742772,0.312626412429,-0.921804539027,-0.124896816909,-0.128844231367,0.543794453144,-1.9221034,-0.22555295,11.40513395,0.0,-17.9869995117,-4.60199403763,-6.82854747772,-0.122552864254,-0.175339609385,0.292500257492,4.56999969482,-41.0997390747,-77.1216964722,-39.8246383667,-1.899394989000001,2.041168212900004,5.439731458919894,1.9610557556000003,-6.89241170883,16.0
2018-09-11 18:27:33.250,0.140995742772,0.312626412429,-0.921804539027,-0.124896816909,-0.128844231367,0.543794453144,-1.9221034,-0.22555295,11.40513395,0.0,-17.9869995117,-4.60199403763,-6.82854747772,-0.122552864254,-0.175339609385,0.292500257492,5.21999979019,-41.0997390747,-76.5317077637,-28.687767029,1.2870197296000008,-0.5208702086999963,6.092246870299894,1.8946037292,-7.02434968948,16.0
2018-09-11 18:27:33.300,0.140995742772,0.312626412429,-0.921804539027,-0.124896816909,-0.128844231367,0.543794453144,-1.9221034,-0.22555295,11.40513395,0.0,-17.8540802002,-6.34794521332,-7.11731052399,-0.124896816909,-0.128844231367,0.543794453144,5.21999979019,-41.0997390747,-76.5317077637,-28.687767029,1.2770195006999998,-0.3708724975999971,6.476155142089894,1.8344879150000004,-7.15236949921,16.0
2018-09-11 18:27:33.350,0.140995742772,0.312626412429,-0.921804539027,-0.124896816909,-0.128844231367,0.543794453144,-1.9221034,-0.22555295,11.40513395,0.0,-17.8540802002,-6.34794521332,-7.11731052399,-0.124896816909,-0.128844231367,0.543794453144,5.88999986649,-25.4711151123,-75.8303985596,-28.687767029,1.3070182800000012,1.2691307068000057,6.732607702509894,1.7927265167000002,-7.22644138336,16.0
2018-09-11 18:27:33.400,0.140995742772,0.312626412429,-0.921804539027,-0.124896816909,-0.128844231367,0.543794453144,-1.9221034,-0.22555295,11.40513395,0.0,-17.8540802002,-6.34794521332,-7.11731052399,-0.124896816909,-0.128844231367,0.543794453144,5.88999986649,-25.4711151123,-75.8303985596,-28.687767029,1.3870182036999985,1.319129943900002,7.124657015109894,1.7096328734999986,-7.35527420044,16.0
2018-09-11 18:27:33.450,0.140995742772,0.312626412429,-0.921804539027,-0.124896816909,-0.128844231367,0.543794453144,-1.9221034,-0.22555295,11.40513395,0.0,-17.8540802002,-6.34794521332,-7.11731052399,-0.124896816909,-0.128844231367,0.543794453144,6.57999992371,-25.4711151123,-75.084564209,-28.687767029,1.447019576999999,3.0391292572000026,7.124657015109894,1.7096328734999986,-7.35527420044,16.0
2018-09-11 18:27:33.500,0.135043673157,0.325863315743,-0.902694955401,-0.111920520663,-0.18885615468,0.213324025273,-2.0986231,0.51975245,10.6892485,0.0,-17.8540802002,-6.34794521332,-7.11731052399,-0.124896816909,-0.128844231367,0.543794453144,6.57999992371,-25.4711151123,-75.084564209,-21.034057617000002,3.383457183800001,3.324226379399999,7.823653558989894,1.5738277435000008,-7.52131891251,16.0
2018-09-11 18:27:33.550,0.135043673157,0.325863315743,-0.902694955401,-0.111920520663,-0.18885615468,0.213324025273,-2.0986231,0.51975245,10.6892485,0.0,-17.5450687408,-7.95759487152,-7.55992412567,-0.111920520663,-0.18885615468,0.213324025273,7.28999996185,-41.658782959,-74.2385406494,-21.034057617000002,3.2834568024,5.2842254639,8.092104772829893,1.5157775879000006,-7.59837675095,16.0
2018-09-11 18:27:33.600,0.135043673157,0.325863315743,-0.902694955401,-0.111920520663,-0.18885615468,0.213324025273,-2.0986231,0.51975245,10.6892485,0.0,-17.5450687408,-7.95759487152,-7.55992412567,-0.111920520663,-0.18885615468,0.213324025273,8.02999973297,-41.658782959,-73.3591156006,-21.034057617000002,2.9834575653,7.144226074300001,8.584358076349893,1.4077548980999985,-7.73898601532,16.0
2018-09-11 18:27:33.650,0.135043673157,0.325863315743,-0.902694955401,-0.111920520663,-0.18885615468,0.213324025273,-2.0986231,0.51975245,10.6892485,0.0,-17.5450687408,-7.95759487152,-7.55992412567,-0.111920520663,-0.18885615468,0.213324025273,8.02999973297,-41.658782959,-73.3591156006,-21.034057617000002,2.943456649799998,7.124225616499999,8.584358076349893,1.4077548980999985,-7.73898601532,16.0
2018-09-11 18:27:33.700,0.135043673157,0.325863315743,-0.902694955401,-0.111920520663,-0.18885615468,0.213324025273,-2.0986231,0.51975245,10.6892485,0.0,-17.5450687408,-7.95759487152,-7.55992412567,-0.111920520663,-0.18885615468,0.213324025273,8.02999973297,-41.658782959,-73.3591156006,-21.034057617000002,2.943456649799998,7.124225616499999,8.978941778439895,1.3211212158000016,-7.83393526077,16.0
2018-09-11 18:27:33.750,0.135043673157,0.325863315743,-0.902694955401,-0.111920520663,-0.18885615468,0.213324025273,-2.0986231,0.51975245,10.6892485,0.0,-17.5450687408,-7.95759487152,-7.55992412567,-0.111920520663,-0.18885615468,0.213324025273,8.78999996185,-45.3353881836,-72.3683776855,-21.034057617000002,2.8534564972,9.1042251587,9.239784101749894,1.267257690400001,-7.86836528778,16.0
2018-09-11 18:27:33.800,0.135043673157,0.325863315743,-0.902694955401,-0.111920520663,-0.18885615468,0.213324025273,-2.0986231,0.51975245,10.6892485,0.0,-17.1542377472,-9.71950149536,-7.95153284073,-0.111920520663,-0.18885615468,0.213324025273,8.78999996185,-45.3353881836,-72.3683776855,-21.034057617000002,2.7134571076,11.0342254639,9.588430265689894,1.1842765807999989,-7.94371604919,16.0
2018-09-11 18:27:33.850,0.135043673157,0.325863315743,-0.902694955401,-0.111920520663,-0.18885615468,0.213324025273,-2.0986231,0.51975245,10.6892485,0.0,-17.1542377472,-9.71950149536,-7.95153284073,-0.111920520663,-0.18885615468,0.213324025273,9.56999969482,-45.3353881836,-71.3553771973,-21.034057617000002,2.563457489000001,11.0142269135,9.990345815919893,1.0986900330000005,-7.96653985977,16.0
2018-09-11 18:27:33.900,0.135043673157,0.325863315743,-0.902694955401,-0.111920520663,-0.18885615468,0.213324025273,-2.0986231,0.51975245,10.6892485,0.0,-17.1542377472,-9.71950149536,-7.95153284073,-0.111920520663,-0.18885615468,0.213324025273,9.56999969482,-45.3353881836,-71.3553771973,-21.034057617000002,2.4334564209000007,10.974225998000001,10.373017172099894,1.0150547028000005,-7.97140836716,16.0
2018-09-11 18:27:33.950,0.117551616578,0.294371292864,-0.906409558554,0.11701785028,-0.117537423968,0.151236206293,-2.10842975,0.1176798,11.5326204,0.0,-17.1542377472,-9.71950149536,-7.95153284073,-0.111920520663,-0.18885615468,0.213324025273,10.3499994278,-67.3336029053,-70.2421951294,-21.034057617000002,2.3934574126999983,13.2142257691,10.492476324299894,0.9832725525000008,-7.98124980927,16.0
2018-09-11 18:27:34.000,0.117551616578,0.294371292864,-0.906409558554,0.11701785028,-0.117537423968,0.151236206293,-2.10842975,0.1176798,11.5326204,0.0,-16.8249473572,-11.1093568802,-7.99016332626,0.11701785028,-0.117537423968,0.151236206293,10.3499994278,-67.3336029053,-70.2421951294,-15.847206115999995,0.4872303009000021,8.7673225403,10.985865453999894,0.8551940918000014,-7.99045181274,16.0
2018-09-11 18:27:34.050,0.117551616578,0.294371292864,-0.906409558554,0.11701785028,-0.117537423968,0.151236206293,-2.10842975,0.1176798,11.5326204,0.0,-16.8249473572,-11.1093568802,-7.99016332626,0.11701785028,-0.117537423968,0.151236206293,11.1399993896,-67.3336029053,-69.0956039429,-15.847206115999995,0.35722923280000174,11.027322769199998,11.339983801099894,0.7695426941000001,-8.00043964386,16.0
2018-09-11 18:27:34.100,0.117551616578,0.294371292864,-0.906409558554,0.11701785028,-0.117537423968,0.151236206293,-2.10842975,0.1176798,11.5326204,0.0,-16.8249473572,-11.1093568802,-7.99016332626,0.11701785028,-0.117537423968,0.151236206293,11.9299993515,-127.536201477,-67.8599700928,-15.847206115999995,0.12722969050000188,13.177322387699999,11.339983801099894,0.7695426941000001,-8.00043964386,16.0
2018-09-11 18:27:34.150,0.117551616578,0.294371292864,-0.906409558554,0.11701785028,-0.117537423968,0.151236206293,-2.10842975,0.1176798,11.5326204,0.0,-16.8249473572,-11.1093568802,-7.99016332626,0.11701785028,-0.117537423968,0.151236206293,11.9299993515,-127.536201477,-67.8599700928,-15.847206115999995,0.12722969050000188,13.177322387699999,11.634693006799894,0.6780967711999999,-8.07542610168,16.0
2018-09-11 18:27:34.200,0.117551616578,0.294371292864,-0.906409558554,0.11701785028,-0.117537423968,0.151236206293,-2.10842975,0.1176798,11.5326204,0.0,-16.8249473572,-11.1093568802,-7.99016332626,0.11701785028,-0.117537423968,0.151236206293,12.7299995422,-127.536201477,-66.6131973267,-15.847206115999995,-0.28277015689999985,15.0873231888,12.116339544599894,0.5555381775000008,-8.11460876465,16.0
2018-09-11 18:27:34.250,0.117551616578,0.294371292864,-0.906409558554,0.11701785028,-0.117537423968,0.151236206293,-2.10842975,0.1176798,11.5326204,0.0,-16.5319480896,-12.220085144,-8.11661338806,0.11701785028,-0.117537423968,0.151236206293,12.7299995422,-127.536201477,-66.6131973267,-15.847206115999995,-0.28277015689999985,15.0873231888,12.116339544599894,0.5555381775000008,-8.11460876465,16.0
2018-09-11 18:27:34.300,0.117551616578,0.294371292864,-0.906409558554,0.11701785028,-0.117537423968,0.151236206293,-2.10842975,0.1176798,11.5326204,0.0,-16.5319480896,-12.220085144,-8.11661338806,0.11701785028,-0.117537423968,0.151236206293,12.7299995422,-127.536201477,-66.6131973267,-15.847206115999995,-0.5527706146,15.097323417699998,12.436022619499894,0.4883575439000012,-8.10039329529,16.0
2018-09-11 18:27:34.350,0.117551616578,0.294371292864,-0.906409558554,0.11701785028,-0.117537423968,0.151236206293,-2.10842975,0.1176798,11.5326204,0.0,-16.5319480896,-12.220085144,-8.11661338806,0.11701785028,-0.117537423968,0.151236206293,13.529999733,-155.348388672,-65.2773742676,-15.847206115999995,-0.8427696227999988,17.097323417699997,12.834700445399895,0.4238510132000002,-8.02396392822,16.0
2018-09-11 18:27:34.400,0.117551616578,0.294371292864,-0.906409558554,0.11701785028,-0.117537423968,0.151236206293,-2.10842975,0.1176798,11.5326204,0.0,-16.5319480896,-12.220085144,-8.11661338806,0.11701785028,-0.117537423968,0.151236206293,13.529999733,-155.348388672,-65.2773742676,-15.847206115999995,-1.1227703094999981,17.097323417699997,13.017605642599895,0.39122962949999973,-7.99002599716,16.0
2018-09-11 18:27:34.450,0.1319790015,0.227588997637,-0.911821850648,0.35632827878,-0.116690121591,0.291329950094,-2.3339827,-0.53936575,11.5522337,0.0,-16.5319480896,-12.220085144,-8.11661338806,0.11701785028,-0.117537423968,0.151236206293,14.3199996948,-155.348388672,-63.9192810059,-10.112350464000002,-0.7080650330000005,7.804306983999998,13.017605642599895,0.39122962949999973,-7.99002599716,16.0
2018-09-11 18:27:34.500,0.1319790015,0.227588997637,-0.911821850648,0.35632827878,-0.116690121591,0.291329950094,-2.3339827,-0.53936575,11.5522337,0.0,-16.2948188782,-13.4842834473,-7.94499874115,0.35632827878,-0.116690121591,0.291329950094,14.3199996948,-155.348388672,-63.9192810059,-10.112350464000002,-0.9880657196000016,9.594306945799998,13.399335722199893,0.31230545040000024,-7.95658493042,16.0
2018-09-11 18:27:34.550,0.1319790015,0.227588997637,-0.911821850648,0.35632827878,-0.116690121591,0.291329950094,-2.3339827,-0.53936575,11.5522337,0.0,-16.2948188782,-13.4842834473,-7.94499874115,0.35632827878,-0.116690121591,0.291329950094,15.1199998856,-177.248565674,-62.4944000244,-10.112350464000002,-1.1780643463000011,11.434306144759999,13.644538740399893,0.2601909637000013,-7.92694377899,16.0
2018-09-11 18:27:34.600,0.1319790015,0.227588997637,-0.911821850648,0.35632827878,-0.116690121591,0.291329950094,-2.3339827,-0.53936575,11.5522337,0.0,-16.2948188782,-13.4842834473,-7.94499874115,0.35632827878,-0.116690121591,0.291329950094,15.1199998856,-177.248565674,-62.4944000244,-10.112350464000002,-1.2680644988999994,11.434306144759999,13.805789808499894,0.21639251710000096,-7.92645406723,16.0
2018-09-11 18:27:34.650,0.1319790015,0.227588997637,-0.911821850648,0.35632827878,-0.116690121591,0.291329950094,-2.3339827,-0.53936575,11.5522337,0.0,-16.2948188782,-13.4842834473,-7.94499874115,0.35632827878,-0.116690121591,0.291329950094,15.9200000763,-177.248565674,-61.0583877563,-10.112350464000002,-0.6480655669999997,13.074306488079998,14.052514890899895,0.15151405330000145,-7.92360639572,16.0
2018-09-11 18:27:34.700,0.1319790015,0.227588997637,-0.911821850648,0.35632827878,-0.116690121591,0.291329950094,-2.3339827,-0.53936575,11.5522337,0.0,-16.0806312561,-14.3810558319,-7.87322950363,0.35632827878,-0.116690121591,0.291329950094,15.9200000763,-177.248565674,-61.0583877563,-10.112350464000002,-0.6580657959000007,13.074306488079998,14.306971410999894,0.09554481509999846,-7.88725328445,16.0
2018-09-11 18:27:34.750,0.1319790015,0.227588997637,-0.911821850648,0.35632827878,-0.116690121591,0.291329950094,-2.3339827,-0.53936575,11.5522337,0.0,-16.0806312561,-14.3810558319,-7.87322950363,0.35632827878,-0.116690121591,0.291329950094,15.9200000763,-177.248565674,-61.0583877563,-10.112350464000002,-0.6580657959000007,13.074306488079998,14.306971410999894,0.09554481509999846,-7.88725328445,16.0
2018-09-11 18:27:34.800,0.1319790015,0.227588997637,-0.911821850648,0.35632827878,-0.116690121591,0.291329950094,-2.3339827,-0.53936575,11.5522337,0.0,-16.0806312561,-14.3810558319,-7.87322950363,0.35632827878,-0.116690121591,0.291329950094,16.7099990845,-223.364074707,-59.5555839539,-10.112350464000002,-0.00806617739999993,14.814306259199999,14.615493635399893,0.013729095500000454,-7.90844917297,16.0
2018-09-11 18:27:34.850,0.140169478208,0.16737343542,-0.907749189757,0.145509108901,-0.117601782084,0.106932200491,-2.6477955,0.04903325,9.5320638,0.0,-16.0806312561,-14.3810558319,-7.87322950363,0.35632827878,-0.116690121591,0.291329950094,17.5,-223.364074707,-58.04164505,-10.112350464000002,0.6819343566999976,16.114306449929998,14.733155111599894,-0.01586723329999984,-7.93204927444,16.0
2018-09-11 18:27:34.900,0.140169478208,0.16737343542,-0.907749189757,0.145509108901,-0.117601782084,0.106932200491,-2.6477955,0.04903325,9.5320638,0.0,-16.0806312561,-14.3810558319,-7.87322950363,0.35632827878,-0.116690121591,0.291329950094,17.5,-223.364074707,-58.04164505,-3.399597168000014,0.06689071650000145,7.72359943393,14.897338728199895,-0.07874584200000001,-7.99455118179,16.0
2018-09-11 18:27:34.950,0.140169478208,0.16737343542,-0.907749189757,0.145509108901,-0.117601782084,0.106932200491,-2.6477955,0.04903325,9.5320638,0.0,-16.0806312561,-14.3810558319,-7.87322950363,0.35632827878,-0.116690121591,0.291329950094,18.3099994659,-245.558547974,-56.4720497131,-3.399597168000014,0.856891632,8.9835994244,15.065116743299894,-0.14509773250000002,-8.03399276733,16.0
2018-09-11 18:27:35.000,0.140169478208,0.16737343542,-0.907749189757,0.145509108901,-0.117601782084,0.106932200491,-2.6477955,0.04903325,9.5320638,0.0,-15.8353462219,-15.1221323013,-8.03019142151,0.145509108901,-0.117601782084,0.106932200491,19.1199989319,-245.558547974,-54.9135856628,-3.399597168000014,1.5968914032000008,10.29359936718,15.065116743299894,-0.14509773250000002,-8.03399276733,16.0
2018-09-11 18:27:35.050,0.140169478208,0.16737343542,-0.907749189757,0.145509108901,-0.117601782084,0.106932200491,-2.6477955,0.04903325,9.5320638,0.0,-15.8353462219,-15.1221323013,-8.03019142151,0.145509108901,-0.117601782084,0.106932200491,19.1199989319,-245.558547974,-54.9135856628,-3.399597168000014,1.5968914032000008,10.29359936718,15.304623464799894,-0.2075080872000008,-7.99007606506,16.0
2018-09-11 18:27:35.100,0.140169478208,0.16737343542,-0.907749189757,0.145509108901,-0.117601782084,0.106932200491,-2.6477955,0.04903325,9.5320638,0.0,-15.8353462219,-15.1221323013,-8.03019142151,0.145509108901,-0.117601782084,0.106932200491,19.1199989319,-245.558547974,-54.9135856628,-3.399597168000014,1.5968914032000008,10.29359936718,15.304623464799894,-0.2075080872000008,-7.99007606506,16.0
2018-09-11 18:27:35.150,0.140169478208,0.16737343542,-0.907749189757,0.145509108901,-0.117601782084,0.106932200491,-2.6477955,0.04903325,9.5320638,0.0,-15.8353462219,-15.1221323013,-8.03019142151,0.145509108901,-0.117601782084,0.106932200491,19.9399986267,-275.27142334,-53.2994613647,-3.399597168000014,2.3068904876000005,11.52359926704,15.594913343699893,-0.2587099075000001,-7.87635183334,16.0
2018-09-11 18:27:35.200,0.140169478208,0.16737343542,-0.907749189757,0.145509108901,-0.117601782084,0.106932200491,-2.6477955,0.04903325,9.5320638,0.0,-15.7101755142,-15.742020607,-7.82891607285,0.145509108901,-0.117601782084,0.106932200491,19.9399986267,-275.27142334,-53.2994613647,-3.399597168000014,2.296892166100001,11.52359926704,15.742017606999894,-0.28982448580000053,-7.82891607285,16.0
2018-09-11 18:27:35.250,0.140169478208,0.16737343542,-0.907749189757,0.145509108901,-0.117601782084,0.106932200491,-2.6477955,0.04903325,9.5320638,0.0,-15.7101755142,-15.742020607,-7.82891607285,0.145509108901,-0.117601782084,0.106932200491,20.7399997711,-275.27142334,-51.6853408813,-3.399597168000014,3.0168914794000017,12.5835992470743,15.842767576499893,-0.3112936019999992,-7.80396556854,16.0
2018-09-11 18:27:35.300,0.148438296011,0.124909418432,-0.910499132629,0.234138220549,-0.0809606835246,0.0638740509748,-2.7262487,0.83356525,10.7088618,0.0,-15.7101755142,-15.742020607,-7.82891607285,0.145509108901,-0.117601782084,0.106932200491,20.7399997711,-275.27142334,-51.6853408813,-3.399597168000014,3.0168914794000017,12.5835992470743,15.842767576499893,-0.3112936019999992,-7.80396556854,16.0
2018-09-11 18:27:35.350,0.148438296011,0.124909418432,-0.910499132629,0.234138220549,-0.0809606835246,0.0638740509748,-2.7262487,0.83356525,10.7088618,0.0,-15.7101755142,-15.742020607,-7.82891607285,0.145509108901,-0.117601782084,0.106932200491,21.5499992371,-292.606933594,-50.0266876221,-0.6653594969999972,2.914449691799998,11.14576148987,16.099839071499893,-0.33290767669999966,-7.64112234116,16.0
2018-09-11 18:27:35.400,0.148438296011,0.124909418432,-0.910499132629,0.234138220549,-0.0809606835246,0.0638740509748,-2.7262487,0.83356525,10.7088618,0.0,-15.7101755142,-15.742020607,-7.82891607285,0.145509108901,-0.117601782084,0.106932200491,21.5499992371,-292.606933594,-50.0266876221,-0.6653594969999972,2.914449691799998,11.14576148987,16.213122228899895,-0.3378295898000001,-7.5733423233,16.0
2018-09-11 18:27:35.450,0.148438296011,0.124909418432,-0.910499132629,0.234138220549,-0.0809606835246,0.0638740509748,-2.7262487,0.83356525,10.7088618,0.0,-15.7101755142,-15.742020607,-7.82891607285,0.145509108901,-0.117601782084,0.106932200491,22.3299999237,-292.606933594,-48.3680381775,1.3346405030000028,3.564449310299999,15.88576173782,16.285792211799894,-0.3421182631999997,-7.54789209366,16.0
2018-09-11 18:27:35.500,0.148438296011,0.124909418432,-0.910499132629,0.234138220549,-0.0809606835246,0.0638740509748,-2.7262487,0.83356525,10.7088618,0.0,-15.6528940201,-16.3600082397,-7.51341485977,0.234138220549,-0.0809606835246,0.0638740509748,23.1199989319,-321.714416504,-46.6648597717,3.334640503000003,4.244449615499999,20.32576131819,16.285792211799894,-0.3421182631999997,-7.54789209366,16.0
2018-09-11 18:27:35.550,0.148438296011,0.124909418432,-0.910499132629,0.234138220549,-0.0809606835246,0.0638740509748,-2.7262487,0.83356525,10.7088618,0.0,-15.6528940201,-16.3600082397,-7.51341485977,0.234138220549,-0.0809606835246,0.0638740509748,23.1199989319,-321.714416504,-46.6648597717,3.334640503000003,4.244449615499999,20.32576131819,16.434216360399894,-0.3367004394999995,-7.43916988373,16.0
2018-09-11 18:27:35.600,0.148438296011,0.124909418432,-0.910499132629,0.234138220549,-0.0809606835246,0.0638740509748,-2.7262487,0.83356525,10.7088618,0.0,-15.6528940201,-16.3600082397,-7.51341485977,0.234138220549,-0.0809606835246,0.0638740509748,23.1199989319,-321.714416504,-46.6648597717,3.334640503000003,4.244449615499999,20.385760784189998,16.530472616499893,-0.27473735809999944,-7.24767160416,16.0
2018-09-11 18:27:35.650,0.153467160474,0.0585657043106,-0.918508635861,0.519939005375,-0.123927436769,0.0486164800823,-2.745862,0.0392266,11.69933345,0.0,-15.6528940201,-16.3600082397,-7.51341485977,0.234138220549,-0.0809606835246,0.0638740509748,23.8799991608,-321.714416504,-44.9728126526,5.7965850829999965,2.5080318450999997,16.689954042432,16.618620733499895,-0.21160030359999915,-7.0328783989,16.0
2018-09-11 18:27:35.700,0.153467160474,0.0585657043106,-0.918508635861,0.519939005375,-0.123927436769,0.0486164800823,-2.745862,0.0392266,11.69933345,0.0,-15.6528940201,-16.3600082397,-7.51341485977,0.234138220549,-0.0809606835246,0.0638740509748,23.8799991608,-321.714416504,-44.9728126526,5.7965850829999965,2.5080318450999997,16.709954500232,16.618620733499895,-0.21160030359999915,-7.0328783989,16.0
2018-09-11 18:27:35.750,0.153467160474,0.0585657043106,-0.918508635861,0.519939005375,-0.123927436769,0.0486164800823,-2.745862,0.0392266,11.69933345,0.0,-15.8465929031,-16.6561756134,-6.88660860062,0.519939005375,-0.123927436769,0.0486164800823,24.6199989319,-344.368347168,-43.2473716736,7.7965850829999965,2.9180316924999996,20.259955644632,16.678921560499894,-0.0795831679999992,-6.71544456482,16.0
2018-09-11 18:27:35.800,0.153467160474,0.0585657043106,-0.918508635861,0.519939005375,-0.123927436769,0.0486164800823,-2.745862,0.0392266,11.69933345,0.0,-15.8465929031,-16.6561756134,-6.88660860062,0.519939005375,-0.123927436769,0.0486164800823,24.6199989319,-344.368347168,-43.2473716736,7.7965850829999965,2.9180316924999996,20.259955644632,16.678921560499894,-0.0795831679999992,-6.71544456482,16.0
2018-09-11 18:27:35.850,0.153467160474,0.0585657043106,-0.918508635861,0.519939005375,-0.123927436769,0.0486164800823,-2.745862,0.0392266,11.69933345,0.0,-15.8465929031,-16.6561756134,-6.88660860062,0.519939005375,-0.123927436769,0.0486164800823,25.3199996948,-344.368347168,-41.5330619812,9.796585082999997,3.2380313873000013,23.169955492032,16.709608374118,0.08631420140000223,-6.35837173462,16.0
2018-09-11 18:27:35.900,0.153467160474,0.0585657043106,-0.918508635861,0.519939005375,-0.123927436769,0.0486164800823,-2.745862,0.0392266,11.69933345,0.0,-15.8465929031,-16.6561756134,-6.88660860062,0.519939005375,-0.123927436769,0.0486164800823,25.3199996948,-344.368347168,-41.5330619812,9.796585082999997,3.2480316162000005,23.259955644632,16.709274588118,0.18980312350000084,-6.15268087387,16.0
2018-09-11 18:27:35.950,0.153467160474,0.0585657043106,-0.918508635861,0.519939005375,-0.123927436769,0.0486164800823,-2.745862,0.0392266,11.69933345,0.0,-16.3081951141,-16.6679477692,-5.92359113693,0.519939005375,-0.123927436769,0.0486164800823,25.9699993134,-373.088439941,-39.8151321411,11.796585082999997,3.4980316162000005,25.729954957932,16.680475531118,0.2712888718000013,-6.01391267776,16.0
2018-09-11 18:27:36.000,0.161337186077,-0.0291069188533,-0.917879360448,0.448613524437,-0.184174716473,0.0870323106647,-2.7850886,-0.02941995,13.3566573,0.0,-16.3081951141,-16.6679477692,-5.92359113693,0.519939005375,-0.123927436769,0.0486164800823,25.9699993134,-373.088439941,-39.8151321411,13.41688537600001,0.5701675415,15.791966438300001,16.632259665018,0.40233516700000216,-5.76391649246,16.0
2018-09-11 18:27:36.050,0.161337186077,-0.0291069188533,-0.917879360448,0.448613524437,-0.184174716473,0.0870323106647,-2.7850886,-0.02941995,13.3566573,0.0,-16.3081951141,-16.6679477692,-5.92359113693,0.519939005375,-0.123927436769,0.0486164800823,26.5999984741,-373.088439941,-38.1114768982,14.41688537600001,0.7301673889,17.6919660569,16.632259665018,0.40233516700000216,-5.76391649246,16.0
2018-09-11 18:27:36.100,0.161337186077,-0.0291069188533,-0.917879360448,0.448613524437,-0.184174716473,0.0870323106647,-2.7850886,-0.02941995,13.3566573,0.0,-16.3081951141,-16.6679477692,-5.92359113693,0.519939005375,-0.123927436769,0.0486164800823,26.5999984741,-373.088439941,-38.1114768982,14.41688537600001,0.740167617800001,17.7319669724,16.5911619067409,0.7033061980999982,-5.23418951035,16.0
2018-09-11 18:27:36.150,0.161337186077,-0.0291069188533,-0.917879360448,0.448613524437,-0.184174716473,0.0870323106647,-2.7850886,-0.02941995,13.3566573,0.0,-16.3081951141,-16.6679477692,-5.92359113693,0.519939005375,-0.123927436769,0.0486164800823,26.5999984741,-373.088439941,-38.1114768982,14.41688537600001,0.740167617800001,17.7319669724,16.5911619067409,0.7033061980999982,-5.23418951035,16.0
2018-09-11 18:27:36.200,0.161337186077,-0.0291069188533,-0.917879360448,0.448613524437,-0.184174716473,0.0870323106647,-2.7850886,-0.02941995,13.3566573,0.0,-16.3081951141,-16.6679477692,-5.92359113693,0.519939005375,-0.123927436769,0.0486164800823,27.1899986267,-402.709960938,-36.5362968445,16.41688537600001,0.7901678085000015,19.7119665146,16.5911619067409,0.7033061980999982,-5.23418951035,16.0
2018-09-11 18:27:36.250,0.161337186077,-0.0291069188533,-0.917879360448,0.448613524437,-0.184174716473,0.0870323106647,-2.7850886,-0.02941995,13.3566573,0.0,-17.0036945343,-16.2991142273,-4.82605552673,0.448613524437,-0.184174716473,0.0870323106647,27.7399997711,-402.709960938,-34.8455619812,18.41688537600001,0.7901678085000015,21.0119657517,16.361459910840903,1.0413131713999988,-4.77911615372,16.0
2018-09-11 18:27:36.300,0.161337186077,-0.0291069188533,-0.917879360448,0.448613524437,-0.184174716473,0.0870323106647,-2.7850886,-0.02941995,13.3566573,0.0,-17.0036945343,-16.2991142273,-4.82605552673,0.448613524437,-0.184174716473,0.0870323106647,28.2399997711,-422.193145752,-33.1657600403,19.41688537600001,0.8001670837000017,21.0119657517,16.2830240130409,1.1311626433999997,-4.70717525482,16.0
2018-09-11 18:27:36.350,0.161337186077,-0.0291069188533,-0.917879360448,0.448613524437,-0.184174716473,0.0870323106647,-2.7850886,-0.02941995,13.3566573,0.0,-17.0036945343,-16.2991142273,-4.82605552673,0.448613524437,-0.184174716473,0.0870323106647,28.2399997711,-422.193145752,-33.1657600403,19.41688537600001,0.8201675415,22.0919656754,16.329551488141,1.2683372498,-4.59760951996,16.0
2018-09-11 18:27:36.400,0.17815772264,-0.113939950635,-0.912895330764,0.292047649622,0.0286051444709,-0.109392002225,-2.61837555,0.9414384,11.6503002,0.0,-17.0036945343,-16.2991142273,-4.82605552673,0.448613524437,-0.184174716473,0.0870323106647,28.2399997711,-422.193145752,-33.1657600403,19.387145995999987,-0.9058237074999997,12.1933460236,16.246538907241,1.346920013500002,-4.54844760895,16.0
2018-09-11 18:27:36.450,0.17815772264,-0.113939950635,-0.912895330764,0.292047649622,0.0286051444709,-0.109392002225,-2.61837555,0.9414384,11.6503002,0.0,-17.0036945343,-16.2991142273,-4.82605552673,0.448613524437,-0.184174716473,0.0870323106647,28.7399997711,-422.193145752,-31.7706775665,21.387145995999987,-0.855823516800001,13.593343734800001,16.160034924741,1.428089141900001,-4.55407714844,16.0
2018-09-11 18:27:36.500,0.17815772264,-0.113939950635,-0.912895330764,0.292047649622,0.0286051444709,-0.109392002225,-2.61837555,0.9414384,11.6503002,0.0,-17.4600048065,-15.8583335876,-4.55347824097,0.292047649622,0.0286051444709,-0.109392002225,29.2199993134,-440.090759277,-30.1165122986,22.387145995999987,-0.8358230590000009,13.5833454132,16.024731427441,1.5452594758,-4.56895065308,16.0
2018-09-11 18:27:36.550,0.17815772264,-0.113939950635,-0.912895330764,0.292047649622,0.0286051444709,-0.109392002225,-2.61837555,0.9414384,11.6503002,0.0,-17.4600048065,-15.8583335876,-4.55347824097,0.292047649622,0.0286051444709,-0.109392002225,29.2199993134,-440.090759277,-30.1165122986,22.387145995999987,-0.8358230590000009,13.5833454132,16.024731427441,1.5452594758,-4.56895065308,16.0
2018-09-11 18:27:36.600,0.17815772264,-0.113939950635,-0.912895330764,0.292047649622,0.0286051444709,-0.109392002225,-2.61837555,0.9414384,11.6503002,0.0,-17.4600048065,-15.8583335876,-4.55347824097,0.292047649622,0.0286051444709,-0.109392002225,29.2199993134,-440.090759277,-30.1165122986,22.387145995999987,-0.6458234787000006,14.4433460236,16.263981461481,1.8086919784000006,-4.52303314209,16.0
2018-09-11 18:27:36.650,0.190818151411,-0.158677369925,-0.914099177657,0.414802491665,-0.136982783675,-0.195164993405,-2.52030905,0.28439285,10.983448,0.0,-17.4600048065,-15.8583335876,-4.55347824097,0.292047649622,0.0286051444709,-0.109392002225,29.2199993134,-440.090759277,-30.1165122986,22.387145995999987,-0.6458234787000006,14.4433460236,16.263981461481,1.8086919784000006,-4.52303314209,16.0
2018-09-11 18:27:36.700,0.190818151411,-0.158677369925,-0.914099177657,0.414802491665,-0.136982783675,-0.195164993405,-2.52030905,0.28439285,10.983448,0.0,-17.4600048065,-15.8583335876,-4.55347824097,0.292047649622,0.0286051444709,-0.109392002225,29.7099990845,-440.090759277,-29.2473583221,22.87533569300001,-0.3748788833999992,11.386690139799999,15.945128083181,2.0799551010000012,-4.57232570648,16.0
2018-09-11 18:27:36.750,0.190818151411,-0.158677369925,-0.914099177657,0.414802491665,-0.136982783675,-0.195164993405,-2.52030905,0.28439285,10.983448,0.0,-18.2512722015,-14.9381542206,-4.5739774704,0.414802491665,-0.136982783675,-0.195164993405,29.7099990845,-440.090759277,-29.2473583221,22.87533569300001,-0.3748788833999992,11.386690139799999,15.945128083181,2.0799551010000012,-4.57232570648,16.0
2018-09-11 18:27:36.800,0.190818151411,-0.158677369925,-0.914099177657,0.414802491665,-0.136982783675,-0.195164993405,-2.52030905,0.28439285,10.983448,0.0,-18.2512722015,-14.9381542206,-4.5739774704,0.414802491665,-0.136982783675,-0.195164993405,30.7199993134,-435.631744385,-25.9797325134,24.87533569300001,-0.07487964629999944,11.7866916656,15.632879853281,2.330657005299999,-4.57475566864,16.0
2018-09-11 18:27:36.850,0.190818151411,-0.158677369925,-0.914099177657,0.414802491665,-0.136982783675,-0.195164993405,-2.52030905,0.28439285,10.983448,0.0,-18.2512722015,-14.9381542206,-4.5739774704,0.414802491665,-0.136982783675,-0.195164993405,30.7199993134,-435.631744385,-25.9797325134,24.87533569300001,0.17512035370000056,11.856691360500005,15.87771081928,2.5772352219000005,-4.65834236145,16.0
2018-09-11 18:27:36.900,0.190818151411,-0.158677369925,-0.914099177657,0.414802491665,-0.136982783675,-0.195164993405,-2.52030905,0.28439285,10.983448,0.0,-18.2512722015,-14.9381542206,-4.5739774704,0.414802491665,-0.136982783675,-0.195164993405,30.7199993134,-435.631744385,-25.9797325134,24.87533569300001,0.1951208114000007,11.846693038900003,15.73080110548,2.6749868393000007,-4.73109960556,16.0
2018-09-11 18:27:36.950,0.190818151411,-0.158677369925,-0.914099177657,0.414802491665,-0.136982783675,-0.195164993405,-2.52030905,0.28439285,10.983448,0.0,-18.8075466156,-14.1530971527,-4.78005886078,0.414802491665,-0.136982783675,-0.195164993405,31.2299995422,-443.438537598,-25.1385345459,27.87533569300001,0.5051212310000004,13.5466899872,15.56522798538,2.7973260879,-4.76298284531,16.0
2018-09-11 18:27:37.000,0.190818151411,-0.158677369925,-0.914099177657,0.414802491665,-0.136982783675,-0.195164993405,-2.52030905,0.28439285,10.983448,0.0,-18.8075466156,-14.1530971527,-4.78005886078,0.414802491665,-0.136982783675,-0.195164993405,31.2299995422,-443.438537598,-25.1385345459,27.87533569300001,0.5051212310000004,13.5466899872,15.56522798538,2.7973260879,-4.76298284531,16.0
2018-09-11 18:27:37.050,0.203088475023,-0.239043383063,-0.909361908491,0.233504161239,-0.131459146738,-0.0963357612491,-2.44185585,0.0392266,10.52253545,0.0,-18.8075466156,-14.1530971527,-4.78005886078,0.414802491665,-0.136982783675,-0.195164993405,31.75,-443.438537598,-23.5406627655,24.718032836999996,0.3508310318000003,4.556053161599998,16.58738303182,3.418440818799999,-4.78354597092,16.0
2018-09-11 18:27:37.100,0.203088475023,-0.239043383063,-0.909361908491,0.233504161239,-0.131459146738,-0.0963357612491,-2.44185585,0.0392266,10.52253545,0.0,-18.8075466156,-14.1530971527,-4.78005886078,0.414802491665,-0.136982783675,-0.195164993405,31.75,-443.438537598,-23.5406627655,24.718032836999996,0.3508310318000003,4.556053161599998,16.58738303182,3.418440818799999,-4.78354597092,16.0
2018-09-11 18:27:37.150,0.203088475023,-0.239043383063,-0.909361908491,0.233504161239,-0.131459146738,-0.0963357612491,-2.44185585,0.0392266,10.52253545,0.0,-18.8075466156,-14.1530971527,-4.78005886078,0.414802491665,-0.136982783675,-0.195164993405,32.2900009155,-449.201385498,-24.0911579132,30.718032836999996,0.5508317947000005,8.486053466799994,16.26715445522,3.677868843099999,-4.67442274094,16.0
2018-09-11 18:27:37.200,0.203088475023,-0.239043383063,-0.909361908491,0.233504161239,-0.131459146738,-0.0963357612491,-2.44185585,0.0392266,10.52253545,0.0,-18.8075466156,-14.1530971527,-4.78005886078,0.414802491665,-0.136982783675,-0.195164993405,32.7999992371,-449.201385498,-22.4195785522,31.718032836999996,0.6408309936000016,8.266052246099996,15.929980993320001,3.9359235763999987,-4.562728405,16.0
2018-09-11 18:27:37.250,0.203088475023,-0.239043383063,-0.909361908491,0.233504161239,-0.131459146738,-0.0963357612491,-2.44185585,0.0392266,10.52253545,0.0,-19.9410057068,-12.6570701599,-4.43449354172,0.233504161239,-0.131459146738,-0.0963357612491,32.7999992371,-449.201385498,-22.4195785522,31.718032836999996,0.6408309936000016,8.276050567599995,15.43877100942,4.2976865769,-4.37571001053,16.0
2018-09-11 18:27:37.300,0.203088475023,-0.239043383063,-0.909361908491,0.233504161239,-0.131459146738,-0.0963357612491,-2.44185585,0.0392266,10.52253545,0.0,-19.9410057068,-12.6570701599,-4.43449354172,0.233504161239,-0.131459146738,-0.0963357612491,32.7999992371,-449.201385498,-22.4195785522,31.718032836999996,0.6408309936000016,8.266052246099996,16.20779633517,4.6869316101,-4.311379432679999,16.0
2018-09-11 18:27:37.350,0.203088475023,-0.239043383063,-0.909361908491,0.233504161239,-0.131459146738,-0.0963357612491,-2.44185585,0.0392266,10.52253545,0.0,-19.9410057068,-12.6570701599,-4.43449354172,0.233504161239,-0.131459146738,-0.0963357612491,33.2900009155,-413.99307251,-22.1164093018,35.718032836999996,0.6508312225000008,9.426052093499997,15.91940236087,4.844963073799999,-4.355195522309999,16.0
2018-09-11 18:27:37.400,0.203088475023,-0.239043383063,-0.909361908491,0.233504161239,-0.131459146738,-0.0963357612491,-2.44185585,0.0392266,10.52253545,0.0,-19.9410057068,-12.6570701599,-4.43449354172,0.233504161239,-0.131459146738,-0.0963357612491,33.2900009155,-413.99307251,-22.1164093018,35.718032836999996,0.6608314514,9.406051635699995,15.73364663127,4.944650650100002,-4.403302192689999,16.0
2018-09-11 18:27:37.450,0.195349839406,-0.267784654235,-0.913898057035,0.126063585281,-0.130379661918,-0.229287534952,-2.3732093,0.7060788,9.80665,0.0,-19.9410057068,-12.6570701599,-4.43449354172,0.233504161239,-0.131459146738,-0.0963357612491,33.7700004578,-413.99307251,-20.4547233582,32.22013855,0.4382696151000012,6.916973114000001,15.436126947370001,5.104206085200001,-4.453145027159999,16.0
2018-09-11 18:27:37.500,0.195349839406,-0.267784654235,-0.913898057035,0.126063585281,-0.130379661918,-0.229287534952,-2.3732093,0.7060788,9.80665,0.0,-20.6779708862,-11.4196510315,-4.47466087341,0.126063585281,-0.130379661918,-0.229287534952,33.7700004578,-413.99307251,-20.4547233582,32.22013855,0.4382696151000012,6.936973571800003,15.22182774547,5.217969894500001,-4.481777667999999,16.0
2018-09-11 18:27:37.550,0.195349839406,-0.267784654235,-0.913898057035,0.126063585281,-0.130379661918,-0.229287534952,-2.3732093,0.7060788,9.80665,0.0,-20.6779708862,-11.4196510315,-4.47466087341,0.126063585281,-0.130379661918,-0.229287534952,34.25,-450.049987793,-18.8238143921,33.22013855,1.3382692337000002,6.946971893300002,14.97969269757,5.350111007700001,-4.467390537259999,16.0
2018-09-11 18:27:37.600,0.195349839406,-0.267784654235,-0.913898057035,0.126063585281,-0.130379661918,-0.229287534952,-2.3732093,0.7060788,9.80665,0.0,-20.6779708862,-11.4196510315,-4.47466087341,0.126063585281,-0.130379661918,-0.229287534952,34.25,-450.049987793,-18.8238143921,33.22013855,1.3382692337000002,6.946971893300002,14.97969269757,5.350111007700001,-4.467390537259999,16.0
2018-09-11 18:27:37.650,0.195349839406,-0.267784654235,-0.913898057035,0.126063585281,-0.130379661918,-0.229287534952,-2.3732093,0.7060788,9.80665,0.0,-20.6779708862,-11.4196510315,-4.47466087341,0.126063585281,-0.130379661918,-0.229287534952,34.7299995422,-450.049987793,-19.7536582947,41.22013855,3.428269386250001,7.016971588100006,16.4517221451,6.413512229900002,-4.353399753569999,16.0
2018-09-11 18:27:37.700,0.195349839406,-0.267784654235,-0.913898057035,0.126063585281,-0.130379661918,-0.229287534952,-2.3732093,0.7060788,9.80665,0.0,-20.6779708862,-11.4196510315,-4.47466087341,0.126063585281,-0.130379661918,-0.229287534952,34.7299995422,-450.049987793,-19.7536582947,41.22013855,3.4382696151300003,7.0469703674,16.4517221451,6.413512229900002,-4.353399753569999,16.0
2018-09-11 18:27:37.750,0.195349839406,-0.267784654235,-0.913898057035,0.126063585281,-0.130379661918,-0.229287534952,-2.3732093,0.7060788,9.80665,0.0,-21.496887207,-9.86636829376,-4.28688526154,0.126063585281,-0.130379661918,-0.229287534952,35.2000007629,-434.572418213,-17.9904842377,42.22013855,5.43826961513,7.066970825200002,15.77133941651,6.751206397999999,-4.259883403779999,16.0
2018-09-11 18:27:37.800,0.195349839406,-0.267784654235,-0.913898057035,0.126063585281,-0.130379661918,-0.229287534952,-2.3732093,0.7060788,9.80665,0.0,-21.496887207,-9.86636829376,-4.28688526154,0.126063585281,-0.130379661918,-0.229287534952,35.2000007629,-434.572418213,-17.9904842377,42.22013855,5.448269367180001,7.086971282900002,15.34260177613,6.950003623999999,-4.220467090609999,16.0
2018-09-11 18:27:37.850,0.195349839406,-0.267784654235,-0.913898057035,0.126063585281,-0.130379661918,-0.229287534952,-2.3732093,0.7060788,9.80665,0.0,-21.496887207,-9.86636829376,-4.28688526154,0.126063585281,-0.130379661918,-0.229287534952,35.2000007629,-434.572418213,-17.9904842377,42.22013855,5.448269367180001,7.086971282900002,15.34260177613,6.950003623999999,-4.220467090609999,16.0
2018-09-11 18:27:37.900,0.171556781816,-0.315535765215,-0.918637359149,0.214005172253,-0.245424866676,-0.164741039276,-2.1378497,0.53936575,13.15071765,0.0,-21.496887207,-9.86636829376,-4.28688526154,0.126063585281,-0.130379661918,-0.229287534952,35.6699981689,-434.572418213,-16.2596893311,43.22013855,7.43826961513,7.1369705200000055,16.307274818419998,7.912439346299999,-4.165488719939999,16.0
