%time,field.orientation.x,field.orientation.y,field.orientation.z,field.angular_velocity.x,field.angular_velocity.y,field.angular_velocity.z,field.linear_acceleration.x,field.linear_acceleration.y,field.linear_acceleration.z,field.data,field.twist.linear.x,field.twist.linear.y,field.twist.linear.z,field.twist.angular.x,field.twist.angular.y,field.twist.angular.z,field.alt_error,field.aspd_error,field.xtrack_error,delta_yaw,delta_pitch,delta_roll,delta_x,delta_y,delta_z,delta_roll_airspeed
2018-07-30 21:14:36.150,,,,,,,,,,0.0,,,,,,,0.449999988079,-7.33509063721,-30.633026123,193.1391830444,2.36257493496,22.837623596100002,-2.004749566316,32.8276262284,-0.9569581151009999,-0.07335090639999997
2018-07-30 21:14:36.200,,,,,,,,,,0.0,-16.7969818115,2.4521355629,-0.931437313557,0.452129989862,0.000486433506012,-0.0665585249662,0.449999988079,-7.33509063721,-30.633026123,193.1391830444,2.3825749158800003,22.837623596100002,-2.131096869706,32.9082784653,-0.9985157251359998,-0.07335090639999997
2018-07-30 21:14:36.250,,,,,,,,,,0.0,-16.7969818115,2.4521355629,-0.931437313557,0.452129989862,0.000486433506012,-0.0665585249662,0.449999988079,-7.33509063721,-30.633026123,193.1391830444,2.3825749158800003,22.837623596100002,-2.131096869706,32.9082784653,-0.9985157251359998,-0.07335090639999997
2018-07-30 21:14:36.300,,,,,,,,,,0.0,-16.7969818115,2.4521355629,-0.931437313557,0.452129989862,0.000486433506012,-0.0665585249662,0.550000011921,-29.6237945557,-28.9362220764,193.1391830444,2.7625749111099998,25.347621917700003,13.09429597855,17.072050094599998,-1.144186735149998,-0.2962379455999997
2018-07-30 21:14:36.350,,,,,,,,,,0.0,-17.2069263458,3.17542934418,-1.21879136562,0.443846970797,-0.0796924382448,-0.107486724854,0.669999957085,-47.2507476807,-372.623291016,51.0587768555,0.0737023353499997,18.4422912598,12.90262556076,17.176671981799995,-1.215513229369998,0.5274925231999994
2018-07-30 21:14:36.400,0.0425283003741,-0.201223647186,-0.977950952401,0.443846970797,-0.0796924382448,-0.107486724854,0.6668522,0.38245935,8.65927195,0.0,-17.2069263458,3.17542934418,-1.21879136562,0.443846970797,-0.0796924382448,-0.107486724854,0.669999957085,-47.2507476807,-372.623291016,51.0587768555,0.09370231627999992,18.4522895813,12.76140785217,17.227977752699996,-1.223734021189998,0.5274925231999994
2018-07-30 21:14:36.450,0.0425283003741,-0.201223647186,-0.977950952401,0.443846970797,-0.0796924382448,-0.107486724854,0.6668522,0.38245935,8.65927195,0.0,-17.2069263458,3.17542934418,-1.21879136562,0.443846970797,-0.0796924382448,-0.107486724854,0.669999957085,-47.2507476807,-372.623291016,51.0587768555,0.09370231627999992,18.4522895813,12.76140785217,17.227977752699996,-1.223734021189998,0.5274925231999994
2018-07-30 21:14:36.500,0.0425283003741,-0.201223647186,-0.977950952401,0.443846970797,-0.0796924382448,-0.107486724854,0.6668522,0.38245935,8.65927195,0.0,-17.2069263458,3.17542934418,-1.21879136562,0.443846970797,-0.0796924382448,-0.107486724854,0.810000002384,13.4537696838,-370.898834229,51.0587768555,-2.39629769326,18.022293090799998,12.27816414833,17.437538146999998,-1.227586865429998,0.13453769680000072
2018-07-30 21:14:36.550,0.0425283003741,-0.201223647186,-0.977950952401,0.443846970797,-0.0796924382448,-0.107486724854,0.6668522,0.38245935,8.65927195,0.0,-17.2069263458,3.17542934418,-1.21879136562,0.443846970797,-0.0796924382448,-0.107486724854,0.949999988079,-28.7010192871,-369.165924072,51.0587768555,-4.826297998429999,17.5422897339,12.27816414833,17.437538146999998,-1.227586865429998,0.13453769680000072
2018-07-30 21:14:36.600,0.0425283003741,-0.201223647186,-0.977950952401,0.443846970797,-0.0796924382448,-0.107486724854,0.6668522,0.38245935,8.65927195,0.0,-17.2069263458,3.17542934418,-1.21879136562,0.443846970797,-0.0796924382448,-0.107486724854,0.949999988079,-28.7010192871,-369.165924072,51.0587768555,-4.806297540670001,17.5422897339,11.92117595673,17.611146926899995,-1.235192418099998,-0.28701019289999863
2018-07-30 21:14:36.650,0.0425283003741,-0.201223647186,-0.977950952401,0.443846970797,-0.0796924382448,-0.107486724854,0.6668522,0.38245935,8.65927195,0.0,-17.6620750427,4.18824768066,-1.21821701527,0.443846970797,-0.0796924382448,-0.107486724854,1.09000003338,-72.2717285156,-367.39074707,51.0587768555,-7.15629792215,17.002292633099998,11.57814121246,17.792690277099997,-1.207865595819998,-0.7227172852000017
2018-07-30 21:14:36.700,0.0342040496365,-0.271450518526,-0.961843782434,0.461463868618,-0.0484782271087,-0.237451165915,2.02997655,0.50013915,11.46397385,0.0,-17.6620750427,4.18824768066,-1.21821701527,0.443846970797,-0.0796924382448,-0.107486724854,1.09000003338,-72.2717285156,-367.39074707,47.189155578599994,-7.3120055198300005,8.8610515594,11.57814121246,17.792690277099997,-1.207865595819998,-0.7227172852000017
2018-07-30 21:14:36.750,0.0342040496365,-0.271450518526,-0.961843782434,0.461463868618,-0.0484782271087,-0.237451165915,2.02997655,0.50013915,11.46397385,0.0,-17.6620750427,4.18824768066,-1.21821701527,0.443846970797,-0.0796924382448,-0.107486724854,1.23000001907,-128.146179199,-365.59866333,47.189155578599994,-6.342005252830001,8.331052780099999,11.000454902649999,18.115049362199997,-1.147743105889998,-1.2814617157000008
2018-07-30 21:14:36.800,0.0342040496365,-0.271450518526,-0.961843782434,0.461463868618,-0.0484782271087,-0.237451165915,2.02997655,0.50013915,11.46397385,0.0,-17.6620750427,4.18824768066,-1.21821701527,0.443846970797,-0.0796924382448,-0.107486724854,1.23000001907,-128.146179199,-365.59866333,47.189155578599994,-6.342005252830001,8.331052780099999,11.000454902649999,18.115049362199997,-1.147743105889998,-1.2814617157000008
2018-07-30 21:14:36.850,0.0342040496365,-0.271450518526,-0.961843782434,0.461463868618,-0.0484782271087,-0.237451165915,2.02997655,0.50013915,11.46397385,0.0,-17.6620750427,4.18824768066,-1.21821701527,0.443846970797,-0.0796924382448,-0.107486724854,1.23000001907,-128.146179199,-365.59866333,47.189155578599994,-6.29200506213,8.321050643899998,10.49918985367,18.355875015299997,-1.124842286109998,-1.2814617157000008
2018-07-30 21:14:36.900,0.0342040496365,-0.271450518526,-0.961843782434,0.461463868618,-0.0484782271087,-0.237451165915,2.02997655,0.50013915,11.46397385,0.0,-18.4982051849,5.84991359711,-1.14048218727,0.461463868618,-0.0484782271087,-0.237451165915,1.37000000477,-175.417907715,-363.772796631,47.189155578599994,-5.502005100250001,7.6110515594,10.15008640289,18.498205184899998,-1.140482187269998,-1.754179000899999
2018-07-30 21:14:36.950,0.0342040496365,-0.271450518526,-0.961843782434,0.461463868618,-0.0484782271087,-0.237451165915,2.02997655,0.50013915,11.46397385,0.0,-18.4982051849,5.84991359711,-1.14048218727,0.461463868618,-0.0484782271087,-0.237451165915,1.51999998093,-229.532623291,-361.938476562,47.189155578599994,-5.14200544357,6.711053848300001,9.725131034850001,18.611682891799997,-1.102180480959998,-2.295326232899999
2018-07-30 21:14:37.000,0.0342040496365,-0.271450518526,-0.961843782434,0.461463868618,-0.0484782271087,-0.237451165915,2.02997655,0.50013915,11.46397385,0.0,-18.4982051849,5.84991359711,-1.14048218727,0.461463868618,-0.0484782271087,-0.237451165915,1.51999998093,-229.532623291,-361.938476562,47.189155578599994,-5.13200521469,6.701051711999998,9.43689537048,18.669569015499995,-1.116946697239998,-2.295326232899999
2018-07-30 21:14:37.050,0.0342040496365,-0.271450518526,-0.961843782434,0.461463868618,-0.0484782271087,-0.237451165915,2.02997655,0.50013915,11.46397385,0.0,-18.4982051849,5.84991359711,-1.14048218727,0.461463868618,-0.0484782271087,-0.237451165915,1.66999995708,-271.419921875,-360.070251465,47.189155578599994,-3.06200504303,5.381052017200002,9.02691793442,18.733053207399998,-1.187183856959998,-2.714199066199999
2018-07-30 21:14:37.100,0.0318900232254,-0.327975441215,-0.942888077021,0.228168830276,-0.16190187633,-0.239901319146,1.0002783,0.2941995,11.4345539,0.0,-18.4982051849,5.84991359711,-1.14048218727,0.461463868618,-0.0484782271087,-0.237451165915,1.66999995708,-271.419921875,-360.070251465,41.909667968799994,-1.4944529533400006,-1.230693817099997,8.75666666031,18.762479782099998,-1.264460682869998,-2.714199066199999
2018-07-30 21:14:37.150,0.0318900232254,-0.327975441215,-0.942888077021,0.228168830276,-0.16190187633,-0.239901319146,1.0002783,0.2941995,11.4345539,0.0,-18.7630310059,7.38392162323,-1.27160406113,0.228168830276,-0.16190187633,-0.239901319146,1.83999991417,-298.782348633,-358.193634033,41.909667968799994,-1.4844532013,-1.2406921386000036,8.343592166899999,18.776082992599996,-1.304193019869998,-2.9878234863000017
2018-07-30 21:14:37.200,0.0318900232254,-0.327975441215,-0.942888077021,0.228168830276,-0.16190187633,-0.239901319146,1.0002783,0.2941995,11.4345539,0.0,-18.7630310059,7.38392162323,-1.27160406113,0.228168830276,-0.16190187633,-0.239901319146,1.83999991417,-298.782348633,-358.193634033,41.909667968799994,-1.4844532013,-1.2406921386000036,8.343592166899999,18.776082992599996,-1.304193019869998,-2.9878234863000017
2018-07-30 21:14:37.250,0.0318900232254,-0.327975441215,-0.942888077021,0.228168830276,-0.16190187633,-0.239901319146,1.0002783,0.2941995,11.4345539,0.0,-18.7630310059,7.38392162323,-1.27160406113,0.228168830276,-0.16190187633,-0.239901319146,1.83999991417,-298.782348633,-358.193634033,41.909667968799994,0.5355467796299997,-2.710693359300002,7.84988212585,18.760131835899998,-1.506272554399998,-2.9878234863000017
2018-07-30 21:14:37.300,0.0318900232254,-0.327975441215,-0.942888077021,0.228168830276,-0.16190187633,-0.239901319146,1.0002783,0.2941995,11.4345539,0.0,-18.7630310059,7.38392162323,-1.27160406113,0.228168830276,-0.16190187633,-0.239901319146,2.02999997139,-304.507446289,-356.325408936,41.909667968799994,2.5055468082399996,-4.260692596399998,7.61351776123,18.741952896099995,-1.753088593479998,-3.0450744629000006
2018-07-30 21:14:37.350,0.0318900232254,-0.327975441215,-0.942888077021,0.228168830276,-0.16190187633,-0.239901319146,1.0002783,0.2941995,11.4345539,0.0,-18.7630310059,7.38392162323,-1.27160406113,0.228168830276,-0.16190187633,-0.239901319146,2.24000000954,-302.023132324,-354.448822021,41.909667968799994,4.435546815393,-5.3106918334,7.39499378204,18.703126907299996,-1.966945409769998,-3.0202312469
2018-07-30 21:14:37.400,0.0318900232254,-0.327975441215,-0.942888077021,0.228168830276,-0.16190187633,-0.239901319146,1.0002783,0.2941995,11.4345539,0.0,-18.7031269073,8.60500621796,-1.96694540977,0.228168830276,-0.16190187633,-0.239901319146,2.24000000954,-302.023132324,-354.448822021,41.909667968799994,4.42554682493,-5.3106918334,7.26688861847,18.662076950099998,-2.105059146879998,-3.0202312469
2018-07-30 21:14:37.450,0.0119665340817,-0.313039663739,-0.945407676237,-0.205055192113,-0.17532505095,-0.246189489961,-0.55897905,1.1571847,7.649187,0.0,-18.7031269073,8.60500621796,-1.96694540977,0.228168830276,-0.16190187633,-0.239901319146,2.48000001907,-306.582641602,-352.631378174,36.62795257569999,3.5030288696300005,-4.6001300812,7.05020332336,18.590690612799996,-2.2612452506999983,-3.065826416
2018-07-30 21:14:37.500,0.0119665340817,-0.313039663739,-0.945407676237,-0.205055192113,-0.17532505095,-0.246189489961,-0.55897905,1.1571847,7.649187,0.0,-18.7031269073,8.60500621796,-1.96694540977,0.228168830276,-0.16190187633,-0.239901319146,2.48000001907,-306.582641602,-352.631378174,36.62795257569999,3.49302887917,-4.6001300812,6.866694450380001,18.531505584699996,-2.3046195506999982,-3.065826416
2018-07-30 21:14:37.550,0.0119665340817,-0.313039663739,-0.945407676237,-0.205055192113,-0.17532505095,-0.246189489961,-0.55897905,1.1571847,7.649187,0.0,-18.7031269073,8.60500621796,-1.96694540977,0.228168830276,-0.16190187633,-0.239901319146,2.73000001907,-330.579376221,-350.779998779,36.62795257569999,3.29302883149,-6.220130920399999,6.5589456558200006,18.432456970199997,-2.3207809925099983,-3.3057937622000004
2018-07-30 21:14:37.600,0.0119665340817,-0.313039663739,-0.945407676237,-0.205055192113,-0.17532505095,-0.246189489961,-0.55897905,1.1571847,7.649187,0.0,-18.7031269073,8.60500621796,-1.96694540977,0.228168830276,-0.16190187633,-0.239901319146,2.73000001907,-330.579376221,-350.779998779,36.62795257569999,3.28302884102,-6.2301311493,6.3159236908,18.339010238599997,-2.298758745189998,-3.3057937622000004
2018-07-30 21:14:37.650,0.0119665340817,-0.313039663739,-0.945407676237,-0.205055192113,-0.17532505095,-0.246189489961,-0.55897905,1.1571847,7.649187,0.0,-18.2446708679,9.92517757416,-2.26973485947,-0.205055192113,-0.17532505095,-0.246189489961,2.98000001907,-363.804626465,-348.979492188,36.62795257569999,3.1830289363900004,-8.520130157499999,5.944695472699999,18.193794250499998,-2.2609484195699983,-3.6380462646
2018-07-30 21:14:37.700,0.0119665340817,-0.313039663739,-0.945407676237,-0.205055192113,-0.17532505095,-0.246189489961,-0.55897905,1.1571847,7.649187,0.0,-18.2446708679,9.92517757416,-2.26973485947,-0.205055192113,-0.17532505095,-0.246189489961,2.98000001907,-363.804626465,-348.979492188,36.62795257569999,3.1930289268500003,-8.5301303864,5.678585052500001,18.085670471199997,-2.2056293487499983,-3.6380462646
2018-07-30 21:14:37.750,0.0119665340817,-0.313039663739,-0.945407676237,-0.205055192113,-0.17532505095,-0.246189489961,-0.55897905,1.1571847,7.649187,0.0,-18.2446708679,9.92517757416,-2.26973485947,-0.205055192113,-0.17532505095,-0.246189489961,2.98000001907,-363.804626465,-348.979492188,36.62795257569999,3.1930289268500003,-8.5301303864,5.678585052500001,18.085670471199997,-2.2056293487499983,-3.6380462646
2018-07-30 21:14:37.800,-0.00550418310544,-0.312916773369,-0.931579108894,0.356415838003,-0.25047108531,-0.402486979961,-1.24544455,-0.02941995,12.9251647,0.0,-18.2446708679,9.92517757416,-2.26973485947,-0.205055192113,-0.17532505095,-0.246189489961,3.21000003815,-389.20211792,-347.195739746,36.62795257569999,3.2330288887100003,-11.220130920399999,5.009613037099999,17.778228759799998,-2.109722137449998,-3.8920211792000003
2018-07-30 21:14:37.850,-0.00550418310544,-0.312916773369,-0.931579108894,0.356415838003,-0.25047108531,-0.402486979961,-1.24544455,-0.02941995,12.9251647,0.0,-17.5418682098,11.4961996078,-1.98967647552,0.356415838003,-0.25047108531,-0.402486979961,3.41999983788,-434.156433105,-345.488220215,25.511283874499995,4.9462057352,-14.378818511999995,4.5038003922000005,17.541868209799997,-1.989676475519998,-4.3415641785000005
2018-07-30 21:14:37.900,-0.00550418310544,-0.312916773369,-0.931579108894,0.356415838003,-0.25047108531,-0.402486979961,-1.24544455,-0.02941995,12.9251647,0.0,-17.5418682098,11.4961996078,-1.98967647552,0.356415838003,-0.25047108531,-0.402486979961,3.41999983788,-434.156433105,-345.488220215,25.511283874499995,4.96620571613,-14.378818511999995,4.147086143499999,17.371252059899998,-1.889238238329998,-4.3415641785000005
2018-07-30 21:14:37.950,-0.00550418310544,-0.312916773369,-0.931579108894,0.356415838003,-0.25047108531,-0.402486979961,-1.24544455,-0.02941995,12.9251647,0.0,-17.5418682098,11.4961996078,-1.98967647552,0.356415838003,-0.25047108531,-0.402486979961,3.58999991417,-452.004638672,-343.789123535,25.511283874499995,5.316205739973,-18.578819274899995,3.633686065699999,17.105260848999997,-1.779067039489998,-4.5200462341000005
2018-07-30 21:14:38.000,-0.00550418310544,-0.312916773369,-0.931579108894,0.356415838003,-0.25047108531,-0.402486979961,-1.24544455,-0.02941995,12.9251647,0.0,-17.5418682098,11.4961996078,-1.98967647552,0.356415838003,-0.25047108531,-0.402486979961,3.58999991417,-452.004638672,-343.789123535,25.511283874499995,5.3262057900410005,-18.578819274899995,3.2971382141000003,16.906375884999996,-1.708872079849998,-4.5200462341000005
2018-07-30 21:14:38.050,-0.00550418310544,-0.312916773369,-0.931579108894,0.356415838003,-0.25047108531,-0.402486979961,-1.24544455,-0.02941995,12.9251647,0.0,-17.5418682098,11.4961996078,-1.98967647552,0.356415838003,-0.25047108531,-0.402486979961,3.73000001907,-460.280212402,-342.174560547,25.511283874499995,5.266205787657,-22.958818435699996,2.847349166900001,16.621068954499997,-1.644029498099998,-4.6028022765999985
2018-07-30 21:14:38.100,-0.00550418310544,-0.312916773369,-0.931579108894,0.356415838003,-0.25047108531,-0.402486979961,-1.24544455,-0.02941995,12.9251647,0.0,-16.3356723785,13.564658165,-1.60652160645,0.356415838003,-0.25047108531,-0.402486979961,3.73000001907,-460.280212402,-342.174560547,25.511283874499995,5.256205797194,-22.9488182068,2.5717630386000003,16.430425643899998,-1.625903487209998,-4.6028022765999985
2018-07-30 21:14:38.150,-0.0406611464753,-0.314299646247,-0.919714349425,-0.247937113047,-0.280909359455,-0.0321223847568,-1.32389775,-0.6276256,12.60154525,0.0,-16.3356723785,13.564658165,-1.60652160645,0.356415838003,-0.25047108531,-0.402486979961,3.84999990463,-454.364196777,-340.576934814,25.511283874499995,4.90620577335,-26.95881843569,2.1750106812,16.150516509999996,-1.561722517009998,-4.5436420441
2018-07-30 21:14:38.200,-0.0406611464753,-0.314299646247,-0.919714349425,-0.247937113047,-0.280909359455,-0.0321223847568,-1.32389775,-0.6276256,12.60154525,0.0,-16.3356723785,13.564658165,-1.60652160645,0.356415838003,-0.25047108531,-0.402486979961,3.84999990463,-454.364196777,-340.576934814,19.069740295400003,2.89322817326,-27.68103981019,1.8291692733999998,15.855193138099997,-1.490464687349998,-4.5436420441
2018-07-30 21:14:38.250,-0.0406611464753,-0.314299646247,-0.919714349425,-0.247937113047,-0.280909359455,-0.0321223847568,-1.32389775,-0.6276256,12.60154525,0.0,-16.3356723785,13.564658165,-1.60652160645,0.356415838003,-0.25047108531,-0.402486979961,3.84999990463,-454.364196777,-340.576934814,19.069740295400003,2.89322817326,-27.68103981019,1.8291692733999998,15.855193138099997,-1.490464687349998,-4.5436420441
2018-07-30 21:14:38.300,-0.0406611464753,-0.314299646247,-0.919714349425,-0.247937113047,-0.280909359455,-0.0321223847568,-1.32389775,-0.6276256,12.60154525,0.0,-16.3356723785,13.564658165,-1.60652160645,0.356415838003,-0.25047108531,-0.402486979961,3.94999980927,-445.416625977,-339.046661377,19.069740295400003,2.3632282018699997,-31.631039619459997,1.3765344620000004,15.463440895099996,-1.352253317829998,-4.454166412399999
2018-07-30 21:14:38.350,-0.0406611464753,-0.314299646247,-0.919714349425,-0.247937113047,-0.280909359455,-0.0321223847568,-1.32389775,-0.6276256,12.60154525,0.0,-16.3356723785,13.564658165,-1.60652160645,0.356415838003,-0.25047108531,-0.402486979961,3.94999980927,-445.416625977,-339.046661377,19.069740295400003,2.3632282018699997,-31.631039619459997,1.3765344620000004,15.463440895099996,-1.352253317829998,-4.454166412399999
2018-07-30 21:14:38.400,-0.0406611464753,-0.314299646247,-0.919714349425,-0.247937113047,-0.280909359455,-0.0321223847568,-1.32389775,-0.6276256,12.60154525,0.0,-15.0058908463,15.0414304733,-1.2930431366,-0.247937113047,-0.280909359455,-0.0321223847568,4.03999996185,-436.626251221,-337.558898926,19.069740295400003,1.6532282829299998,-35.28103971483,1.0376844405999996,15.103600501999997,-1.310286402699998,-4.366262435900001
2018-07-30 21:14:38.450,-0.0406611464753,-0.314299646247,-0.919714349425,-0.247937113047,-0.280909359455,-0.0321223847568,-1.32389775,-0.6276256,12.60154525,0.0,-15.0058908463,15.0414304733,-1.2930431366,-0.247937113047,-0.280909359455,-0.0321223847568,4.09999990463,-421.253204346,-336.138763428,19.069740295400003,0.8032281398799999,-38.22103965284,0.7256317139000004,14.674089431799997,-1.222608685489998,-4.212532043500001
2018-07-30 21:14:38.500,-0.0406611464753,-0.314299646247,-0.919714349425,-0.247937113047,-0.280909359455,-0.0321223847568,-1.32389775,-0.6276256,12.60154525,0.0,-15.0058908463,15.0414304733,-1.2930431366,-0.247937113047,-0.280909359455,-0.0321223847568,4.09999990463,-421.253204346,-336.138763428,19.069740295400003,0.7632281780199999,-38.22103965284,0.7256317139000004,14.674089431799997,-1.222608685489998,-4.212532043500001
2018-07-30 21:14:38.550,-0.0492961090821,-0.209723759973,-0.939428423257,-0.610737204552,-0.0951533988118,-0.193855971098,-1.3533177,1.12776475,11.20900095,0.0,-14.2818870544,15.5385398865,-1.10863947868,-0.610737204552,-0.0951533988118,-0.193855971098,4.15999984741,-401.498413086,-334.743865967,14.5588951111,-3.02030062676,-28.73985552792,0.5070638656999993,14.359732627899996,-1.121114492419998,-4.0149841309
2018-07-30 21:14:38.600,-0.0492961090821,-0.209723759973,-0.939428423257,-0.610737204552,-0.0951533988118,-0.193855971098,-1.3533177,1.12776475,11.20900095,0.0,-14.2818870544,15.5385398865,-1.10863947868,-0.610737204552,-0.0951533988118,-0.193855971098,4.15999984741,-401.498413086,-334.743865967,14.5588951111,-3.02030062676,-28.73985552792,0.5070638656999993,14.359732627899996,-1.121114492419998,-4.0149841309
2018-07-30 21:14:38.650,-0.0492961090821,-0.209723759973,-0.939428423257,-0.610737204552,-0.0951533988118,-0.193855971098,-1.3533177,1.12776475,11.20900095,0.0,-14.2818870544,15.5385398865,-1.10863947868,-0.610737204552,-0.0951533988118,-0.193855971098,4.19999980927,-389.722045898,-333.425170898,14.5588951111,-3.8903005123199996,-30.84985542302,0.3305864334000006,13.996131896999996,-1.043113708499998,-3.8972206116000017
2018-07-30 21:14:38.700,-0.0492961090821,-0.209723759973,-0.939428423257,-0.610737204552,-0.0951533988118,-0.193855971098,-1.3533177,1.12776475,11.20900095,0.0,-14.2818870544,15.5385398865,-1.10863947868,-0.610737204552,-0.0951533988118,-0.193855971098,4.19999980927,-389.722045898,-333.425170898,14.5588951111,-3.9103004932399994,-30.84985542302,0.2656564712999998,13.857254028299996,-1.021460175509998,-3.8972206116000017
2018-07-30 21:14:38.750,-0.0492961090821,-0.209723759973,-0.939428423257,-0.610737204552,-0.0951533988118,-0.193855971098,-1.3533177,1.12776475,11.20900095,0.0,-14.2818870544,15.5385398865,-1.10863947868,-0.610737204552,-0.0951533988118,-0.193855971098,4.19999980927,-389.722045898,-333.425170898,14.5588951111,-3.9103004932399994,-30.84985542302,0.2656564712999998,13.857254028299996,-1.021460175509998,-3.8972206116000017
2018-07-30 21:14:38.800,-0.0492961090821,-0.209723759973,-0.939428423257,-0.610737204552,-0.0951533988118,-0.193855971098,-1.3533177,1.12776475,11.20900095,0.0,-14.2818870544,15.5385398865,-1.10863947868,-0.610737204552,-0.0951533988118,-0.193855971098,4.25,-380.165466309,-332.123352051,14.5588951111,-4.740300416949999,-32.64985561375,0.16021347050000045,13.598916053799996,-1.018685460089998,-3.801654815700001
2018-07-30 21:14:38.850,-0.0492961090821,-0.209723759973,-0.939428423257,-0.610737204552,-0.0951533988118,-0.193855971098,-1.3533177,1.12776475,11.20900095,0.0,-13.4085960388,15.8885812759,-1.01137256622,-0.610737204552,-0.0951533988118,-0.193855971098,4.2999997139,-359.217071533,-330.846923828,14.5588951111,-5.57030081749,-34.09985542302,0.1289920806999998,13.472285270699997,-1.012035250659998,-3.801654815700001
2018-07-30 21:14:38.900,-0.0492961090821,-0.209723759973,-0.939428423257,-0.610737204552,-0.0951533988118,-0.193855971098,-1.3533177,1.12776475,11.20900095,0.0,-13.4085960388,15.8885812759,-1.01137256622,-0.610737204552,-0.0951533988118,-0.193855971098,4.2999997139,-359.217071533,-330.846923828,14.5588951111,-5.57030081749,-34.09985542302,0.1289920806999998,13.472285270699997,-1.012035250659998,-3.801654815700001
2018-07-30 21:14:38.950,-0.0157046728934,-0.110943170963,-0.940738456449,-0.546631813049,0.0156708005816,-0.215997606516,-1.4317709,0.34323275,10.0420096,0.0,-13.4085960388,15.8885812759,-1.01137256622,-0.610737204552,-0.0951533988118,-0.193855971098,4.2999997139,-359.217071533,-330.846923828,8.6815948486,-4.30296945572,-21.88908195492,0.06375503539999983,13.187916755699996,-1.051336526869998,-3.5921707153
2018-07-30 21:14:39.000,-0.0157046728934,-0.110943170963,-0.940738456449,-0.546631813049,0.0156708005816,-0.215997606516,-1.4317709,0.34323275,10.0420096,0.0,-13.4085960388,15.8885812759,-1.01137256622,-0.610737204552,-0.0951533988118,-0.193855971098,4.36000013351,-328.702545166,-329.59564209,8.6815948486,-5.24296951294,-23.039081573399997,0.04666042330000053,13.034708023099997,-1.086261391639998,-3.2870254517
2018-07-30 21:14:39.050,-0.0157046728934,-0.110943170963,-0.940738456449,-0.546631813049,0.0156708005816,-0.215997606516,-1.4317709,0.34323275,10.0420096,0.0,-12.8497686386,15.9442710876,-1.14592456818,-0.546631813049,0.0156708005816,-0.215997606516,4.42000007629,-303.437805176,-328.378387451,8.6815948486,-6.252969741819999,-23.9290819168,0.05572891239999933,12.849768638599997,-1.145924568179998,-3.034378051800001
2018-07-30 21:14:39.100,-0.0157046728934,-0.110943170963,-0.940738456449,-0.546631813049,0.0156708005816,-0.215997606516,-1.4317709,0.34323275,10.0420096,0.0,-12.8497686386,15.9442710876,-1.14592456818,-0.546631813049,0.0156708005816,-0.215997606516,4.42000007629,-303.437805176,-328.378387451,8.6815948486,-6.252969741819999,-23.9290819168,0.05572891239999933,12.849768638599997,-1.145924568179998,-3.034378051800001
2018-07-30 21:14:39.150,-0.0157046728934,-0.110943170963,-0.940738456449,-0.546631813049,0.0156708005816,-0.215997606516,-1.4317709,0.34323275,10.0420096,0.0,-12.8497686386,15.9442710876,-1.14592456818,-0.546631813049,0.0156708005816,-0.215997606516,4.5,-272.576141357,-327.16116333,8.6815948486,-7.34296894073,-24.7090816497,0.05030059809999976,12.674834251399997,-1.190920948979998,-3.034378051800001
2018-07-30 21:14:39.200,-0.0157046728934,-0.110943170963,-0.940738456449,-0.546631813049,0.0156708005816,-0.215997606516,-1.4317709,0.34323275,10.0420096,0.0,-12.8497686386,15.9442710876,-1.14592456818,-0.546631813049,0.0156708005816,-0.215997606516,4.5,-272.576141357,-327.16116333,8.6815948486,-7.34296894073,-24.6990823745,0.06294536589999922,12.555139541599996,-1.216936707499998,-2.725761413600001
2018-07-30 21:14:39.250,0.0135227655594,-0.0513455979505,-0.936744126836,-0.263838857412,0.0661619976163,-0.0755189731717,-1.3140911,-0.6080123,8.7671451,0.0,-12.8497686386,15.9442710876,-1.14592456818,-0.546631813049,0.0156708005816,-0.215997606516,4.57999992371,-251.769256592,-325.97756958,5.611099243200002,-7.29069519046,-17.64103507993,0.08359813689999918,12.449042320299997,-1.266667366029998,-2.517692565899999
2018-07-30 21:14:39.300,0.0135227655594,-0.0513455979505,-0.936744126836,-0.263838857412,0.0661619976163,-0.0755189731717,-1.3140911,-0.6080123,8.7671451,0.0,-12.3458051682,15.8996601105,-1.32376229763,-0.263838857412,0.0661619976163,-0.0755189731717,4.57999992371,-251.769256592,-325.97756958,5.611099243200002,-7.300695419359999,-17.64103507993,0.09722995759999975,12.380374908399997,-1.299947500229998,-2.517692565899999
2018-07-30 21:14:39.350,0.0135227655594,-0.0513455979505,-0.936744126836,-0.263838857412,0.0661619976163,-0.0755189731717,-1.3140911,-0.6080123,8.7671451,0.0,-12.3458051682,15.8996601105,-1.32376229763,-0.263838857412,0.0661619976163,-0.0755189731717,4.57999992371,-251.769256592,-325.97756958,5.611099243200002,-7.300695419359999,-17.64103507993,0.09722995759999975,12.380374908399997,-1.299947500229998,-2.517692565899999
2018-07-30 21:14:39.400,0.0135227655594,-0.0513455979505,-0.936744126836,-0.263838857412,0.0661619976163,-0.0755189731717,-1.3140911,-0.6080123,8.7671451,0.0,-12.3458051682,15.8996601105,-1.32376229763,-0.263838857412,0.0661619976163,-0.0755189731717,4.67999982834,-222.583587646,-324.794128418,5.611099243200002,-8.470695495560001,-18.071035385130003,0.15714931489999984,12.201803207399996,-1.421792387959998,-2.2258358001999987
2018-07-30 21:14:39.450,0.0135227655594,-0.0513455979505,-0.936744126836,-0.263838857412,0.0661619976163,-0.0755189731717,-1.3140911,-0.6080123,8.7671451,0.0,-12.3458051682,15.8996601105,-1.32376229763,-0.263838857412,0.0661619976163,-0.0755189731717,4.67999982834,-222.583587646,-324.794128418,5.611099243200002,-8.470695495560001,-18.071035385130003,0.15714931489999984,12.201803207399996,-1.421792387959998,-2.2258358001999987
2018-07-30 21:14:39.500,0.0306481811974,-0.0273534993392,-0.93827538519,-0.294224470854,0.07854783535,0.0917230993509,-1.36312435,0.04903325,8.7083052,0.0,-12.3458051682,15.8996601105,-1.32376229763,-0.263838857412,0.0661619976163,-0.0755189731717,4.78999996185,-194.851104736,-323.610473633,5.611099243200002,-9.66069507596,-18.341034889230002,0.18775749209999937,12.157192230199996,-1.459460139269998,-1.9485111237000012
2018-07-30 21:14:39.550,0.0306481811974,-0.0273534993392,-0.93827538519,-0.294224470854,0.07854783535,0.0917230993509,-1.36312435,0.04903325,8.7083052,0.0,-12.3458051682,15.8996601105,-1.32376229763,-0.263838857412,0.0661619976163,-0.0755189731717,4.90000009537,-172.883224487,-322.43548584,5.857761383099998,-9.923992157019999,-15.20017242427,0.2416229247999997,12.073673248299997,-1.534532904619998,-1.7288322449000013
2018-07-30 21:14:39.600,0.0306481811974,-0.0273534993392,-0.93827538519,-0.294224470854,0.07854783535,0.0917230993509,-1.36312435,0.04903325,8.7083052,0.0,-12.0446453094,15.7212762833,-1.56302881241,-0.294224470854,0.07854783535,0.0917230993509,4.90000009537,-172.883224487,-322.43548584,5.857761383099998,-9.923992157019999,-15.20017242427,0.29589939120000075,12.028296470599997,-1.576808810229998,-1.7288322449000013
2018-07-30 21:14:39.650,0.0306481811974,-0.0273534993392,-0.93827538519,-0.294224470854,0.07854783535,0.0917230993509,-1.36312435,0.04903325,8.7083052,0.0,-12.0446453094,15.7212762833,-1.56302881241,-0.294224470854,0.07854783535,0.0917230993509,5.02999973297,-163.942138672,-321.268981934,5.857761383099998,-10.923992157019999,-15.08017253877,0.29589939120000075,12.028296470599997,-1.576808810229998,-1.7288322449000013
2018-07-30 21:14:39.700,0.0306481811974,-0.0273534993392,-0.93827538519,-0.294224470854,0.07854783535,0.0917230993509,-1.36312435,0.04903325,8.7083052,0.0,-12.0446453094,15.7212762833,-1.56302881241,-0.294224470854,0.07854783535,0.0917230993509,5.02999973297,-163.942138672,-321.268981934,5.857761383099998,-10.923992157019999,-15.070172309870001,0.42776203160000037,11.980962753299996,-1.649303674699998,-1.6394214630000015
2018-07-30 21:14:39.750,0.0306481811974,-0.0273534993392,-0.93827538519,-0.294224470854,0.07854783535,0.0917230993509,-1.36312435,0.04903325,8.7083052,0.0,-12.0446453094,15.7212762833,-1.56302881241,-0.294224470854,0.07854783535,0.0917230993509,5.17000007629,-161.573028564,-320.110717773,5.857761383099998,-11.77399253842,-14.76017189027,0.47849655149999926,11.979571342499996,-1.672333240509998,-1.6157302856000015
2018-07-30 21:14:39.800,0.0306481811974,-0.0273534993392,-0.93827538519,-0.294224470854,0.07854783535,0.0917230993509,-1.36312435,0.04903325,8.7083052,0.0,-12.0446453094,15.7212762833,-1.56302881241,-0.294224470854,0.07854783535,0.0917230993509,5.17000007629,-161.573028564,-320.110717773,5.857761383099998,-11.77399253842,-14.75017166137,0.5282821655000003,11.973207473799997,-1.712431669239998,-1.6157302856000015
2018-07-30 21:14:39.850,0.0306481811974,-0.0273534993392,-0.93827538519,-0.294224470854,0.07854783535,0.0917230993509,-1.36312435,0.04903325,8.7083052,0.0,-11.9782743454,15.4080915451,-1.76428973675,-0.294224470854,0.07854783535,0.0917230993509,5.31999969482,-149.055862427,-318.910339355,5.857761383099998,-12.52399253842,-14.27017211917,0.5282821655000003,11.973207473799997,-1.712431669239998,-1.6157302856000015
2018-07-30 21:14:39.900,0.0306481811974,-0.0273534993392,-0.93827538519,-0.294224470854,0.07854783535,0.0917230993509,-1.36312435,0.04903325,8.7083052,0.0,-11.9782743454,15.4080915451,-1.76428973675,-0.294224470854,0.07854783535,0.0917230993509,5.31999969482,-149.055862427,-318.910339355,5.857761383099998,-12.52399253842,-14.27017211917,0.6946468353000004,11.979419708299996,-1.896481990809998,-1.4905586243000002
2018-07-30 21:14:39.950,0.0306481811974,-0.0273534993392,-0.93827538519,-0.294224470854,0.07854783535,0.0917230993509,-1.36312435,0.04903325,8.7083052,0.0,-11.9782743454,15.4080915451,-1.76428973675,-0.294224470854,0.07854783535,0.0917230993509,5.48000001907,-129.2552948,-317.718353271,5.857761383099998,-13.31399345402,-13.800171852070001,0.6946468353000004,11.979419708299996,-1.896481990809998,-1.4905586243000002
2018-07-30 21:14:40.000,0.0795906085169,0.0238340396679,-0.9446760498,-0.248012632132,0.178721651435,0.079392619431,-1.3925443,-0.28439285,7.0411747,0.0,-11.9782743454,15.4080915451,-1.76428973675,-0.294224470854,0.07854783535,0.0917230993509,5.48000001907,-129.2552948,-317.718353271,5.857761383099998,-13.31399345402,-13.800171852070001,0.7582330703999993,11.977474212599997,-2.047299146649998,-1.2925529480000009
2018-07-30 21:14:40.050,0.0795906085169,0.0238340396679,-0.9446760498,-0.248012632132,0.178721651435,0.079392619431,-1.3925443,-0.28439285,7.0411747,0.0,-11.9782743454,15.4080915451,-1.76428973675,-0.294224470854,0.07854783535,0.0917230993509,5.67000007629,-103.097343445,-316.518005371,8.490322112999998,-10.676967620860001,-6.05657768251,0.8329687118999995,11.991601943999996,-2.2215819358799984,-1.2925529480000009
2018-07-30 21:14:40.100,0.0795906085169,0.0238340396679,-0.9446760498,-0.248012632132,0.178721651435,0.079392619431,-1.3925443,-0.28439285,7.0411747,0.0,-12.0077018738,15.1262845993,-2.3664188385,-0.248012632132,0.178721651435,0.079392619431,5.67000007629,-103.097343445,-316.518005371,8.490322112999998,-10.676967620860001,-6.046577453610001,0.8973379134999995,12.015971183799996,-2.4267189502699984,-1.0309734343999999
2018-07-30 21:14:40.150,0.0795906085169,0.0238340396679,-0.9446760498,-0.248012632132,0.178721651435,0.079392619431,-1.3925443,-0.28439285,7.0411747,0.0,-12.0077018738,15.1262845993,-2.3664188385,-0.248012632132,0.178721651435,0.079392619431,5.90999984741,-77.5981903076,-315.300750732,8.490322112999998,-10.666969299360002,-6.026576995810001,0.9530572891000002,12.051545143099997,-2.588584899899998,-0.7759819030999999
2018-07-30 21:14:40.200,0.0795906085169,0.0238340396679,-0.9446760498,-0.248012632132,0.178721651435,0.079392619431,-1.3925443,-0.28439285,7.0411747,0.0,-12.0077018738,15.1262845993,-2.3664188385,-0.248012632132,0.178721651435,0.079392619431,5.90999984741,-77.5981903076,-315.300750732,8.490322112999998,-11.436967849760002,-5.516577720610001,1.0221681594999996,12.099552154499996,-2.719079971309998,-0.7759819030999999
2018-07-30 21:14:40.250,0.0795906085169,0.0238340396679,-0.9446760498,-0.248012632132,0.178721651435,0.079392619431,-1.3925443,-0.28439285,7.0411747,0.0,-12.0077018738,15.1262845993,-2.3664188385,-0.248012632132,0.178721651435,0.079392619431,6.17999982834,-73.677444458,-314.049468994,8.490322112999998,-12.006967544560002,-4.796577453610001,1.0722198485999996,12.132647514299997,-2.8628740310699983,-0.7367744446000017
2018-07-30 21:14:40.300,0.0795906085169,0.0238340396679,-0.9446760498,-0.248012632132,0.178721651435,0.079392619431,-1.3925443,-0.28439285,7.0411747,0.0,-12.1634950638,14.893409729,-2.97589802742,-0.248012632132,0.178721651435,0.079392619431,6.17999982834,-73.677444458,-314.049468994,8.490322112999998,-12.006967544560002,-4.78657722471,1.1283016205000003,12.183787345899997,-3.0416927337599984,-0.7367744446000017
2018-07-30 21:14:40.350,0.120140538871,0.0491374877354,-0.944728200106,-0.0271101277322,0.127802431583,0.0786714181304,-1.4317709,-0.04903325,6.8450417,0.0,-12.1634950638,14.893409729,-2.97589802742,-0.248012632132,0.178721651435,0.079392619431,6.48000001907,-62.4084472656,-312.798400879,9.678661346399998,-8.904273033199999,0.08058643340999971,1.1283016205000003,12.183787345899997,-3.0416927337599984,-0.7367744446000017
2018-07-30 21:14:40.400,0.120140538871,0.0491374877354,-0.944728200106,-0.0271101277322,0.127802431583,0.0786714181304,-1.4317709,-0.04903325,6.8450417,0.0,-12.1634950638,14.893409729,-2.97589802742,-0.248012632132,0.178721651435,0.079392619431,6.48000001907,-62.4084472656,-312.798400879,9.678661346399998,-8.904273033199999,0.09058666229000067,1.2153263092,12.270818710299997,-3.260887622829998,-0.6240844727000017
2018-07-30 21:14:40.450,0.120140538871,0.0491374877354,-0.944728200106,-0.0271101277322,0.127802431583,0.0786714181304,-1.4317709,-0.04903325,6.8450417,0.0,-12.1634950638,14.893409729,-2.97589802742,-0.248012632132,0.178721651435,0.079392619431,6.48000001907,-62.4084472656,-312.798400879,9.678661346399998,-8.904273033199999,0.09058666229000067,1.2153263092,12.270818710299997,-3.260887622829998,-0.6240844727000017
2018-07-30 21:14:40.500,0.120140538871,0.0491374877354,-0.944728200106,-0.0271101277322,0.127802431583,0.0786714181304,-1.4317709,-0.04903325,6.8450417,0.0,-12.4042568207,14.6580438614,-3.61326169968,-0.0271101277322,0.127802431583,0.0786714181304,6.80999994278,-55.3798675537,-311.521850586,9.678661346399998,-9.2942743302,0.8805866241500002,1.3252620697000008,12.384345054599997,-3.5589110851299983,-0.5537986755000013
2018-07-30 21:14:40.550,0.120140538871,0.0491374877354,-0.944728200106,-0.0271101277322,0.127802431583,0.0786714181304,-1.4317709,-0.04903325,6.8450417,0.0,-12.4042568207,14.6580438614,-3.61326169968,-0.0271101277322,0.127802431583,0.0786714181304,7.17999982834,-50.5107879639,-310.236999512,9.678661346399998,-9.2942743302,0.9005861282400005,1.3578090667999998,12.424554824799996,-3.680610656739998,-0.5051078796000006
2018-07-30 21:14:40.600,0.120140538871,0.0491374877354,-0.944728200106,-0.0271101277322,0.127802431583,0.0786714181304,-1.4317709,-0.04903325,6.8450417,0.0,-12.4042568207,14.6580438614,-3.61326169968,-0.0271101277322,0.127802431583,0.0786714181304,7.17999982834,-50.5107879639,-310.236999512,9.678661346399998,-9.5642728806,1.6305866241500002,1.4061832427999992,12.474354743999996,-3.826969861979998,-0.5051078796000006
2018-07-30 21:14:40.650,0.120140538871,0.0491374877354,-0.944728200106,-0.0271101277322,0.127802431583,0.0786714181304,-1.4317709,-0.04903325,6.8450417,0.0,-12.4042568207,14.6580438614,-3.61326169968,-0.0271101277322,0.127802431583,0.0786714181304,7.17999982834,-50.5107879639,-310.236999512,9.678661346399998,-9.5642728806,1.6505861282400005,1.4831228256000006,12.553888320899997,-4.0000400543199985,-0.6291809081999986
2018-07-30 21:14:40.700,0.152925312324,0.0539991642389,-0.942567409324,0.0558713153005,0.157245829701,0.0281463824213,-1.4906108,0.1176798,7.060788,0.0,-12.4042568207,14.6580438614,-3.61326169968,-0.0271101277322,0.127802431583,0.0786714181304,7.57999992371,-62.9180908203,-308.952056885,10.0808944702,-6.052742004400001,4.26441049571,1.5300254821999992,12.608275413499996,-4.115995407099998,-0.6291809081999986
2018-07-30 21:14:40.750,0.152925312324,0.0539991642389,-0.942567409324,0.0558713153005,0.157245829701,0.0281463824213,-1.4906108,0.1176798,7.060788,0.0,-12.7467880249,14.3656167984,-4.40377569199,0.0558713153005,0.157245829701,0.0281463824213,7.57999992371,-62.9180908203,-308.952056885,10.0808944702,-6.052742004400001,4.26441049571,1.5973329544000006,12.689927101099997,-4.296849727629998,-0.6291809081999986
2018-07-30 21:14:40.800,0.152925312324,0.0539991642389,-0.942567409324,0.0558713153005,0.157245829701,0.0281463824213,-1.4906108,0.1176798,7.060788,0.0,-12.7467880249,14.3656167984,-4.40377569199,0.0558713153005,0.157245829701,0.0281463824213,8.0,-67.3477172852,-307.650268555,10.0808944702,-5.9927406311,5.17441034313,1.6635179519999994,12.776826858499996,-4.4679279327399986,-0.6734771729000002
2018-07-30 21:14:40.850,0.152925312324,0.0539991642389,-0.942567409324,0.0558713153005,0.157245829701,0.0281463824213,-1.4906108,0.1176798,7.060788,0.0,-12.7467880249,14.3656167984,-4.40377569199,0.0558713153005,0.157245829701,0.0281463824213,8.0,-67.3477172852,-307.650268555,10.0808944702,-5.9927406311,5.17441034313,1.6635179519999994,12.776826858499996,-4.4679279327399986,-0.6734771729000002
2018-07-30 21:14:40.900,0.152925312324,0.0539991642389,-0.942567409324,0.0558713153005,0.157245829701,0.0281463824213,-1.4906108,0.1176798,7.060788,0.0,-12.7467880249,14.3656167984,-4.40377569199,0.0558713153005,0.157245829701,0.0281463824213,8.47000026703,-85.7892990112,-306.331604004,10.0808944702,-5.642742156999999,6.08441066738,1.7782793044999998,12.917964935299997,-4.753490924839999,-0.8578929901000016
2018-07-30 21:14:40.950,0.152925312324,0.0539991642389,-0.942567409324,0.0558713153005,0.157245829701,0.0281463824213,-1.4906108,0.1176798,7.060788,0.0,-12.7467880249,14.3656167984,-4.40377569199,0.0558713153005,0.157245829701,0.0281463824213,8.47000026703,-85.7892990112,-306.331604004,10.0808944702,-5.642742156999999,6.08441066738,1.7782793044999998,12.917964935299997,-4.753490924839999,-0.8578929901000016
2018-07-30 21:14:41.000,0.152925312324,0.0539991642389,-0.942567409324,0.0558713153005,0.157245829701,0.0281463824213,-1.4906108,0.1176798,7.060788,0.0,-13.0178852081,14.1339683533,-5.13988494873,0.0558713153005,0.157245829701,0.0281463824213,8.97000026703,-93.1436538696,-304.987335205,10.0808944702,-5.212741851799999,6.87441062923,1.8660316466999998,13.017885208099996,-5.139884948729998,-0.9314365387000016
2018-07-30 21:14:41.050,0.152925312324,0.0539991642389,-0.942567409324,0.0558713153005,0.157245829701,0.0281463824213,-1.4906108,0.1176798,7.060788,0.0,-13.0178852081,14.1339683533,-5.13988494873,0.0558713153005,0.157245829701,0.0281463824213,8.97000026703,-93.1436538696,-304.987335205,10.0808944702,-5.212741851799999,6.87441062923,1.8660316466999998,13.017885208099996,-5.139884948729998,-0.9314365387000016
2018-07-30 21:14:41.100,0.16658769958,0.0292361636707,-0.939561104012,0.179705917835,0.0567938238382,0.00589137524366,-1.569064,-0.0392266,5.7859235,0.0,-13.0178852081,14.1339683533,-5.13988494873,0.0558713153005,0.157245829701,0.0281463824213,9.51999950409,-104.151725769,-303.617950439,9.432865142799997,-2.3445549011000004,5.424231290810001,1.9340476990000006,13.122000694299997,-5.495054721829998,-1.0415172577000007
2018-07-30 21:14:41.150,0.16658769958,0.0292361636707,-0.939561104012,0.179705917835,0.0567938238382,0.00589137524366,-1.569064,-0.0392266,5.7859235,0.0,-13.0178852081,14.1339683533,-5.13988494873,0.0558713153005,0.157245829701,0.0281463824213,10.1099996567,-118.728637695,-302.24005127,9.432865142799997,-1.7245559692000008,6.16423130035,1.9647760391000002,13.207048416099996,-5.654214859009998,-1.1872863769999995
2018-07-30 21:14:41.200,0.16658769958,0.0292361636707,-0.939561104012,0.179705917835,0.0567938238382,0.00589137524366,-1.569064,-0.0392266,5.7859235,0.0,-13.2895421982,14.001168251,-5.79304122925,0.179705917835,0.0567938238382,0.00589137524366,10.1099996567,-118.728637695,-302.24005127,9.432865142799997,-1.7245559692000008,6.16423130035,1.9867620467999991,13.256669998199996,-5.756174564359998,-1.1872863769999995
2018-07-30 21:14:41.250,0.16658769958,0.0292361636707,-0.939561104012,0.179705917835,0.0567938238382,0.00589137524366,-1.569064,-0.0392266,5.7859235,0.0,-13.2895421982,14.001168251,-5.79304122925,0.179705917835,0.0567938238382,0.00589137524366,10.7199993134,-141.120727539,-300.862182617,9.432865142799997,-0.9845561981000017,6.834231138230001,2.0048904419000007,13.355390548699997,-5.822136402129998,-1.4112071991000015
2018-07-30 21:14:41.300,0.16658769958,0.0292361636707,-0.939561104012,0.179705917835,0.0567938238382,0.00589137524366,-1.569064,-0.0392266,5.7859235,0.0,-13.2895421982,14.001168251,-5.79304122925,0.179705917835,0.0567938238382,0.00589137524366,10.7199993134,-141.120727539,-300.862182617,9.432865142799997,-0.9845561981000017,6.834231138230001,2.0102844238,13.462880134599997,-5.873037338259998,-1.4112071991000015
2018-07-30 21:14:41.350,0.16658769958,0.0292361636707,-0.939561104012,0.179705917835,0.0567938238382,0.00589137524366,-1.569064,-0.0392266,5.7859235,0.0,-13.2895421982,14.001168251,-5.79304122925,0.179705917835,0.0567938238382,0.00589137524366,10.7199993134,-141.120727539,-300.862182617,9.432865142799997,-0.9845561981000017,6.834231138230001,2.0102844238,13.462880134599997,-5.873037338259998,-1.4112071991000015
2018-07-30 21:14:41.400,0.16658769958,0.0292361636707,-0.939561104012,0.179705917835,0.0567938238382,0.00589137524366,-1.569064,-0.0392266,5.7859235,0.0,-13.2895421982,14.001168251,-5.79304122925,0.179705917835,0.0567938238382,0.00589137524366,11.3599996567,-171.468170166,-299.441894531,9.432865142799997,-0.11455535880000056,7.4542312622,2.0102844238,13.462880134599997,-5.873037338259998,-1.4112071991000015
2018-07-30 21:14:41.450,0.16658769958,0.0292361636707,-0.939561104012,0.179705917835,0.0567938238382,0.00589137524366,-1.569064,-0.0392266,5.7859235,0.0,-13.2895421982,14.001168251,-5.79304122925,0.179705917835,0.0567938238382,0.00589137524366,11.3599996567,-171.468170166,-299.441894531,9.432865142799997,-0.11455535880000056,7.4542312622,2.0099124907999997,13.638710021999996,-5.987495899199998,-1.7146816254000008
2018-07-30 21:14:41.500,0.158603525275,-0.0257126801627,-0.941528339361,0.217205047607,0.0104284826666,0.165522754192,-1.69655045,0.0196133,7.56092715,0.0,-13.6929607391,13.9807415009,-6.0659403801,0.217205047607,0.0104284826666,0.165522754192,11.9799995422,-191.999053955,-298.064056396,10.635707855200003,1.8537769317000006,1.4282438755099998,2.0192584990999993,13.692960739099997,-6.065940380099998,-1.9199905396000005
2018-07-30 21:14:41.550,0.158603525275,-0.0257126801627,-0.941528339361,0.217205047607,0.0104284826666,0.165522754192,-1.69655045,0.0196133,7.56092715,0.0,-13.6929607391,13.9807415009,-6.0659403801,0.217205047607,0.0104284826666,0.165522754192,12.6399993896,-210.571289062,-296.643920898,10.635707855200003,2.7137775421000008,1.9382438063659997,1.9988193511999999,13.834686279299996,-6.0553097724899985,-2.1057128905999996
2018-07-30 21:14:41.600,0.158603525275,-0.0257126801627,-0.941528339361,0.217205047607,0.0104284826666,0.165522754192,-1.69655045,0.0196133,7.56092715,0.0,-13.6929607391,13.9807415009,-6.0659403801,0.217205047607,0.0104284826666,0.165522754192,12.6399993896,-210.571289062,-296.643920898,10.635707855200003,2.7137775421000008,1.9382438063659997,1.9781427383000008,13.95933673901979,-5.953058719639999,-2.1057128905999996
2018-07-30 21:14:41.650,0.158603525275,-0.0257126801627,-0.941528339361,0.217205047607,0.0104284826666,0.165522754192,-1.69655045,0.0196133,7.56092715,0.0,-13.6929607391,13.9807415009,-6.0659403801,0.217205047607,0.0104284826666,0.165522754192,13.279999733,-252.18447876,-295.217102051,10.635707855200003,3.733777999900001,2.528243809942,1.9501485825000007,14.08594844861979,-5.849112987519998,-2.5218448639
2018-07-30 21:14:41.700,0.158603525275,-0.0257126801627,-0.941528339361,0.217205047607,0.0104284826666,0.165522754192,-1.69655045,0.0196133,7.56092715,0.0,-13.6929607391,13.9807415009,-6.0659403801,0.217205047607,0.0104284826666,0.165522754192,13.279999733,-252.18447876,-295.217102051,10.635707855200003,3.733777999900001,2.528243809942,1.9501485825000007,14.08594844861979,-5.849112987519998,-2.5218448639
2018-07-30 21:14:41.750,0.158603525275,-0.0257126801627,-0.941528339361,0.217205047607,0.0104284826666,0.165522754192,-1.69655045,0.0196133,7.56092715,0.0,-14.2285423279,14.099568367,-5.76245927811,0.217205047607,0.0104284826666,0.165522754192,13.279999733,-252.18447876,-295.217102051,10.635707855200003,3.733777999900001,2.528243809942,1.9070863724000002,14.19269989061979,-5.774385929109998,-2.5218448639
2018-07-30 21:14:41.800,0.144508596402,-0.0486155384765,-0.945333142546,0.193530157208,-0.0670586526394,0.0859254822135,-1.7455837,0.1372931,10.9442214,0.0,-14.2285423279,14.099568367,-5.76245927811,0.217205047607,0.0104284826666,0.165522754192,13.8899993896,-278.275878906,-293.77154541,12.1626663208,3.8524713516,-0.276818528771,1.9038906096999995,14.30762050671979,-5.799582481379998,-2.7827587127999998
2018-07-30 21:14:41.850,0.144508596402,-0.0486155384765,-0.945333142546,0.193530157208,-0.0670586526394,0.0859254822135,-1.7455837,0.1372931,10.9442214,0.0,-14.2285423279,14.099568367,-5.76245927811,0.217205047607,0.0104284826666,0.165522754192,13.8899993896,-278.275878906,-293.77154541,12.1626663208,3.8524713516,-0.276818528771,1.9038906096999995,14.30762050671979,-5.799582481379998,-2.7827587127999998
2018-07-30 21:14:41.900,0.144508596402,-0.0486155384765,-0.945333142546,0.193530157208,-0.0670586526394,0.0859254822135,-1.7455837,0.1372931,10.9442214,0.0,-14.2285423279,14.099568367,-5.76245927811,0.217205047607,0.0104284826666,0.165522754192,14.5,-282.756988525,-292.283691406,12.1626663208,4.5324707030999996,0.18318146467200003,1.9170598983999998,14.375515989058389,-5.922028064729998,-2.8275699615
2018-07-30 21:14:41.950,0.144508596402,-0.0486155384765,-0.945333142546,0.193530157208,-0.0670586526394,0.0859254822135,-1.7455837,0.1372931,10.9442214,0.0,-14.2285423279,14.099568367,-5.76245927811,0.217205047607,0.0104284826666,0.165522754192,14.5,-282.756988525,-292.283691406,12.1626663208,4.5324707030999996,0.18318146467200003,1.912958145200001,14.42551904075839,-6.037765979769998,-2.8275699615
2018-07-30 21:14:42.000,0.144508596402,-0.0486155384765,-0.945333142546,0.193530157208,-0.0670586526394,0.0859254822135,-1.7455837,0.1372931,10.9442214,0.0,-14.491232872,14.0974645615,-6.1277012825,0.193530157208,-0.0670586526394,0.0859254822135,15.1300001144,-272.14642334,-290.81628418,12.1626663208,5.002470970099999,0.5831815004330001,1.9025335311999996,14.49979787225839,-6.127701282499999,-2.7214641571000016
2018-07-30 21:14:42.050,0.144508596402,-0.0486155384765,-0.945333142546,0.193530157208,-0.0670586526394,0.0859254822135,-1.7455837,0.1372931,10.9442214,0.0,-14.491232872,14.0974645615,-6.1277012825,0.193530157208,-0.0670586526394,0.0859254822135,15.1300001144,-272.14642334,-290.81628418,12.1626663208,5.002470970099999,0.5831815004330001,1.9025335311999996,14.49979787225839,-6.127701282499999,-2.7214641571000016
2018-07-30 21:14:42.100,0.130115673885,-0.0598258854028,-0.943388483738,0.0475672334433,-0.0955591276288,-0.0522585771978,-1.73577705,-0.16671305,9.52225715,0.0,-14.491232872,14.0974645615,-6.1277012825,0.193530157208,-0.0670586526394,0.0859254822135,15.75,-270.711517334,-289.344726562,12.1626663208,5.3324708938,0.813181400303,1.8704500198999998,14.55238347405839,-6.152927875519998,-2.7071151733
2018-07-30 21:14:42.150,0.130115673885,-0.0598258854028,-0.943388483738,0.0475672334433,-0.0955591276288,-0.0522585771978,-1.73577705,-0.16671305,9.52225715,0.0,-14.491232872,14.0974645615,-6.1277012825,0.193530157208,-0.0670586526394,0.0859254822135,16.3799991608,-279.101928711,-288.144012451,11.109092712399999,4.3676128386999995,0.5484895706200001,1.8082885741999988,14.816949278087,-6.133809566499998,-2.791019439700001
2018-07-30 21:14:42.200,0.130115673885,-0.0598258854028,-0.943388483738,0.0475672334433,-0.0955591276288,-0.0522585771978,-1.73577705,-0.16671305,9.52225715,0.0,-14.491232872,14.0974645615,-6.1277012825,0.193530157208,-0.0670586526394,0.0859254822135,16.3799991608,-279.101928711,-288.144012451,11.109092712399999,4.3676128386999995,0.5484895706200001,1.7907218932999989,14.867365270887001,-6.106866359709998,-2.791019439700001
2018-07-30 21:14:42.250,0.130115673885,-0.0598258854028,-0.943388483738,0.0475672334433,-0.0955591276288,-0.0522585771978,-1.73577705,-0.16671305,9.52225715,0.0,-14.6699342728,14.2080602646,-6.10686635971,0.0475672334433,-0.0955591276288,-0.0522585771978,17.0100002289,-293.898590088,-286.647705078,11.109092712399999,4.597612380999999,0.6884896755200001,1.760380744899999,14.900192648187,-6.119977474209998,-2.9389858245999996
2018-07-30 21:14:42.300,0.130115673885,-0.0598258854028,-0.943388483738,0.0475672334433,-0.0955591276288,-0.0522585771978,-1.73577705,-0.16671305,9.52225715,0.0,-14.6699342728,14.2080602646,-6.10686635971,0.0475672334433,-0.0955591276288,-0.0522585771978,17.0100002289,-293.898590088,-286.647705078,11.109092712399999,4.597612380999999,0.6884896755200001,1.7538833617999998,14.915665060287001,-6.128219127659999,-2.9389858245999996
2018-07-30 21:14:42.350,0.117929429963,-0.0635158817132,-0.941622483889,0.0543265491724,-0.110184550285,-0.032956674695,-1.8044236,0.22555295,10.05181625,0.0,-14.6699342728,14.2080602646,-6.10686635971,0.0475672334433,-0.0955591276288,-0.0522585771978,17.0100002289,-293.898590088,-286.647705078,11.109092712399999,4.597612380999999,0.0830492973400001,1.7538833617999998,14.915665060287001,-6.128219127659999,-2.9389858245999996
2018-07-30 21:14:42.400,0.117929429963,-0.0635158817132,-0.941622483889,0.0543265491724,-0.110184550285,-0.032956674695,-1.8044236,0.22555295,10.05181625,0.0,-14.6699342728,14.2080602646,-6.10686635971,0.0475672334433,-0.0955591276288,-0.0522585771978,17.6399993896,-296.33807373,-285.134307861,10.047538757300003,3.598833084099999,0.0830492973400001,1.6709785460999989,14.976734548787,-6.038477420809998,-2.9633808136000006
2018-07-30 21:14:42.450,0.117929429963,-0.0635158817132,-0.941622483889,0.0543265491724,-0.110184550285,-0.032956674695,-1.8044236,0.22555295,10.05181625,0.0,-14.6699342728,14.2080602646,-6.10686635971,0.0475672334433,-0.0955591276288,-0.0522585771978,18.25,-309.559051514,-283.6378479,10.047538757300003,3.8388338088999987,-0.04695057869000019,1.605800628699999,15.014881521487,-5.920190334319998,-3.0955905914000006
2018-07-30 21:14:42.500,0.117929429963,-0.0635158817132,-0.941622483889,0.0543265491724,-0.110184550285,-0.032956674695,-1.8044236,0.22555295,10.05181625,0.0,-14.8276891708,14.421497345,-5.87736701965,0.0543265491724,-0.110184550285,-0.032956674695,18.25,-309.559051514,-283.6378479,10.047538757300003,3.8388338088999987,-0.04695057869000019,1.5463676452999984,15.034906774787,-5.838327407839998,-3.0955905914000006
2018-07-30 21:14:42.550,0.117929429963,-0.0635158817132,-0.941622483889,0.0543265491724,-0.110184550285,-0.032956674695,-1.8044236,0.22555295,10.05181625,0.0,-14.8276891708,14.421497345,-5.87736701965,0.0543265491724,-0.110184550285,-0.032956674695,18.25,-309.559051514,-283.6378479,10.047538757300003,3.8388338088999987,-0.04695057869000019,1.4976577758999987,15.058495908987,-5.747717857359998,-3.0955905914000006
2018-07-30 21:14:42.600,0.117929429963,-0.0635158817132,-0.941622483889,0.0543265491724,-0.110184550285,-0.032956674695,-1.8044236,0.22555295,10.05181625,0.0,-14.8276891708,14.421497345,-5.87736701965,0.0543265491724,-0.110184550285,-0.032956674695,18.8500003815,-329.09375,-282.132659912,10.047538757300003,4.1088333129,-0.31695055960999996,1.3898181914999999,15.744698345625,-5.592683315279999,-3.290937423700001
2018-07-30 21:14:42.650,0.117929429963,-0.0635158817132,-0.941622483889,0.0543265491724,-0.110184550285,-0.032956674695,-1.8044236,0.22555295,10.05181625,0.0,-14.8276891708,14.421497345,-5.87736701965,0.0543265491724,-0.110184550285,-0.032956674695,18.8500003815,-329.09375,-282.132659912,10.047538757300003,4.1088333129,-0.31695055960999996,1.3898181914999999,15.744698345625,-5.592683315279999,-3.290937423700001
2018-07-30 21:14:42.700,0.117929429963,-0.0635158817132,-0.941622483889,0.0543265491724,-0.110184550285,-0.032956674695,-1.8044236,0.22555295,10.05181625,0.0,-14.9213933945,14.7313041687,-5.28809690475,0.0543265491724,-0.110184550285,-0.032956674695,19.3999996185,-352.684783936,-281.360290527,13.047538757300003,4.3788337707,3.66304945946,1.2775926590000015,15.776557743525,-5.353299140929998,-3.5268478393999985
2018-07-30 21:14:42.750,0.117929429963,-0.0635158817132,-0.941622483889,0.0543265491724,-0.110184550285,-0.032956674695,-1.8044236,0.22555295,10.05181625,0.0,-14.9213933945,14.7313041687,-5.28809690475,0.0543265491724,-0.110184550285,-0.032956674695,19.9399986267,-375.136383057,-279.770202637,13.047538757300003,4.708833694399999,3.3130490779899997,1.1526765822999998,15.800330936925,-5.116708278659998,-3.7513637543000016
2018-07-30 21:14:42.800,0.0897497451459,-0.0776809492696,-0.941003493865,0.0813645124435,-0.0926959961653,0.0783680230379,-1.6867438,-0.10787315,13.0624578,0.0,-14.9213933945,14.7313041687,-5.28809690475,0.0543265491724,-0.110184550285,-0.032956674695,19.9399986267,-375.136383057,-279.770202637,12.356773376500001,2.159998893699999,0.8490886688199994,1.0709514618,16.06908750538,-4.952836990359998,-3.7513637543000016
2018-07-30 21:14:42.850,0.0897497451459,-0.0776809492696,-0.941003493865,0.0813645124435,-0.0926959961653,0.0783680230379,-1.6867438,-0.10787315,13.0624578,0.0,-14.9213933945,14.7313041687,-5.28809690475,0.0543265491724,-0.110184550285,-0.032956674695,20.4300003052,-385.578552246,-278.396362305,13.356773376500001,2.379999160699999,2.22908878326,1.0155773163,16.06376218798,-4.856213569639999,-3.8557853699000013
2018-07-30 21:14:42.900,0.0897497451459,-0.0776809492696,-0.941003493865,0.0813645124435,-0.0926959961653,0.0783680230379,-1.6867438,-0.10787315,13.0624578,0.0,-14.9213933945,14.7313041687,-5.28809690475,0.0543265491724,-0.110184550285,-0.032956674695,20.4300003052,-385.578552246,-278.396362305,13.356773376500001,2.379999160699999,2.22908878326,0.971805572500001,16.06763410568,-4.767881393429998,-3.8557853699000013
2018-07-30 21:14:42.950,0.0897497451459,-0.0776809492696,-0.941003493865,0.0813645124435,-0.0926959961653,0.0783680230379,-1.6867438,-0.10787315,13.0624578,0.0,-14.9213933945,14.7313041687,-5.28809690475,0.0543265491724,-0.110184550285,-0.032956674695,20.4300003052,-385.578552246,-278.396362305,13.356773376500001,2.379999160699999,2.22908878326,0.971805572500001,16.06763410568,-4.767881393429998,-3.8557853699000013
2018-07-30 21:14:43.000,0.0897497451459,-0.0776809492696,-0.941003493865,0.0813645124435,-0.0926959961653,0.0783680230379,-1.6867438,-0.10787315,13.0624578,0.0,-14.9377889633,15.0826692581,-4.58822965622,0.0813645124435,-0.0926959961653,0.0783680230379,20.8899993896,-389.423950195,-276.860046387,13.356773376500001,2.5199985503999986,1.8890886306799999,0.8593349457000006,16.05958604808,-4.5440158843999985,-3.8942394257000004
2018-07-30 21:14:43.050,0.0897497451459,-0.0776809492696,-0.941003493865,0.0813645124435,-0.0926959961653,0.0783680230379,-1.6867438,-0.10787315,13.0624578,0.0,-14.9377889633,15.0826692581,-4.58822965622,0.0813645124435,-0.0926959961653,0.0783680230379,20.8899993896,-389.423950195,-276.860046387,13.356773376500001,2.5199985503999986,1.8890886306799999,0.8593349457000006,16.05958604808,-4.5440158843999985,-3.8942394257000004
2018-07-30 21:14:43.100,0.0897497451459,-0.0776809492696,-0.941003493865,0.0813645124435,-0.0926959961653,0.0783680230379,-1.6867438,-0.10787315,13.0624578,0.0,-14.9377889633,15.0826692581,-4.58822965622,0.0813645124435,-0.0926959961653,0.0783680230379,21.3299999237,-391.206176758,-275.278503418,13.356773376500001,2.5899982452000003,1.5190887451199995,0.6459465026999993,17.09919714924,-4.3397545814499985,-3.9120616913
2018-07-30 21:14:43.150,0.0755861788267,-0.076120484918,-0.941907254848,-0.0331824794412,-0.0686412975192,-0.031194543466,-1.71616375,0.12748645,10.8265416,0.0,-14.9377889633,15.0826692581,-4.58822965622,0.0813645124435,-0.0926959961653,0.0783680230379,21.75,-382.449523926,-273.517700195,16.195446014399998,0.9921493530000003,1.1997823715199996,0.6325540542999999,17.09555029864,-4.307816505429998,-3.8244953156
2018-07-30 21:14:43.200,0.0755861788267,-0.076120484918,-0.941907254848,-0.0331824794412,-0.0686412975192,-0.031194543466,-1.71616375,0.12748645,10.8265416,0.0,-14.8989286423,15.2556562424,-4.20502853394,-0.0331824794412,-0.0686412975192,-0.031194543466,21.75,-382.449523926,-273.517700195,16.195446014399998,0.8721494674999999,7.81978178019,0.5785484313999998,17.073019742939998,-4.166599273679998,-3.8244953156
2018-07-30 21:14:43.250,0.0755861788267,-0.076120484918,-0.941907254848,-0.0331824794412,-0.0686412975192,-0.031194543466,-1.71616375,0.12748645,10.8265416,0.0,-14.8989286423,15.2556562424,-4.20502853394,-0.0331824794412,-0.0686412975192,-0.031194543466,22.1399993896,-369.614990234,-271.888793945,16.195446014399998,0.6221494674999999,7.4797816276899995,0.5423088073999995,17.05366683004,-4.1046137809799985,-3.696149825999999
2018-07-30 21:14:43.300,0.0755861788267,-0.076120484918,-0.941907254848,-0.0331824794412,-0.0686412975192,-0.031194543466,-1.71616375,0.12748645,10.8265416,0.0,-14.8989286423,15.2556562424,-4.20502853394,-0.0331824794412,-0.0686412975192,-0.031194543466,22.1399993896,-369.614990234,-271.888793945,16.195446014399998,0.6221494674999999,7.4797816276899995,0.3587913513000007,17.94958591459,-4.023241043089998,-3.696149825999999
