%time,field.orientation.x,field.orientation.y,field.orientation.z,field.angular_velocity.x,field.angular_velocity.y,field.angular_velocity.z,field.linear_acceleration.x,field.linear_acceleration.y,field.linear_acceleration.z,field.data,field.twist.linear.x,field.twist.linear.y,field.twist.linear.z,field.twist.angular.x,field.twist.angular.y,field.twist.angular.z,field.alt_error,field.aspd_error,field.xtrack_error,delta_yaw,delta_pitch,delta_roll,delta_x,delta_y,delta_z,delta_roll_airspeed
2018-10-18 15:18:07.050,,,,,,,,,,0.0,-16.7730484009,3.68281888962,-1.80451345444,-0.085239417851,-0.261633843184,0.0345539562404,1.09000003338,-527.753845215,-32.744342804,179.69083404539998,9.04518699646,33.73907017705,,,,
2018-10-18 15:18:07.100,,,,,,,,,,0.0,-16.7730484009,3.68281888962,-1.80451345444,-0.085239417851,-0.261633843184,0.0345539562404,1.09000003338,-527.753845215,-32.744342804,179.69083404539998,9.05518698692,33.74907040595,-3.762482543690106,0.7575206757000004,-1.50446796417,15.0
2018-10-18 15:18:07.150,0.0173226338011,-0.0776010096081,-0.985464355831,0.874454140663,-0.221043333411,-0.250831872225,-0.77472535,0.8433719,13.1997509,0.0,-16.7730484009,3.68281888962,-1.80451345444,-0.085239417851,-0.261633843184,0.0345539562404,1.20999991894,-556.982055664,-414.087158203,28.921279907200002,4.0529758930229995,29.729580879239997,12.017965555189999,16.677888870199997,-1.100296258929998,16.0
2018-10-18 15:18:07.200,0.0173226338011,-0.0776010096081,-0.985464355831,0.874454140663,-0.221043333411,-0.250831872225,-0.77472535,0.8433719,13.1997509,0.0,-16.6567955017,4.04513454437,-0.997402608395,0.874454140663,-0.221043333411,-0.250831872225,1.20999991894,-556.982055664,-414.087158203,28.921279907200002,4.07297587395,29.749581336939997,11.90590810776,16.630512237499996,-0.933873414992998,16.0
2018-10-18 15:18:07.250,0.0173226338011,-0.0776010096081,-0.985464355831,0.874454140663,-0.221043333411,-0.250831872225,-0.77472535,0.8433719,13.1997509,0.0,-16.6567955017,4.04513454437,-0.997402608395,0.874454140663,-0.221043333411,-0.250831872225,1.29999995232,-456.982055664,-412.388000488,28.921279907200002,2.0129759311699997,28.869584083539998,11.74859142303,16.579517364499996,-0.739348173140998,16.0
2018-10-18 15:18:07.300,0.0173226338011,-0.0776010096081,-0.985464355831,0.874454140663,-0.221043333411,-0.250831872225,-0.77472535,0.8433719,13.1997509,0.0,-16.6567955017,4.04513454437,-0.997402608395,0.874454140663,-0.221043333411,-0.250831872225,1.29999995232,-456.982055664,-412.388000488,28.921279907200002,2.0129759311699997,28.869584083539998,11.74859142303,16.579517364499996,-0.739348173140998,16.0
2018-10-18 15:18:07.350,0.0173226338011,-0.0776010096081,-0.985464355831,0.874454140663,-0.221043333411,-0.250831872225,-0.77472535,0.8433719,13.1997509,0.0,-16.6567955017,4.04513454437,-0.997402608395,0.874454140663,-0.221043333411,-0.250831872225,1.33999991417,-451.672943115,-410.731201172,28.921279907200002,-0.10702395439000023,27.50958347324,11.29814624786,16.401706695599998,-0.36771237850199806,16.0
2018-10-18 15:18:07.400,0.0173226338011,-0.0776010096081,-0.985464355831,0.874454140663,-0.221043333411,-0.250831872225,-0.77472535,0.8433719,13.1997509,0.0,-16.6567955017,4.04513454437,-0.997402608395,0.874454140663,-0.221043333411,-0.250831872225,1.33999991417,-451.672943115,-410.731201172,28.921279907200002,-0.07702398300000013,27.50958347324,11.29814624786,16.401706695599998,-0.36771237850199806,16.0
2018-10-18 15:18:07.450,-0.0431446146817,-0.222933641501,-0.955340065103,0.741818487644,-0.23407459259,-0.153470471501,-0.0784532,0.2745862,13.85679645,0.0,-16.261510849,5.06283378601,-0.123788028955,0.874454140663,-0.221043333411,-0.250831872225,1.33999991417,-451.672943115,-410.731201172,28.921279907200002,-0.06702399254000024,27.50958347324,10.816955089570001,16.216167449999997,-0.04492723941799805,16.0
2018-10-18 15:18:07.500,-0.0431446146817,-0.222933641501,-0.955340065103,0.741818487644,-0.23407459259,-0.153470471501,-0.0784532,0.2745862,13.85679645,0.0,-16.261510849,5.06283378601,-0.123788028955,0.874454140663,-0.221043333411,-0.250831872225,1.33999991417,-451.672943115,-410.731201172,28.921279907200002,-0.06702399254000024,27.50958347324,10.816955089570001,16.216167449999997,-0.04492723941799805,16.0
2018-10-18 15:18:07.550,-0.0431446146817,-0.222933641501,-0.955340065103,0.741818487644,-0.23407459259,-0.153470471501,-0.0784532,0.2745862,13.85679645,0.0,-16.261510849,5.06283378601,-0.123788028955,0.874454140663,-0.221043333411,-0.250831872225,1.33999991417,-451.672943115,-409.108184814,23.630645752000007,-5.4320176616280005,7.850919723499999,10.12417316437,15.895357131999996,0.34406307339700193,16.0
2018-10-18 15:18:07.600,-0.0431446146817,-0.222933641501,-0.955340065103,0.741818487644,-0.23407459259,-0.153470471501,-0.0784532,0.2745862,13.85679645,0.0,-16.261510849,5.06283378601,-0.123788028955,0.874454140663,-0.221043333411,-0.250831872225,1.29999995232,-447.534179688,-407.501953125,23.630645752000007,-7.692017413678,5.280920028700002,9.75171661377,15.696083068799997,0.44736146926900194,16.0
2018-10-18 15:18:07.650,-0.0431446146817,-0.222933641501,-0.955340065103,0.741818487644,-0.23407459259,-0.153470471501,-0.0784532,0.2745862,13.85679645,0.0,-15.5696220398,6.47357606888,0.481766879559,0.741818487644,-0.23407459259,-0.153470471501,1.24000000954,-447.534179688,-405.929656982,23.630645752000007,-7.6820176616280005,5.280920028700002,9.52642393112,15.569622039799997,0.48176687955900194,16.0
2018-10-18 15:18:07.700,-0.0431446146817,-0.222933641501,-0.955340065103,0.741818487644,-0.23407459259,-0.153470471501,-0.0784532,0.2745862,13.85679645,0.0,-15.5696220398,6.47357606888,0.481766879559,0.741818487644,-0.23407459259,-0.153470471501,1.24000000954,-447.534179688,-405.929656982,23.630645752000007,-9.822017051278,2.5909214019999993,9.19047355652,15.352466583299996,0.30751669406900195,16.0
2018-10-18 15:18:07.750,-0.0431446146817,-0.222933641501,-0.955340065103,0.741818487644,-0.23407459259,-0.153470471501,-0.0784532,0.2745862,13.85679645,0.0,-15.5696220398,6.47357606888,0.481766879559,0.741818487644,-0.23407459259,-0.153470471501,1.24000000954,-447.534179688,-405.929656982,23.630645752000007,-9.812017776068,2.5909214019999993,9.06712198257,15.269340515099996,0.12398490309700196,16.0
2018-10-18 15:18:07.800,-0.0431446146817,-0.222933641501,-0.955340065103,0.741818487644,-0.23407459259,-0.153470471501,-0.0784532,0.2745862,13.85679645,0.0,-15.5696220398,6.47357606888,0.481766879559,0.741818487644,-0.23407459259,-0.153470471501,1.17999994755,-432.42779541,-404.391174316,23.630645752000007,-11.672017432778,0.8609199523999997,8.956927776339999,15.185217857399996,-0.055995881557498045,16.0
2018-10-18 15:18:07.850,-0.077967242388,-0.300496495279,-0.928081366857,0.00667635351419,-0.0638689547777,-0.171422600746,-0.5295591,0.6080123,5.88399,0.0,-15.5696220398,6.47357606888,0.481766879559,0.741818487644,-0.23407459259,-0.153470471501,1.14999997616,-432.42779541,-402.87789917,23.630645752000007,-11.662017203878,0.8609199523999997,8.82592248917,15.091743469199997,-0.20872358977799804,16.0
2018-10-18 15:18:07.900,-0.077967242388,-0.300496495279,-0.928081366857,0.00667635351419,-0.0638689547777,-0.171422600746,-0.5295591,0.6080123,5.88399,0.0,-14.9222688675,7.39224529266,-0.365400254726,0.00667635351419,-0.0638689547777,-0.171422600746,1.14999997616,-432.42779541,-402.87789917,20.6177444458,-14.58083570008,-10.534778594999999,8.6828212738,14.983407020599996,-0.31502765417099804,16.0
2018-10-18 15:18:07.950,-0.077967242388,-0.300496495279,-0.928081366857,0.00667635351419,-0.0638689547777,-0.171422600746,-0.5295591,0.6080123,5.88399,0.0,-14.9222688675,7.39224529266,-0.365400254726,0.00667635351419,-0.0638689547777,-0.171422600746,1.17999994755,-410.136993408,-401.390167236,20.6177444458,-16.17083585258,-12.534778594999999,8.34812450409,14.739952087399997,-0.502303659915998,16.0
2018-10-18 15:18:08.000,-0.077967242388,-0.300496495279,-0.928081366857,0.00667635351419,-0.0638689547777,-0.171422600746,-0.5295591,0.6080123,5.88399,0.0,-14.9222688675,7.39224529266,-0.365400254726,0.00667635351419,-0.0638689547777,-0.171422600746,1.17999994755,-410.136993408,-401.390167236,20.6177444458,-16.17083585258,-12.534778594999999,8.34812450409,14.739952087399997,-0.502303659915998,16.0
2018-10-18 15:18:08.050,-0.077967242388,-0.300496495279,-0.928081366857,0.00667635351419,-0.0638689547777,-0.171422600746,-0.5295591,0.6080123,5.88399,0.0,-14.9222688675,7.39224529266,-0.365400254726,0.00667635351419,-0.0638689547777,-0.171422600746,1.24000000954,-410.136993408,-399.936187744,20.6177444458,-17.58083474638,-14.584777832099999,7.920796394350001,14.424893379199997,-0.771387696265998,16.0
2018-10-18 15:18:08.100,-0.077967242388,-0.300496495279,-0.928081366857,0.00667635351419,-0.0638689547777,-0.171422600746,-0.5295591,0.6080123,5.88399,0.0,-14.9222688675,7.39224529266,-0.365400254726,0.00667635351419,-0.0638689547777,-0.171422600746,1.24000000954,-410.136993408,-399.936187744,20.6177444458,-17.58083474638,-14.584777832099999,7.920796394350001,14.424893379199997,-0.771387696265998,16.0
2018-10-18 15:18:08.150,-0.077967242388,-0.300496495279,-0.928081366857,0.00667635351419,-0.0638689547777,-0.171422600746,-0.5295591,0.6080123,5.88399,0.0,-14.9222688675,7.39224529266,-0.365400254726,0.00667635351419,-0.0638689547777,-0.171422600746,1.33999991417,-384.953491211,-398.507598877,20.6177444458,-18.90083634858,-17.1647777558,7.460249900819999,14.078251838699996,-1.034260272979998,16.0
2018-10-18 15:18:08.200,-0.077967242388,-0.300496495279,-0.928081366857,0.00667635351419,-0.0638689547777,-0.171422600746,-0.5295591,0.6080123,5.88399,0.0,-14.0068616867,8.63072681427,-1.08294129372,0.00667635351419,-0.0638689547777,-0.171422600746,1.33999991417,-384.953491211,-398.507598877,20.6177444458,-18.90083634858,-17.1647777558,7.460249900819999,14.078251838699996,-1.034260272979998,16.0
2018-10-18 15:18:08.250,-0.0757560563552,-0.333549723331,-0.907287658722,0.21384459734,-0.00763229560107,-0.22733913362,-1.0787315,0.38245935,8.87501825,0.0,-14.0068616867,8.63072681427,-1.08294129372,0.00667635351419,-0.0638689547777,-0.171422600746,1.44999992847,-384.953491211,-397.121276855,16.3588600159,-17.41647493834,-23.6503734589,6.9935541153,13.714341163599997,-1.273485660549998,16.0
2018-10-18 15:18:08.300,-0.0757560563552,-0.333549723331,-0.907287658722,0.21384459734,-0.00763229560107,-0.22733913362,-1.0787315,0.38245935,8.87501825,0.0,-14.0068616867,8.63072681427,-1.08294129372,0.00667635351419,-0.0638689547777,-0.171422600746,1.44999992847,-384.953491211,-397.121276855,16.3588600159,-17.41647493834,-23.6503734589,6.9935541153,13.714341163599997,-1.273485660549998,16.0
2018-10-18 15:18:08.350,-0.0757560563552,-0.333549723331,-0.907287658722,0.21384459734,-0.00763229560107,-0.22733913362,-1.0787315,0.38245935,8.87501825,0.0,-14.0068616867,8.63072681427,-1.08294129372,0.00667635351419,-0.0638689547777,-0.171422600746,1.58999991417,-362.560089111,-395.768615723,16.3588600159,-17.55647432804,-26.9303741455,6.422624588010001,13.291178703299996,-1.373810648919998,16.0
2018-10-18 15:18:08.400,-0.0757560563552,-0.333549723331,-0.907287658722,0.21384459734,-0.00763229560107,-0.22733913362,-1.0787315,0.38245935,8.87501825,0.0,-13.2014627457,9.70435619354,-1.37071073055,0.21384459734,-0.00763229560107,-0.22733913362,1.58999991417,-362.560089111,-395.768615723,16.3588600159,-17.66647493834,-26.9303741455,6.422624588010001,13.291178703299996,-1.373810648919998,16.0
2018-10-18 15:18:08.450,-0.0757560563552,-0.333549723331,-0.907287658722,0.21384459734,-0.00763229560107,-0.22733913362,-1.0787315,0.38245935,8.87501825,0.0,-13.2014627457,9.70435619354,-1.37071073055,0.21384459734,-0.00763229560107,-0.22733913362,1.73000001907,-362.560089111,-394.46685791,16.3588600159,-17.75647509094,-30.61037349704,5.9448566437,12.935821533199997,-1.404787421229998,16.0
2018-10-18 15:18:08.500,-0.0757560563552,-0.333549723331,-0.907287658722,0.21384459734,-0.00763229560107,-0.22733913362,-1.0787315,0.38245935,8.87501825,0.0,-13.2014627457,9.70435619354,-1.37071073055,0.21384459734,-0.00763229560107,-0.22733913362,1.73000001907,-362.560089111,-394.46685791,16.3588600159,-17.75647509094,-30.61037349704,5.7590198517,12.784447669999997,-1.447699069979998,16.0
2018-10-18 15:18:08.550,-0.0757560563552,-0.333549723331,-0.907287658722,0.21384459734,-0.00763229560107,-0.22733913362,-1.0787315,0.38245935,8.87501825,0.0,-13.2014627457,9.70435619354,-1.37071073055,0.21384459734,-0.00763229560107,-0.22733913362,1.87000000477,-362.29095459,-393.198760986,16.3588600159,-18.126475930239998,-30.62037372592,5.4160270691,12.489822387699997,-1.600458502769998,16.0
2018-10-18 15:18:08.600,-0.0757560563552,-0.333549723331,-0.907287658722,0.21384459734,-0.00763229560107,-0.22733913362,-1.0787315,0.38245935,8.87501825,0.0,-13.2014627457,9.70435619354,-1.37071073055,0.21384459734,-0.00763229560107,-0.22733913362,1.87000000477,-362.29095459,-393.198760986,16.3588600159,-18.48647463324,-33.54037332538,5.4160270691,12.489822387699997,-1.600458502769998,16.0
2018-10-18 15:18:08.650,-0.0523526878504,-0.311194010487,-0.90537954836,-0.360019236803,0.0671438723803,-0.254369854927,-1.2552512,0.57859235,9.95374975,0.0,-12.2165966034,10.8942251205,-1.75483930111,-0.360019236803,0.0671438723803,-0.254369854927,1.87000000477,-362.29095459,-393.198760986,12.7121505737,-15.48564910888,-32.79031920436,5.1057748795,12.216596603399996,-1.754839301109998,16.0
2018-10-18 15:18:08.700,-0.0523526878504,-0.311194010487,-0.90537954836,-0.360019236803,0.0671438723803,-0.254369854927,-1.2552512,0.57859235,9.95374975,0.0,-12.2165966034,10.8942251205,-1.75483930111,-0.360019236803,0.0671438723803,-0.254369854927,2.02999997139,-362.29095459,-391.973052979,12.7121505737,-15.98564910888,-32.80031919483,4.9721078873,12.093415260299997,-1.837925434109998,16.0
2018-10-18 15:18:08.750,-0.0523526878504,-0.311194010487,-0.90537954836,-0.360019236803,0.0671438723803,-0.254369854927,-1.2552512,0.57859235,9.95374975,0.0,-12.2165966034,10.8942251205,-1.75483930111,-0.360019236803,0.0671438723803,-0.254369854927,2.02999997139,-362.29095459,-391.973052979,12.7121505737,-15.98564910888,-32.80031919483,4.830718040500001,11.962365150499997,-1.900093913079998,16.0
2018-10-18 15:18:08.800,-0.0523526878504,-0.311194010487,-0.90537954836,-0.360019236803,0.0671438723803,-0.254369854927,-1.2552512,0.57859235,9.95374975,0.0,-12.2165966034,10.8942251205,-1.75483930111,-0.360019236803,0.0671438723803,-0.254369854927,2.20000004768,-352.100189209,-390.781158447,12.7121505737,-16.26564979558,-35.22031927112,4.693824768100001,11.834464073199996,-1.964287281039998,16.0
2018-10-18 15:18:08.850,-0.0523526878504,-0.311194010487,-0.90537954836,-0.360019236803,0.0671438723803,-0.254369854927,-1.2552512,0.57859235,9.95374975,0.0,-12.2165966034,10.8942251205,-1.75483930111,-0.360019236803,0.0671438723803,-0.254369854927,2.38999986649,-352.100189209,-389.622955322,12.7121505737,-17.08564949038,-37.340319216284,4.4170131683000005,11.549777030899996,-2.1991531848899983,16.0
2018-10-18 15:18:08.900,-0.0523526878504,-0.311194010487,-0.90537954836,-0.360019236803,0.0671438723803,-0.254369854927,-1.2552512,0.57859235,9.95374975,0.0,-11.4981403351,11.6275663376,-2.25055170059,-0.360019236803,0.0671438723803,-0.254369854927,2.38999986649,-352.100189209,-389.622955322,12.7121505737,-17.38565063478,-37.340319216284,4.331878662099999,11.449511527999997,-2.307589769359998,16.0
2018-10-18 15:18:08.950,-0.0523526878504,-0.311194010487,-0.90537954836,-0.360019236803,0.0671438723803,-0.254369854927,-1.2552512,0.57859235,9.95374975,0.0,-11.4981403351,11.6275663376,-2.25055170059,-0.360019236803,0.0671438723803,-0.254369854927,2.38999986649,-352.100189209,-389.622955322,12.7121505737,-17.64565086368,-37.340319216284,4.272718429599999,11.359678268399996,-2.4710299968699982,16.0
2018-10-18 15:18:09.000,0.0100483350195,-0.22818762708,-0.917642275182,-0.475574612617,0.121366553009,-0.203028053045,-1.6475172,0.63743225,5.9428299,0.0,-11.4981403351,11.6275663376,-2.25055170059,-0.360019236803,0.0671438723803,-0.254369854927,2.6099998951,-339.683349609,-388.481781006,9.080673217799998,-13.184711456319999,-27.11565423015,4.1673812865999995,11.189175605799996,-2.792634963989998,16.0
2018-10-18 15:18:09.050,0.0100483350195,-0.22818762708,-0.917642275182,-0.475574612617,0.121366553009,-0.203028053045,-1.6475172,0.63743225,5.9428299,0.0,-11.4981403351,11.6275663376,-2.25055170059,-0.360019236803,0.0671438723803,-0.254369854927,2.6099998951,-339.683349609,-388.481781006,9.080673217799998,-13.184711456319999,-27.11565423015,4.1673812865999995,11.189175605799996,-2.792634963989998,16.0
2018-10-18 15:18:09.100,0.0100483350195,-0.22818762708,-0.917642275182,-0.475574612617,0.121366553009,-0.203028053045,-1.6475172,0.63743225,5.9428299,0.0,-11.032324791,11.9225854874,-3.10020303726,-0.475574612617,0.121366553009,-0.203028053045,2.8599998951,-339.683349609,-387.365844727,9.080673217799998,-13.46471214292,-28.34565424922,4.099384307899999,11.068196296699996,-3.0282411575299983,16.0
2018-10-18 15:18:09.150,0.0100483350195,-0.22818762708,-0.917642275182,-0.475574612617,0.121366553009,-0.203028053045,-1.6475172,0.63743225,5.9428299,0.0,-11.032324791,11.9225854874,-3.10020303726,-0.475574612617,0.121366553009,-0.203028053045,3.14999985695,-335.764892578,-386.258483887,9.080673217799998,-13.814712524419999,-29.30565404895,4.031121254,10.948457717899997,-3.3121771812399983,16.0
2018-10-18 15:18:09.200,0.0100483350195,-0.22818762708,-0.917642275182,-0.475574612617,0.121366553009,-0.203028053045,-1.6475172,0.63743225,5.9428299,0.0,-11.032324791,11.9225854874,-3.10020303726,-0.475574612617,0.121366553009,-0.203028053045,3.14999985695,-335.764892578,-386.258483887,9.080673217799998,-14.04471206662,-29.29565429691,3.982228279099999,10.865515708899997,-3.5041782855999983,16.0
2018-10-18 15:18:09.250,0.0100483350195,-0.22818762708,-0.917642275182,-0.475574612617,0.121366553009,-0.203028053045,-1.6475172,0.63743225,5.9428299,0.0,-11.032324791,11.9225854874,-3.10020303726,-0.475574612617,0.121366553009,-0.203028053045,3.14999985695,-335.764892578,-386.258483887,9.080673217799998,-14.04471206662,-29.29565429691,3.982228279099999,10.865515708899997,-3.5041782855999983,16.0
2018-10-18 15:18:09.300,0.0100483350195,-0.22818762708,-0.917642275182,-0.475574612617,0.121366553009,-0.203028053045,-1.6475172,0.63743225,5.9428299,0.0,-11.032324791,11.9225854874,-3.10020303726,-0.475574612617,0.121366553009,-0.203028053045,3.14999985695,-335.764892578,-386.258483887,9.080673217799998,-14.04471206662,-29.29565429691,3.982228279099999,10.865515708899997,-3.5041782855999983,16.0
2018-10-18 15:18:09.350,0.0100483350195,-0.22818762708,-0.917642275182,-0.475574612617,0.121366553009,-0.203028053045,-1.6475172,0.63743225,5.9428299,0.0,-10.7246751785,12.0914440155,-3.91036725044,-0.475574612617,0.121366553009,-0.203028053045,3.8599998951,-311.826324463,-384.077423096,9.080673217799998,-14.51471138002,-30.645654201539998,3.9145908356000003,10.743721961999997,-3.836942195889998,16.0
2018-10-18 15:18:09.400,0.0708188500654,-0.154937205847,-0.920771455557,-0.431145727634,0.183021530509,-0.170116201043,-1.8240369,0.44129925,6.5116156,0.0,-10.7246751785,12.0914440155,-3.91036725044,-0.475574612617,0.121366553009,-0.203028053045,3.8599998951,-311.826324463,-384.077423096,5.9851188660000005,-10.452832222,-19.95354557041,3.871400833099999,10.642605781599997,-4.183602809909998,16.0
2018-10-18 15:18:09.450,0.0708188500654,-0.154937205847,-0.920771455557,-0.431145727634,0.183021530509,-0.170116201043,-1.8240369,0.44129925,6.5116156,0.0,-10.7246751785,12.0914440155,-3.91036725044,-0.475574612617,0.121366553009,-0.203028053045,4.26999998093,-311.826324463,-383.003875732,5.9851188660000005,-10.5528326034,-20.41354560856,3.8594493865999997,10.602411270099996,-4.3942551612899985,16.0
2018-10-18 15:18:09.500,0.0708188500654,-0.154937205847,-0.920771455557,-0.431145727634,0.183021530509,-0.170116201043,-1.8240369,0.44129925,6.5116156,0.0,-10.7246751785,12.0914440155,-3.91036725044,-0.475574612617,0.121366553009,-0.203028053045,4.26999998093,-311.826324463,-383.003875732,5.9851188660000005,-10.5528326034,-20.41354560856,3.8594493865999997,10.602411270099996,-4.3942551612899985,16.0
2018-10-18 15:18:09.550,0.0708188500654,-0.154937205847,-0.920771455557,-0.431145727634,0.183021530509,-0.170116201043,-1.8240369,0.44129925,6.5116156,0.0,-10.7246751785,12.0914440155,-3.91036725044,-0.475574612617,0.121366553009,-0.203028053045,4.71000003815,-304.992492676,-381.938598633,5.9851188660000005,-10.7628335953,-20.73354578022,3.8399610518999996,10.550192832899997,-4.651105403899998,16.0
2018-10-18 15:18:09.600,0.0708188500654,-0.154937205847,-0.920771455557,-0.431145727634,0.183021530509,-0.170116201043,-1.8240369,0.44129925,6.5116156,0.0,-10.5282201767,12.1675481796,-4.79179954529,-0.431145727634,0.183021530509,-0.170116201043,4.71000003815,-304.992492676,-381.938598633,5.9851188660000005,-10.7628335953,-20.73354578022,3.8399610518999996,10.550192832899997,-4.651105403899998,16.0
2018-10-18 15:18:09.650,0.0708188500654,-0.154937205847,-0.920771455557,-0.431145727634,0.183021530509,-0.170116201043,-1.8240369,0.44129925,6.5116156,0.0,-10.5282201767,12.1675481796,-4.79179954529,-0.431145727634,0.183021530509,-0.170116201043,5.19000005722,-304.992492676,-380.873535156,5.9851188660000005,-10.922833442700002,-20.943545341529997,3.8266210556000004,10.497279167199997,-5.006962776179998,16.0
2018-10-18 15:18:09.700,0.0708188500654,-0.154937205847,-0.920771455557,-0.431145727634,0.183021530509,-0.170116201043,-1.8240369,0.44129925,6.5116156,0.0,-10.5282201767,12.1675481796,-4.79179954529,-0.431145727634,0.183021530509,-0.170116201043,5.19000005722,-304.992492676,-380.873535156,5.9851188660000005,-10.922833442700002,-20.943545341529997,3.8266210556000004,10.497279167199997,-5.006962776179998,16.0
2018-10-18 15:18:09.750,0.0708188500654,-0.154937205847,-0.920771455557,-0.431145727634,0.183021530509,-0.170116201043,-1.8240369,0.44129925,6.5116156,0.0,-10.5282201767,12.1675481796,-4.79179954529,-0.431145727634,0.183021530509,-0.170116201043,5.19000005722,-304.992492676,-380.873535156,5.9851188660000005,-10.992833137500002,-20.9235453606,3.8280706406,10.470452308699997,-5.250790119169999,16.0
2018-10-18 15:18:09.800,0.126487569152,-0.10105482476,-0.916189455654,-0.255442231894,0.170549213886,-0.103632390499,-1.97113665,0.1176798,5.0210048,0.0,-10.4138469696,12.1606836319,-5.70101165771,-0.255442231894,0.170549213886,-0.103632390499,5.69999980927,-299.131958008,-379.808288574,3.2588729857999965,-7.079856872499999,-12.571410179139999,3.8441801070999997,10.427393913299996,-5.621005058289998,16.0
2018-10-18 15:18:09.850,0.126487569152,-0.10105482476,-0.916189455654,-0.255442231894,0.170549213886,-0.103632390499,-1.97113665,0.1176798,5.0210048,0.0,-10.4138469696,12.1606836319,-5.70101165771,-0.255442231894,0.170549213886,-0.103632390499,5.69999980927,-299.131958008,-379.808288574,3.2588729857999965,-7.0898571014,-12.55141019821,3.834515571600001,10.403492927599997,-5.768129825589998,16.0
2018-10-18 15:18:09.900,0.126487569152,-0.10105482476,-0.916189455654,-0.255442231894,0.170549213886,-0.103632390499,-1.97113665,0.1176798,5.0210048,0.0,-10.4138469696,12.1606836319,-5.70101165771,-0.255442231894,0.170549213886,-0.103632390499,5.69999980927,-299.131958008,-379.808288574,3.2588729857999965,-7.0898571014,-12.55141019821,3.834515571600001,10.403492927599997,-5.768129825589998,16.0
2018-10-18 15:18:09.950,0.126487569152,-0.10105482476,-0.916189455654,-0.255442231894,0.170549213886,-0.103632390499,-1.97113665,0.1176798,5.0210048,0.0,-10.4138469696,12.1606836319,-5.70101165771,-0.255442231894,0.170549213886,-0.103632390499,6.84999990463,-295.468719482,-377.703338623,3.2588729857999965,-7.109857559199998,-12.70140981674,3.8062753676999996,10.394670486499997,-6.058787345889998,16.0
2018-10-18 15:18:10.000,0.126487569152,-0.10105482476,-0.916189455654,-0.255442231894,0.170549213886,-0.103632390499,-1.97113665,0.1176798,5.0210048,0.0,-10.4138469696,12.1606836319,-5.70101165771,-0.255442231894,0.170549213886,-0.103632390499,6.84999990463,-295.468719482,-377.703338623,3.2588729857999965,-7.099857330300001,-12.80141019821,3.7893390656,10.414022445699997,-6.194885253909998,16.0
2018-10-18 15:18:10.050,0.126487569152,-0.10105482476,-0.916189455654,-0.255442231894,0.170549213886,-0.103632390499,-1.97113665,0.1176798,5.0210048,0.0,-10.4223833084,12.2313289642,-6.27866983414,-0.255442231894,0.170549213886,-0.103632390499,6.84999990463,-295.468719482,-377.703338623,3.2588729857999965,-7.0898571014,-12.791409969330001,3.7686710358000006,10.422383308399997,-6.278669834139998,16.0
2018-10-18 15:18:10.100,0.126487569152,-0.10105482476,-0.916189455654,-0.255442231894,0.170549213886,-0.103632390499,-1.97113665,0.1176798,5.0210048,0.0,-10.4223833084,12.2313289642,-6.27866983414,-0.255442231894,0.170549213886,-0.103632390499,7.46999979019,-295.468719482,-376.646697998,3.2588729857999965,-7.079856872499999,-12.821410179139999,3.7608938217,10.425565719599996,-6.323305606839998,16.0
2018-10-18 15:18:10.150,0.145630020563,-0.109635883239,-0.911540100437,0.113158628345,0.10009676218,-0.00578951556236,-1.8632635,0.6080123,7.3746008,0.0,-10.4223833084,12.2313289642,-6.27866983414,-0.255442231894,0.170549213886,-0.103632390499,8.10999965668,-297.738464355,-375.590057373,2.9781112670999974,-4.607669830300001,-12.89966344834,3.7176504134999995,10.457185745199997,-6.550172805789998,16.0
2018-10-18 15:18:10.200,0.145630020563,-0.109635883239,-0.911540100437,0.113158628345,0.10009676218,-0.00578951556236,-1.8632635,0.6080123,7.3746008,0.0,-10.4223833084,12.2313289642,-6.27866983414,-0.255442231894,0.170549213886,-0.103632390499,8.10999965668,-297.738464355,-375.590057373,2.9781112670999974,-4.607669830300001,-12.89966344834,3.7176504134999995,10.457185745199997,-6.550172805789998,16.0
2018-10-18 15:18:10.250,0.145630020563,-0.109635883239,-0.911540100437,0.113158628345,0.10009676218,-0.00578951556236,-1.8632635,0.6080123,7.3746008,0.0,-10.4223833084,12.2313289642,-6.27866983414,-0.255442231894,0.170549213886,-0.103632390499,8.76999950409,-297.738464355,-374.524780273,2.9781112670999974,-4.627670288000001,-12.90966367722,3.6598300934,10.509880065899996,-6.717057228089998,16.0
2018-10-18 15:18:10.300,0.145630020563,-0.109635883239,-0.911540100437,0.113158628345,0.10009676218,-0.00578951556236,-1.8632635,0.6080123,7.3746008,0.0,-10.5250072479,12.3457422256,-6.75157499313,0.113158628345,0.10009676218,-0.00578951556236,8.76999950409,-297.738464355,-374.524780273,2.9781112670999974,-4.627670288000001,-12.90966367722,3.6598300934,10.509880065899996,-6.717057228089998,16.0
2018-10-18 15:18:10.350,0.145630020563,-0.109635883239,-0.911540100437,0.113158628345,0.10009676218,-0.00578951556236,-1.8632635,0.6080123,7.3746008,0.0,-10.5250072479,12.3457422256,-6.75157499313,0.113158628345,0.10009676218,-0.00578951556236,9.43999958038,-307.227325439,-373.459686279,2.9781112670999974,-4.677669525100001,-12.829663753510001,3.6021118164000008,10.593903541599996,-6.8333888053899985,16.0
2018-10-18 15:18:10.400,0.145630020563,-0.109635883239,-0.911540100437,0.113158628345,0.10009676218,-0.00578951556236,-1.8632635,0.6080123,7.3746008,0.0,-10.5250072479,12.3457422256,-6.75157499313,0.113158628345,0.10009676218,-0.00578951556236,9.43999958038,-307.227325439,-373.459686279,2.9781112670999974,-4.677669525100001,-12.829663753510001,3.6021118164000008,10.593903541599996,-6.8333888053899985,16.0
2018-10-18 15:18:10.450,0.167295181634,-0.0900958557082,-0.911342230866,-0.241936117411,0.0724163651466,-0.0522027090192,-2.0397832,0.79433865,8.60043205,0.0,-10.5250072479,12.3457422256,-6.75157499313,0.113158628345,0.10009676218,-0.00578951556236,9.43999958038,-307.227325439,-373.459686279,2.9781112670999974,-4.7076702118,-12.81966352463,3.5712413788,10.682224273699996,-6.920011997219998,16.0
2018-10-18 15:18:10.500,0.167295181634,-0.0900958557082,-0.911342230866,-0.241936117411,0.0724163651466,-0.0522027090192,-2.0397832,0.79433865,8.60043205,0.0,-10.5250072479,12.3457422256,-6.75157499313,0.113158628345,0.10009676218,-0.00578951556236,10.1199998856,-307.227325439,-372.377502441,2.8270645142000035,-3.2095241546999986,-9.534001827240001,3.5615463257,10.696232795699997,-6.941200733179998,16.0
2018-10-18 15:18:10.550,0.167295181634,-0.0900958557082,-0.911342230866,-0.241936117411,0.0724163651466,-0.0522027090192,-2.0397832,0.79433865,8.60043205,0.0,-10.760474205,12.4497499466,-7.10807561874,-0.241936117411,0.0724163651466,-0.0522027090192,10.1199998856,-307.227325439,-372.377502441,2.8270645142000035,-3.2295246123999988,-9.50400161743,3.550250053399999,10.760474204999996,-7.108075618739998,16.0
2018-10-18 15:18:10.600,0.167295181634,-0.0900958557082,-0.911342230866,-0.241936117411,0.0724163651466,-0.0522027090192,-2.0397832,0.79433865,8.60043205,0.0,-10.760474205,12.4497499466,-7.10807561874,-0.241936117411,0.0724163651466,-0.0522027090192,10.8099994659,-331.709472656,-371.28704834,2.8270645142000035,-3.2295246123999988,-9.30400180817,3.5408926009999995,10.777043342599997,-7.131900787349998,16.0
2018-10-18 15:18:10.650,0.167295181634,-0.0900958557082,-0.911342230866,-0.241936117411,0.0724163651466,-0.0522027090192,-2.0397832,0.79433865,8.60043205,0.0,-10.760474205,12.4497499466,-7.10807561874,-0.241936117411,0.0724163651466,-0.0522027090192,11.5199995041,-331.709472656,-370.188140869,2.8270645142000035,-3.2295246123999988,-9.04400157929,3.514425277699999,10.873424529999996,-7.288183212279998,16.0
2018-10-18 15:18:10.700,0.167295181634,-0.0900958557082,-0.911342230866,-0.241936117411,0.0724163651466,-0.0522027090192,-2.0397832,0.79433865,8.60043205,0.0,-10.760474205,12.4497499466,-7.10807561874,-0.241936117411,0.0724163651466,-0.0522027090192,11.5199995041,-331.709472656,-370.188140869,2.8270645142000035,-3.2295246123999988,-9.04400157929,3.514425277699999,10.873424529999996,-7.288183212279998,16.0
2018-10-18 15:18:10.750,0.167295181634,-0.0900958557082,-0.911342230866,-0.241936117411,0.0724163651466,-0.0522027090192,-2.0397832,0.79433865,8.60043205,0.0,-10.760474205,12.4497499466,-7.10807561874,-0.241936117411,0.0724163651466,-0.0522027090192,12.25,-348.394958496,-369.072143555,2.8270645142000035,-3.2295246123999988,-8.864001750949999,3.4952802658,10.944972991899997,-7.503920555109998,16.0
2018-10-18 15:18:10.800,0.167295181634,-0.0900958557082,-0.911342230866,-0.241936117411,0.0724163651466,-0.0522027090192,-2.0397832,0.79433865,8.60043205,0.0,-10.9697132111,12.5262556076,-7.56393957138,-0.241936117411,0.0724163651466,-0.0522027090192,12.25,-348.394958496,-369.072143555,2.8270645142000035,-3.2295246123999988,-8.854001522059999,3.4952802658,10.944972991899997,-7.503920555109998,16.0
2018-10-18 15:18:10.850,0.167295181634,-0.0900958557082,-0.911342230866,-0.241936117411,0.0724163651466,-0.0522027090192,-2.0397832,0.79433865,8.60043205,0.0,-10.9697132111,12.5262556076,-7.56393957138,-0.241936117411,0.0724163651466,-0.0522027090192,12.25,-348.394958496,-369.072143555,2.8270645142000035,-3.2295246123999988,-8.854001522059999,3.4656562804999993,10.984839439399996,-7.595956325529999,16.0
2018-10-18 15:18:10.900,0.187185306817,-0.0747058102458,-0.907978107073,0.080946713686,0.0183507688344,0.0616375058889,-2.3732093,0.00980665,8.4141057,0.0,-10.9697132111,12.5262556076,-7.56393957138,-0.241936117411,0.0724163651466,-0.0522027090192,12.9899997711,-348.394958496,-367.956329346,2.8270645142000035,-0.9895248412999997,-8.76400184631,3.4456329346000008,11.038212776199996,-7.685184001919998,16.0
2018-10-18 15:18:10.950,0.187185306817,-0.0747058102458,-0.907978107073,0.080946713686,0.0183507688344,0.0616375058889,-2.3732093,0.00980665,8.4141057,0.0,-10.9697132111,12.5262556076,-7.56393957138,-0.241936117411,0.0724163651466,-0.0522027090192,13.75,-367.023651123,-366.823486328,1.9199256897000012,0.5040493011000002,-6.043515130875,3.4236354828,11.080525398299997,-7.777831077579998,16.0
2018-10-18 15:18:11.000,0.187185306817,-0.0747058102458,-0.907978107073,0.080946713686,0.0183507688344,0.0616375058889,-2.3732093,0.00980665,8.4141057,0.0,-10.9697132111,12.5262556076,-7.56393957138,-0.241936117411,0.0724163651466,-0.0522027090192,13.75,-367.023651123,-366.823486328,1.9199256897000012,3.0340499877000013,-5.913515016435,3.3778486252000004,11.176311492899996,-7.818438053129999,16.0
2018-10-18 15:18:11.050,0.187185306817,-0.0747058102458,-0.907978107073,0.080946713686,0.0183507688344,0.0616375058889,-2.3732093,0.00980665,8.4141057,0.0,-11.2021884918,12.6417188644,-7.80403757095,0.080946713686,0.0183507688344,0.0616375058889,14.5199995041,-367.023651123,-365.690765381,1.9199256897000012,5.544050216599999,-5.733515188095,3.3396291733000005,11.230615615799996,-7.787458419799998,16.0
2018-10-18 15:18:11.100,0.187185306817,-0.0747058102458,-0.907978107073,0.080946713686,0.0183507688344,0.0616375058889,-2.3732093,0.00980665,8.4141057,0.0,-11.2021884918,12.6417188644,-7.80403757095,0.080946713686,0.0183507688344,0.0616375058889,14.5199995041,-367.023651123,-365.690765381,1.9199256897000012,5.544050216599999,-5.733515188095,3.3396291733000005,11.230615615799996,-7.787458419799998,16.0
2018-10-18 15:18:11.150,0.187185306817,-0.0747058102458,-0.907978107073,0.080946713686,0.0183507688344,0.0616375058889,-2.3732093,0.00980665,8.4141057,0.0,-11.2021884918,12.6417188644,-7.80403757095,0.080946713686,0.0183507688344,0.0616375058889,15.2899999619,-395.833007812,-364.541107178,1.9199256897000012,8.084049224800001,-5.443515226245,3.2623767853000007,11.402602195699997,-7.687156200409998,16.0
2018-10-18 15:18:11.200,0.187185306817,-0.0747058102458,-0.907978107073,0.080946713686,0.0183507688344,0.0616375058889,-2.3732093,0.00980665,8.4141057,0.0,-11.2021884918,12.6417188644,-7.80403757095,0.080946713686,0.0183507688344,0.0616375058889,15.2899999619,-395.833007812,-364.541107178,1.9199256897000012,8.084049224800001,-5.443515226245,3.2623767853000007,11.402602195699997,-7.687156200409998,16.0
2018-10-18 15:18:11.250,0.187185306817,-0.0747058102458,-0.907978107073,0.080946713686,0.0183507688344,0.0616375058889,-2.3732093,0.00980665,8.4141057,0.0,-11.2021884918,12.6417188644,-7.80403757095,0.080946713686,0.0183507688344,0.0616375058889,15.2899999619,-395.833007812,-364.541107178,1.9199256897000012,8.084049224800001,-5.453514978285,3.2476825714000004,11.491458892799997,-7.7380833625799985,16.0
2018-10-18 15:18:11.300,0.177195739199,-0.0663040265097,-0.917043644942,-0.0509401671588,-0.155620440841,0.0724567249417,-2.3928226,1.04931155,8.42391235,0.0,-11.5419006348,12.7381544113,-7.79248952866,0.080946713686,0.0183507688344,0.0616375058889,16.0599994659,-395.833007812,-363.366149902,1.9199256897000012,10.6340494155,-5.173515245315,3.2618455887,11.541900634799996,-7.792489528659998,16.0
2018-10-18 15:18:11.350,0.177195739199,-0.0663040265097,-0.917043644942,-0.0509401671588,-0.155620440841,0.0724567249417,-2.3928226,1.04931155,8.42391235,0.0,-11.5419006348,12.7381544113,-7.79248952866,0.080946713686,0.0183507688344,0.0616375058889,16.8299999237,-413.856689453,-362.182678223,4.072326660199998,11.730905532799998,-4.637084156275,3.2685041427999995,11.639103889499996,-7.851826667789998,16.0
2018-10-18 15:18:11.400,0.177195739199,-0.0663040265097,-0.917043644942,-0.0509401671588,-0.155620440841,0.0724567249417,-2.3928226,1.04931155,8.42391235,0.0,-11.5419006348,12.7381544113,-7.79248952866,0.080946713686,0.0183507688344,0.0616375058889,16.8299999237,-413.856689453,-362.182678223,4.072326660199998,11.730905532799998,-4.637084156275,3.2685041427999995,11.639103889499996,-7.851826667789998,16.0
2018-10-18 15:18:11.450,0.177195739199,-0.0663040265097,-0.917043644942,-0.0509401671588,-0.155620440841,0.0724567249417,-2.3928226,1.04931155,8.42391235,0.0,-11.5419006348,12.7381544113,-7.79248952866,0.080946713686,0.0183507688344,0.0616375058889,16.8299999237,-413.856689453,-362.182678223,4.072326660199998,11.730905532799998,-4.677084118124999,3.2468643188,11.771155357399996,-7.785009860989998,16.0
2018-10-18 15:18:11.500,0.177195739199,-0.0663040265097,-0.917043644942,-0.0509401671588,-0.155620440841,0.0724567249417,-2.3928226,1.04931155,8.42391235,0.0,-11.5419006348,12.7381544113,-7.79248952866,0.080946713686,0.0183507688344,0.0616375058889,17.609998703,-413.856689453,-360.990539551,4.072326660199998,14.260905742599999,-4.237084060905,3.2193422318000007,11.936020851099997,-7.627336502079999,16.0
2018-10-18 15:18:11.550,0.162073388021,-0.0388239597854,-0.920590003691,-0.0519384294748,-0.243923962116,-0.0989320501685,-2.3143694,-0.0392266,11.81701325,0.0,-11.9360208511,12.7806577682,-7.62733650208,-0.0509401671588,-0.155620440841,0.0724567249417,18.3699989319,-425.75894165,-359.781738281,4.072326660199998,16.580905437429998,-3.647084146735,3.2045011520000006,12.032695770299997,-7.521984100339998,16.0
2018-10-18 15:18:11.600,0.162073388021,-0.0388239597854,-0.920590003691,-0.0519384294748,-0.243923962116,-0.0989320501685,-2.3143694,-0.0392266,11.81701325,0.0,-11.9360208511,12.7806577682,-7.62733650208,-0.0509401671588,-0.155620440841,0.0724567249417,18.3699989319,-425.75894165,-359.781738281,3.584720611599998,13.78588438033,-1.2230770588,3.1789674759000004,12.132317542999996,-7.373430728909998,16.0
2018-10-18 15:18:11.650,0.162073388021,-0.0388239597854,-0.920590003691,-0.0519384294748,-0.243923962116,-0.0989320501685,-2.3143694,-0.0392266,11.81701325,0.0,-11.9360208511,12.7806577682,-7.62733650208,-0.0509401671588,-0.155620440841,0.0724567249417,18.3699989319,-425.75894165,-359.781738281,3.584720611599998,13.78588438033,-1.2230770588,3.1789674759000004,12.132317542999996,-7.373430728909998,16.0
2018-10-18 15:18:11.700,0.162073388021,-0.0388239597854,-0.920590003691,-0.0519384294748,-0.243923962116,-0.0989320501685,-2.3143694,-0.0392266,11.81701325,0.0,-11.9360208511,12.7806577682,-7.62733650208,-0.0509401671588,-0.155620440841,0.0724567249417,19.1000003815,-425.75894165,-358.547515869,3.584720611599998,15.905884504300001,-0.6630771160200002,3.0813446045,12.376269340499997,-6.890193462369998,16.0
2018-10-18 15:18:11.750,0.162073388021,-0.0388239597854,-0.920590003691,-0.0519384294748,-0.243923962116,-0.0989320501685,-2.3143694,-0.0392266,11.81701325,0.0,-11.9360208511,12.7806577682,-7.62733650208,-0.0509401671588,-0.155620440841,0.0724567249417,19.7899990082,-469.850341797,-357.287994385,3.584720611599998,17.81588447093,-0.20307707787000018,3.0150184631000005,12.520076751699996,-6.581088542939998,16.0
2018-10-18 15:18:11.800,0.162073388021,-0.0388239597854,-0.920590003691,-0.0519384294748,-0.243923962116,-0.0989320501685,-2.3143694,-0.0392266,11.81701325,0.0,-12.5685911179,13.0124425888,-6.46816492081,-0.0519384294748,-0.243923962116,-0.0989320501685,19.7899990082,-469.850341797,-357.287994385,3.584720611599998,17.81588447093,-0.20307707787000018,3.0150184631000005,12.520076751699996,-6.581088542939998,16.0
2018-10-18 15:18:11.850,0.162073388021,-0.0388239597854,-0.920590003691,-0.0519384294748,-0.243923962116,-0.0989320501685,-2.3143694,-0.0392266,11.81701325,0.0,-12.5685911179,13.0124425888,-6.46816492081,-0.0519384294748,-0.243923962116,-0.0989320501685,19.7899990082,-469.850341797,-357.287994385,3.584720611599998,17.81588447093,-0.22307705879999995,2.9093179703,12.705376625099996,-6.103817462919999,16.0
2018-10-18 15:18:11.900,0.107466049087,-0.0361791485686,-0.925613996241,0.150568306446,-0.306007474661,0.0732852146029,-1.2748645,-0.04903325,15.2199208,0.0,-12.5685911179,13.0124425888,-6.46816492081,-0.0519384294748,-0.243923962116,-0.0989320501685,20.4200000763,-469.850341797,-356.003112793,3.584720611599998,19.495884388671,0.1869230270300002,2.841555595399999,12.814301490799997,-5.786552906039998,16.0
2018-10-18 15:18:11.950,0.107466049087,-0.0361791485686,-0.925613996241,0.150568306446,-0.306007474661,0.0732852146029,-1.2748645,-0.04903325,15.2199208,0.0,-12.5685911179,13.0124425888,-6.46816492081,-0.0519384294748,-0.243923962116,-0.0989320501685,20.9799995422,-519.192504883,-354.701171875,3.3071174621999972,15.05708289142,-1.5647510290139999,2.7327022551999995,12.985156059299996,-5.2607765197799985,16.0
2018-10-18 15:18:12.000,0.107466049087,-0.0361791485686,-0.925613996241,0.150568306446,-0.306007474661,0.0732852146029,-1.2748645,-0.04903325,15.2199208,0.0,-13.027305603,13.2874078751,-5.10348367691,0.150568306446,-0.306007474661,0.0732852146029,20.9799995422,-519.192504883,-354.701171875,3.3071174621999972,15.05708289142,-1.5647510290139999,2.7327022551999995,12.985156059299996,-5.2607765197799985,16.0
2018-10-18 15:18:12.050,0.107466049087,-0.0361791485686,-0.925613996241,0.150568306446,-0.306007474661,0.0732852146029,-1.2748645,-0.04903325,15.2199208,0.0,-13.027305603,13.2874078751,-5.10348367691,0.150568306446,-0.306007474661,0.0732852146029,21.4799995422,-519.192504883,-353.374023438,3.3071174621999972,16.28708291049,-1.2747509479539998,2.6393194198999996,13.139372825599997,-4.672213554379998,16.0
2018-10-18 15:18:12.100,0.107466049087,-0.0361791485686,-0.925613996241,0.150568306446,-0.306007474661,0.0732852146029,-1.2748645,-0.04903325,15.2199208,0.0,-13.027305603,13.2874078751,-5.10348367691,0.150568306446,-0.306007474661,0.0732852146029,21.4799995422,-519.192504883,-353.374023438,3.3071174621999972,16.28708291049,-1.2747509479539998,2.6393194198999996,13.139372825599997,-4.672213554379998,16.0
2018-10-18 15:18:12.150,0.107466049087,-0.0361791485686,-0.925613996241,0.150568306446,-0.306007474661,0.0732852146029,-1.2748645,-0.04903325,15.2199208,0.0,-13.027305603,13.2874078751,-5.10348367691,0.150568306446,-0.306007474661,0.0732852146029,21.4799995422,-519.192504883,-353.374023438,3.3071174621999972,16.28708291049,-1.2747509479539998,2.5470638275000006,13.295982360799997,-3.9951438903799983,16.0
2018-10-18 15:18:12.200,0.107466049087,-0.0361791485686,-0.925613996241,0.150568306446,-0.306007474661,0.0732852146029,-1.2748645,-0.04903325,15.2199208,0.0,-13.027305603,13.2874078751,-5.10348367691,0.150568306446,-0.306007474661,0.0732852146029,21.9099998474,-570.533569336,-352.029785156,3.3071174621999972,17.26708269114,-1.014750957484,2.495707511899999,13.382627487199997,-3.611214160919998,16.0
2018-10-18 15:18:12.250,0.107466049087,-0.0361791485686,-0.925613996241,0.150568306446,-0.306007474661,0.0732852146029,-1.2748645,-0.04903325,15.2199208,0.0,-13.5061321259,13.5714206696,-2.89735841751,0.150568306446,-0.306007474661,0.0732852146029,22.2399997711,-570.533569336,-350.668823242,3.3071174621999972,17.26708269114,-1.0247509479539998,2.4433956146,13.479443550099996,-3.085056543349998,16.0
2018-10-18 15:18:12.300,0.0472521633955,-0.0212338385029,-0.93680476049,-0.0691246762872,-0.332743942738,0.0939271003008,-0.08825985,0.5687857,18.1619158,0.0,-13.5061321259,13.5714206696,-2.89735841751,0.150568306446,-0.306007474661,0.0732852146029,22.2399997711,-570.533569336,-350.668823242,3.3071174621999972,17.96708297725,-0.7347509861039999,2.422586441,13.528661727899996,-2.747248649599998,16.0
2018-10-18 15:18:12.350,0.0472521633955,-0.0212338385029,-0.93680476049,-0.0691246762872,-0.332743942738,0.0939271003008,-0.08825985,0.5687857,18.1619158,0.0,-13.5061321259,13.5714206696,-2.89735841751,0.150568306446,-0.306007474661,0.0732852146029,22.2399997711,-570.533569336,-350.668823242,3.3071174621999972,17.96708297725,-0.7347509861039999,2.422586441,13.528661727899996,-2.747248649599998,16.0
2018-10-18 15:18:12.400,0.0472521633955,-0.0212338385029,-0.93680476049,-0.0691246762872,-0.332743942738,0.0939271003008,-0.08825985,0.5687857,18.1619158,0.0,-13.5061321259,13.5714206696,-2.89735841751,0.150568306446,-0.306007474661,0.0732852146029,22.4899997711,-612.702148438,-349.307800293,5.479091644299999,11.3749537468,-1.488170683388,2.3717117309999995,13.719376563999996,-1.555592060089998,16.0
2018-10-18 15:18:12.450,0.0472521633955,-0.0212338385029,-0.93680476049,-0.0691246762872,-0.332743942738,0.0939271003008,-0.08825985,0.5687857,18.1619158,0.0,-13.5061321259,13.5714206696,-2.89735841751,0.150568306446,-0.306007474661,0.0732852146029,22.6599998474,-612.702148438,-347.904602051,5.479091644299999,11.68495368957,-1.0781707167630001,2.3918848038,13.779391288799996,-1.096887111659998,16.0
2018-10-18 15:18:12.500,0.0472521633955,-0.0212338385029,-0.93680476049,-0.0691246762872,-0.332743942738,0.0939271003008,-0.08825985,0.5687857,18.1619158,0.0,-13.8006811142,13.6039018631,-0.930197954178,-0.0691246762872,-0.332743942738,0.0939271003008,22.6599998474,-612.702148438,-347.904602051,5.479091644299999,11.68495368957,-1.0781707167630001,2.3912410736,13.813795089699996,-0.776836991309998,16.0
2018-10-18 15:18:12.550,0.0472521633955,-0.0212338385029,-0.93680476049,-0.0691246762872,-0.332743942738,0.0939271003008,-0.08825985,0.5687857,18.1619158,0.0,-13.8006811142,13.6039018631,-0.930197954178,-0.0691246762872,-0.332743942738,0.0939271003008,22.75,-639.30645752,-346.501373291,5.479091644299999,11.83495378494,-0.648170754314,2.4100284575999993,13.841794967699997,-0.4761101007459981,16.0
2018-10-18 15:18:12.600,0.0472521633955,-0.0212338385029,-0.93680476049,-0.0691246762872,-0.332743942738,0.0939271003008,-0.08825985,0.5687857,18.1619158,0.0,-13.8006811142,13.6039018631,-0.930197954178,-0.0691246762872,-0.332743942738,0.0939271003008,22.75,-639.30645752,-346.501373291,5.479091644299999,11.83495378494,-0.648170754314,2.446113586399999,13.862547874499997,-0.25477370619799805,16.0
2018-10-18 15:18:12.650,0.00167893827134,0.00495627636239,-0.941798924131,-0.0125902350992,-0.18229919672,0.0294214300811,0.0196133,0.53936575,17.259704,0.0,-13.8006811142,13.6039018631,-0.930197954178,-0.0691246762872,-0.332743942738,0.0939271003008,22.7699985504,-639.30645752,-345.114837646,6.716228485099997,6.10028680786766,0.90957313776,2.5107755660999995,13.906878471399997,-0.11009985953599805,16.0
2018-10-18 15:18:12.700,0.00167893827134,0.00495627636239,-0.941798924131,-0.0125902350992,-0.18229919672,0.0294214300811,0.0196133,0.53936575,17.259704,0.0,-13.8006811142,13.6039018631,-0.930197954178,-0.0691246762872,-0.332743942738,0.0939271003008,22.7699985504,-639.30645752,-345.114837646,6.716228485099997,6.10028680786766,0.90957313776,2.5749931334999996,13.928936958299996,-0.02155684307219804,16.0
2018-10-18 15:18:12.750,0.00167893827134,0.00495627636239,-0.941798924131,-0.0125902350992,-0.18229919672,0.0294214300811,0.0196133,0.53936575,17.259704,0.0,-13.9430589676,13.4013280869,-0.0148117281497,-0.0125902350992,-0.18229919672,0.0294214300811,22.7699985504,-586.864074707,-343.711639404,6.716228485099997,6.51028713211766,1.499573111534,2.6149082184,13.946671485899996,-0.007586824242028041,16.0
2018-10-18 15:18:12.800,0.00167893827134,0.00495627636239,-0.941798924131,-0.0125902350992,-0.18229919672,0.0294214300811,0.0196133,0.53936575,17.259704,0.0,-13.9430589676,13.4013280869,-0.0148117281497,-0.0125902350992,-0.18229919672,0.0294214300811,22.7699985504,-586.864074707,-343.711639404,6.716228485099997,6.51028713211766,1.499573111534,2.631311416599999,13.952197074899997,0.023450387641801962,16.0
2018-10-18 15:18:12.850,0.00167893827134,0.00495627636239,-0.941798924131,-0.0125902350992,-0.18229919672,0.0294214300811,0.0196133,0.53936575,17.259704,0.0,-13.9430589676,13.4013280869,-0.0148117281497,-0.0125902350992,-0.18229919672,0.0294214300811,22.7699985504,-586.864074707,-342.299926758,6.716228485099997,6.79028686508766,1.779573082926,2.6927566528,13.937521934499996,0.27545046806300194,16.0
2018-10-18 15:18:12.900,0.00167893827134,0.00495627636239,-0.941798924131,-0.0125902350992,-0.18229919672,0.0294214300811,0.0196133,0.53936575,17.259704,0.0,-13.9430589676,13.4013280869,-0.0148117281497,-0.0125902350992,-0.18229919672,0.0294214300811,22.7699985504,-586.864074707,-342.299926758,6.716228485099997,6.79028686508766,1.779573082926,2.6927566528,13.937521934499996,0.27545046806300194,16.0
2018-10-18 15:18:12.950,0.00167893827134,0.00495627636239,-0.941798924131,-0.0125902350992,-0.18229919672,0.0294214300811,0.0196133,0.53936575,17.259704,0.0,-13.9269914627,13.2270698547,0.669765532017,-0.0125902350992,-0.18229919672,0.0294214300811,22.7399997711,-592.431274414,-340.896697998,6.716228485099997,6.79028686508766,1.779573082926,2.7729301453,13.926991462699997,0.669765532017002,16.0
2018-10-18 15:18:13.000,0.00167893827134,0.00495627636239,-0.941798924131,-0.0125902350992,-0.18229919672,0.0294214300811,0.0196133,0.53936575,17.259704,0.0,-13.9269914627,13.2270698547,0.669765532017,-0.0125902350992,-0.18229919672,0.0294214300811,22.7399997711,-592.431274414,-340.896697998,6.716228485099997,6.79028686508766,1.779573082926,2.7729301453,13.926991462699997,0.669765532017002,16.0
2018-10-18 15:18:13.050,-0.0417384610259,0.00159332681846,-0.935222521157,0.180769994855,-0.165505632758,-0.0979797616601,-0.0588399,0.588399,13.56259695,0.0,-13.9269914627,13.2270698547,0.669765532017,-0.0125902350992,-0.18229919672,0.0294214300811,22.7399997711,-592.431274414,-340.896697998,6.716228485099997,6.80028709396766,2.069573044776,2.8822002410999996,13.872656822199996,1.048890590670002,16.0
2018-10-18 15:18:13.100,-0.0417384610259,0.00159332681846,-0.935222521157,0.180769994855,-0.165505632758,-0.0979797616601,-0.0588399,0.588399,13.56259695,0.0,-13.9269914627,13.2270698547,0.669765532017,-0.0125902350992,-0.18229919672,0.0294214300811,22.6800003052,-592.431274414,-339.493469238,4.7333297728999995,2.2579979896599998,0.15421593188999982,2.9294729233000005,13.831158637999996,1.244020223620002,16.0
2018-10-18 15:18:13.150,-0.0417384610259,0.00159332681846,-0.935222521157,0.180769994855,-0.165505632758,-0.0979797616601,-0.0588399,0.588399,13.56259695,0.0,-13.9269914627,13.2270698547,0.669765532017,-0.0125902350992,-0.18229919672,0.0294214300811,22.5799999237,-567.136962891,-338.106933594,4.7333297728999995,2.167998313909999,-0.09578406811000018,2.953017234800001,13.710914611799996,1.391365528110002,16.0
2018-10-18 15:18:13.200,-0.0417384610259,0.00159332681846,-0.935222521157,0.180769994855,-0.165505632758,-0.0979797616601,-0.0588399,0.588399,13.56259695,0.0,-13.6501979828,13.0359096527,1.40648651123,0.180769994855,-0.165505632758,-0.0979797616601,22.5799999237,-567.136962891,-338.106933594,4.7333297728999995,2.167998313909999,-0.09578406811000018,2.953017234800001,13.710914611799996,1.391365528110002,16.0
2018-10-18 15:18:13.250,-0.0417384610259,0.00159332681846,-0.935222521157,0.180769994855,-0.165505632758,-0.0979797616601,-0.0588399,0.588399,13.56259695,0.0,-13.6501979828,13.0359096527,1.40648651123,0.180769994855,-0.165505632758,-0.0979797616601,22.4699993134,-567.136962891,-336.737518311,4.7333297728999995,2.2079982757599996,-0.50578403473,2.974970817599999,13.617406845099996,1.427297115330002,16.0
2018-10-18 15:18:13.300,-0.0417384610259,0.00159332681846,-0.935222521157,0.180769994855,-0.165505632758,-0.0979797616601,-0.0588399,0.588399,13.56259695,0.0,-13.6501979828,13.0359096527,1.40648651123,0.180769994855,-0.165505632758,-0.0979797616601,22.4699993134,-567.136962891,-336.737518311,4.7333297728999995,2.2179980277999993,-0.50578403473,3.0356903075999995,13.440773963899996,1.781634211540002,16.0
2018-10-18 15:18:13.350,-0.0417384610259,0.00159332681846,-0.935222521157,0.180769994855,-0.165505632758,-0.0979797616601,-0.0588399,0.588399,13.56259695,0.0,-13.6501979828,13.0359096527,1.40648651123,0.180769994855,-0.165505632758,-0.0979797616601,22.4699993134,-567.136962891,-336.737518311,4.7333297728999995,2.2179980277999993,-0.9957840442630002,3.0356903075999995,13.440773963899996,1.781634211540002,16.0
2018-10-18 15:18:13.400,-0.0778458861492,-0.00862921301522,-0.932323981733,-0.170519769192,-0.184043034911,0.0842550173402,0.26477955,0.50013915,14.93552795,0.0,-13.6501979828,13.0359096527,1.40648651123,0.180769994855,-0.165505632758,-0.0979797616601,22.3299999237,-540.53918457,-335.384887695,4.7333297728999995,1.9479980468799996,-0.9957840442630002,3.0577592849999995,13.360820770299997,1.955964803700002,16.0
2018-10-18 15:18:13.450,-0.0778458861492,-0.00862921301522,-0.932323981733,-0.170519769192,-0.184043034911,0.0842550173402,0.26477955,0.50013915,14.93552795,0.0,-13.1964817047,12.8511257172,2.38468146324,-0.170519769192,-0.184043034911,0.0842550173402,22.1599998474,-540.53918457,-334.066192627,4.232322692899999,-2.0135865211499997,-3.9446864873220004,3.1793231964000004,13.161091804499996,2.486246824260002,16.0
2018-10-18 15:18:13.500,-0.0778458861492,-0.00862921301522,-0.932323981733,-0.170519769192,-0.184043034911,0.0842550173402,0.26477955,0.50013915,14.93552795,0.0,-13.1964817047,12.8511257172,2.38468146324,-0.170519769192,-0.184043034911,0.0842550173402,22.1599998474,-540.53918457,-334.066192627,4.232322692899999,-2.0135865211499997,-3.9446864873220004,3.1793231964000004,13.161091804499996,2.486246824260002,16.0
2018-10-18 15:18:13.550,-0.0778458861492,-0.00862921301522,-0.932323981733,-0.170519769192,-0.184043034911,0.0842550173402,0.26477955,0.50013915,14.93552795,0.0,-13.1964817047,12.8511257172,2.38468146324,-0.170519769192,-0.184043034911,0.0842550173402,21.9300003052,-501.091369629,-332.772888184,4.232322692899999,-2.7035865783699995,-4.1846864894080005,3.3321018219000003,12.886740684499996,3.167590379710002,16.0
2018-10-18 15:18:13.600,-0.0778458861492,-0.00862921301522,-0.932323981733,-0.170519769192,-0.184043034911,0.0842550173402,0.26477955,0.50013915,14.93552795,0.0,-13.1964817047,12.8511257172,2.38468146324,-0.170519769192,-0.184043034911,0.0842550173402,21.9300003052,-501.091369629,-332.772888184,4.232322692899999,-2.7035865783699995,-4.1846864894080005,3.3321018219000003,12.886740684499996,3.167590379710002,16.0
2018-10-18 15:18:13.650,-0.0778458861492,-0.00862921301522,-0.932323981733,-0.170519769192,-0.184043034911,0.0842550173402,0.26477955,0.50013915,14.93552795,0.0,-13.1964817047,12.8511257172,2.38468146324,-0.170519769192,-0.184043034911,0.0842550173402,21.9300003052,-501.091369629,-332.772888184,4.232322692899999,-2.7035865783699995,-4.1846864894080005,3.3321018219000003,12.886740684499996,3.167590379710002,16.0
2018-10-18 15:18:13.700,-0.0778458861492,-0.00862921301522,-0.932323981733,-0.170519769192,-0.184043034911,0.0842550173402,0.26477955,0.50013915,14.93552795,0.0,-13.1964817047,12.8511257172,2.38468146324,-0.170519769192,-0.184043034911,0.0842550173402,21.6399993896,-501.091369629,-331.504821777,4.232322692899999,-3.4635868072499996,-4.604686468844,3.5046625136999996,12.584642410299997,3.6365187168100017,16.0
2018-10-18 15:18:13.750,-0.0778458861492,-0.00862921301522,-0.932323981733,-0.170519769192,-0.184043034911,0.0842550173402,0.26477955,0.50013915,14.93552795,0.0,-12.5419082642,12.4816102982,3.66118693352,-0.170519769192,-0.184043034911,0.0842550173402,21.3099994659,-459.405517578,-330.25378418,4.232322692899999,-4.18358659744,-4.9746864438100005,3.5375576018999997,12.504061698899996,3.675193309780002,16.0
2018-10-18 15:18:13.800,-0.0778458861492,-0.00862921301522,-0.932323981733,-0.170519769192,-0.184043034911,0.0842550173402,0.26477955,0.50013915,14.93552795,0.0,-12.5419082642,12.4816102982,3.66118693352,-0.170519769192,-0.184043034911,0.0842550173402,21.3099994659,-459.405517578,-330.25378418,4.232322692899999,-4.18358659744,-4.9746864438100005,3.5375576018999997,12.504061698899996,3.675193309780002,16.0
2018-10-18 15:18:13.850,-0.0966476130536,-0.00480569655976,-0.93343623341,-0.0718813017011,-0.0206441953778,0.0523480139673,0.10787315,0.3726527,10.6107953,0.0,-12.5419082642,12.4816102982,3.66118693352,-0.170519769192,-0.184043034911,0.0842550173402,21.3099994659,-459.405517578,-330.25378418,4.988819122300001,-6.391386508919999,-5.2739246487600004,3.6254167557,12.386952400199997,3.6509115696000016,16.0
2018-10-18 15:18:13.900,-0.0966476130536,-0.00480569655976,-0.93343623341,-0.0718813017011,-0.0206441953778,0.0523480139673,0.10787315,0.3726527,10.6107953,0.0,-12.2663927078,12.2872266769,3.60156607628,-0.0718813017011,-0.0206441953778,0.0523480139673,20.9699993134,-459.405517578,-329.036315918,4.988819122300001,-6.981386423089999,-5.44392466545,3.7127733231000004,12.266392707799996,3.601566076280002,16.0
2018-10-18 15:18:13.950,-0.0966476130536,-0.00480569655976,-0.93343623341,-0.0718813017011,-0.0206441953778,0.0523480139673,0.10787315,0.3726527,10.6107953,0.0,-12.2663927078,12.2872266769,3.60156607628,-0.0718813017011,-0.0206441953778,0.0523480139673,20.6399993896,-418.834106445,-327.819091797,4.988819122300001,-7.50138640402,-5.52392470837,3.7559480667000003,12.226284027099997,3.5389268398300016,16.0
2018-10-18 15:18:14.000,-0.0966476130536,-0.00480569655976,-0.93343623341,-0.0718813017011,-0.0206441953778,0.0523480139673,0.10787315,0.3726527,10.6107953,0.0,-12.2663927078,12.2872266769,3.60156607628,-0.0718813017011,-0.0206441953778,0.0523480139673,20.6399993896,-418.834106445,-327.819091797,4.988819122300001,-7.50138640402,-5.52392470837,3.7559480667000003,12.226284027099997,3.5389268398300016,16.0
2018-10-18 15:18:14.050,-0.0966476130536,-0.00480569655976,-0.93343623341,-0.0718813017011,-0.0206441953778,0.0523480139673,0.10787315,0.3726527,10.6107953,0.0,-12.2663927078,12.2872266769,3.60156607628,-0.0718813017011,-0.0206441953778,0.0523480139673,20.3299999237,-418.834106445,-326.618652344,4.988819122300001,-7.50138640402,-5.52392470837,3.8349895476999993,12.129768371599997,3.384730100630002,16.0
2018-10-18 15:18:14.100,-0.0966476130536,-0.00480569655976,-0.93343623341,-0.0718813017011,-0.0206441953778,0.0523480139673,0.10787315,0.3726527,10.6107953,0.0,-12.2663927078,12.2872266769,3.60156607628,-0.0718813017011,-0.0206441953778,0.0523480139673,20.3299999237,-418.834106445,-326.618652344,4.988819122300001,-7.931386470769999,-5.60392463207,3.8864250183000006,12.056487083399997,3.2720386982000016,16.0
2018-10-18 15:18:14.150,-0.0966476130536,-0.00480569655976,-0.93343623341,-0.0718813017011,-0.0206441953778,0.0523480139673,0.10787315,0.3726527,10.6107953,0.0,-12.025393486,12.0728330612,3.1700129509,-0.0718813017011,-0.0206441953778,0.0523480139673,20.3299999237,-418.834106445,-326.618652344,4.988819122300001,-7.931386470769999,-5.60392463207,3.9271669387999992,12.025393485999997,3.1700129509000017,16.0
2018-10-18 15:18:14.200,-0.0827131281848,0.011741049585,-0.933511603397,-0.0795100927353,0.0518954768777,-0.0208702199161,-0.02941995,0.3530394,8.63965865,0.0,-12.025393486,12.0728330612,3.1700129509,-0.0718813017011,-0.0206441953778,0.0523480139673,20.0399990082,-389.390930176,-325.42678833,4.988819122300001,-8.29138648508,-5.6539247036,4.0100460051999995,11.928374290499997,3.077280521390002,16.0
2018-10-18 15:18:14.250,-0.0827131281848,0.011741049585,-0.933511603397,-0.0795100927353,0.0518954768777,-0.0208702199161,-0.02941995,0.3530394,8.63965865,0.0,-12.025393486,12.0728330612,3.1700129509,-0.0718813017011,-0.0206441953778,0.0523480139673,20.0399990082,-389.390930176,-325.42678833,4.988819122300001,-8.29138648508,-5.6539247036,4.0100460051999995,11.928374290499997,3.077280521390002,16.0
2018-10-18 15:18:14.300,-0.0827131281848,0.011741049585,-0.933511603397,-0.0795100927353,0.0518954768777,-0.0208702199161,-0.02941995,0.3530394,8.63965865,0.0,-12.025393486,12.0728330612,3.1700129509,-0.0718813017011,-0.0206441953778,0.0523480139673,19.7700004578,-389.390930176,-324.234802246,4.867359161400003,-7.8787150383,-3.4069788456,4.103598594699999,11.814027786299997,3.0938830375700017,16.0
2018-10-18 15:18:14.350,-0.0827131281848,0.011741049585,-0.933511603397,-0.0795100927353,0.0518954768777,-0.0208702199161,-0.02941995,0.3530394,8.63965865,0.0,-12.025393486,12.0728330612,3.1700129509,-0.0718813017011,-0.0206441953778,0.0523480139673,19.7700004578,-389.390930176,-324.234802246,4.867359161400003,-7.8787150383,-3.4069788456,4.1442461014,11.757935523999997,3.1139597892800017,16.0
