%time,field.orientation.x,field.orientation.y,field.orientation.z,field.angular_velocity.x,field.angular_velocity.y,field.angular_velocity.z,field.linear_acceleration.x,field.linear_acceleration.y,field.linear_acceleration.z,field.data,field.twist.linear.x,field.twist.linear.y,field.twist.linear.z,field.twist.angular.x,field.twist.angular.y,field.twist.angular.z,field.alt_error,field.aspd_error,field.xtrack_error,delta_yaw,delta_pitch,delta_roll,delta_x,delta_y,delta_z,delta_roll_airspeed
2018-07-21 00:33:19.050,,,,,,,,,,0.0,,,,,,,1.88999998569,-380.627807617,-25.9928817749,188.6265792847,8.15242528915,17.0509052277,12.19371914864,19.009527206399998,-2.6697134971599983,-3.8062782288
2018-07-21 00:33:19.100,,,,,,,,,,0.0,,,,,,,2.15999984741,-395.600128174,-158.936355591,48.6265792847,9.85242557525,16.110902786300002,11.88126802444,18.938196182299997,-2.675265550609998,-2.9560012817000008
2018-07-21 00:33:19.150,,,,,,,,,,0.0,-18.9870471954,3.91162085533,-2.67456936836,0.50664126873,-0.157164394855,-0.0957087129354,2.15999984741,-395.600128174,-158.936355591,48.6265792847,9.85242557525,16.110902786300002,11.88126802444,18.938196182299997,-2.675265550609998,-2.9560012817000008
2018-07-21 00:33:19.200,,,,,,,,,,0.0,-18.9870471954,3.91162085533,-2.67456936836,0.50664126873,-0.157164394855,-0.0957087129354,2.40999984741,-306.770141602,-157.059753418,48.6265792847,9.88242530822,16.110902786300002,11.53179502487,18.853036880499996,-2.6679999828299983,-3.067701339700001
2018-07-21 00:33:19.250,,,,,,,,,,0.0,-18.9870471954,3.91162085533,-2.67456936836,0.50664126873,-0.157164394855,-0.0957087129354,2.40999984741,-306.770141602,-157.059753418,48.6265792847,8.91242551803,14.780904769900005,11.137558460240001,18.755382537799996,-2.6349787712099983,-3.067701339700001
2018-07-21 00:33:19.300,,,,,,,,,,0.0,-18.9870471954,3.91162085533,-2.67456936836,0.50664126873,-0.157164394855,-0.0957087129354,2.64999985695,-338.676086426,-155.191543579,48.6265792847,7.99242544174,13.040903091499999,10.694038867949999,18.646139144899998,-2.5251846313499984,-3.386760711699999
2018-07-21 00:33:19.350,0.00598496221194,-0.309729626821,-0.950032571288,0.190729230642,-0.257472842932,-0.295109540224,-1.4513842,1.24544455,11.36590735,0.0,-18.5671272278,5.59101057053,-2.46036863327,0.190729230642,-0.257472842932,-0.295109540224,2.64999985695,-338.676086426,-155.191543579,42.03304290769999,6.63270163536,4.785697937099997,10.408989429470001,18.567127227799997,-2.460368633269998,-3.386760711699999
2018-07-21 00:33:19.400,0.00598496221194,-0.309729626821,-0.950032571288,0.190729230642,-0.257472842932,-0.295109540224,-1.4513842,1.24544455,11.36590735,0.0,-18.5671272278,5.59101057053,-2.46036863327,0.190729230642,-0.257472842932,-0.295109540224,2.8599998951,-362.505340576,-153.357208252,42.03304290769999,5.68270158768,2.7856979370999966,9.8395242691,18.389951705899996,-2.342837810519998,-3.6250534057999992
2018-07-21 00:33:19.450,0.00598496221194,-0.309729626821,-0.950032571288,0.190729230642,-0.257472842932,-0.295109540224,-1.4513842,1.24544455,11.36590735,0.0,-18.5671272278,5.59101057053,-2.46036863327,0.190729230642,-0.257472842932,-0.295109540224,2.8599998951,-362.505340576,-153.357208252,42.03304290769999,5.68270158768,2.7856979370999966,9.58437299728,18.298160552999995,-2.3159174919099983,-3.6250534057999992
2018-07-21 00:33:19.500,0.00598496221194,-0.309729626821,-0.950032571288,0.190729230642,-0.257472842932,-0.295109540224,-1.4513842,1.24544455,11.36590735,0.0,-18.5671272278,5.59101057053,-2.46036863327,0.190729230642,-0.257472842932,-0.295109540224,3.03999996185,-384.57623291,-151.548248291,42.03304290769999,4.7627017498,0.745700836200001,9.322157382970001,18.205183029199997,-2.269797801969998,-3.8457622528
2018-07-21 00:33:19.550,0.00598496221194,-0.309729626821,-0.950032571288,0.190729230642,-0.257472842932,-0.295109540224,-1.4513842,1.24544455,11.36590735,0.0,-18.0657196045,7.04911422729,-2.22123456001,0.190729230642,-0.257472842932,-0.295109540224,3.03999996185,-384.57623291,-151.548248291,42.03304290769999,4.7627017498,0.745700836200001,9.07274627686,18.112419128399996,-2.2327902316999984,-3.8457622528
2018-07-21 00:33:19.600,0.00598496221194,-0.309729626821,-0.950032571288,0.190729230642,-0.257472842932,-0.295109540224,-1.4513842,1.24544455,11.36590735,0.0,-18.0657196045,7.04911422729,-2.22123456001,0.190729230642,-0.257472842932,-0.295109540224,3.22000002861,-393.042938232,-149.747711182,42.03304290769999,3.89270174503,-1.3442993164000043,8.71126747131,17.967304229699998,-2.1919388771099984,-3.930429458599999
2018-07-21 00:33:19.650,0.00598496221194,-0.309729626821,-0.950032571288,0.190729230642,-0.257472842932,-0.295109540224,-1.4513842,1.24544455,11.36590735,0.0,-18.0657196045,7.04911422729,-2.22123456001,0.190729230642,-0.257472842932,-0.295109540224,3.22000002861,-393.042938232,-149.747711182,42.03304290769999,3.89270174503,-1.3442993164000043,8.71126747131,17.967304229699998,-2.1919388771099984,-3.930429458599999
2018-07-21 00:33:19.700,-0.0121354392466,-0.307518199224,-0.943862720037,-0.025430649519,-0.176751643419,-0.433860391378,-1.50041745,1.10815145,11.5130071,0.0,-18.0657196045,7.04911422729,-2.22123456001,0.190729230642,-0.257472842932,-0.295109540224,3.37999987602,-415.476226807,-147.972549438,42.03304290769999,3.97270166874,-3.6642990112000007,8.03847026825,17.724630355799995,-2.0772590637199984,-4.154762268100001
2018-07-21 00:33:19.750,-0.0121354392466,-0.307518199224,-0.943862720037,-0.025430649519,-0.176751643419,-0.433860391378,-1.50041745,1.10815145,11.5130071,0.0,-18.0657196045,7.04911422729,-2.22123456001,0.190729230642,-0.257472842932,-0.295109540224,3.37999987602,-415.476226807,-147.972549438,32.446022033700004,4.8686286211,-3.3751564025999983,7.78992843628,17.629959106399998,-2.0919725894899983,-4.154762268100001
2018-07-21 00:33:19.800,-0.0121354392466,-0.307518199224,-0.943862720037,-0.025430649519,-0.176751643419,-0.433860391378,-1.50041745,1.10815145,11.5130071,0.0,-17.4368591309,8.70792961121,-2.13246703148,-0.025430649519,-0.176751643419,-0.433860391378,3.37999987602,-415.476226807,-147.972549438,32.446022033700004,4.8686286211,-3.3751564025999983,7.537719726560001,17.533399581899996,-2.1101636886599984,-4.0911960602000015
2018-07-21 00:33:19.850,-0.0121354392466,-0.307518199224,-0.943862720037,-0.025430649519,-0.176751643419,-0.433860391378,-1.50041745,1.10815145,11.5130071,0.0,-17.4368591309,8.70792961121,-2.13246703148,-0.025430649519,-0.176751643419,-0.433860391378,3.37999987602,-415.476226807,-147.972549438,32.446022033700004,4.8686286211,-3.3751564025999983,7.537719726560001,17.533399581899996,-2.1101636886599984,-4.0911960602000015
2018-07-21 00:33:19.900,-0.0121354392466,-0.307518199224,-0.943862720037,-0.025430649519,-0.176751643419,-0.433860391378,-1.50041745,1.10815145,11.5130071,0.0,-17.4368591309,8.70792961121,-2.13246703148,-0.025430649519,-0.176751643419,-0.433860391378,3.67999982834,-398.491088867,-144.489837646,32.446022033700004,4.96862864495,-5.7151565551999965,6.8941841125500005,17.285888671899997,-2.1294269561799983,-3.984910965000001
2018-07-21 00:33:19.950,-0.0121354392466,-0.307518199224,-0.943862720037,-0.025430649519,-0.176751643419,-0.433860391378,-1.50041745,1.10815145,11.5130071,0.0,-17.4368591309,8.70792961121,-2.13246703148,-0.025430649519,-0.176751643419,-0.433860391378,3.67999982834,-398.491088867,-144.489837646,32.446022033700004,5.03862857819,-8.215156555199997,6.4627132415799995,17.134260177599998,-2.0743100643199983,-3.984910965000001
2018-07-21 00:33:20.000,-0.0121354392466,-0.307518199224,-0.943862720037,-0.025430649519,-0.176751643419,-0.433860391378,-1.50041745,1.10815145,11.5130071,0.0,-17.4368591309,8.70792961121,-2.13246703148,-0.025430649519,-0.176751643419,-0.433860391378,3.82999992371,-403.169067383,-142.773788452,32.446022033700004,6.83862853051,-11.195156097399998,5.9932575226,16.970958709699996,-1.971320629119998,-4.031690597499999
2018-07-21 00:33:20.050,-0.0121354392466,-0.307518199224,-0.943862720037,-0.025430649519,-0.176751643419,-0.433860391378,-1.50041745,1.10815145,11.5130071,0.0,-16.8593826294,10.3142223358,-1.91429722309,-0.025430649519,-0.176751643419,-0.433860391378,3.82999992371,-403.169067383,-142.773788452,32.446022033700004,6.84862852097,-11.195156097399998,5.6857776642,16.859382629399995,-1.914297223089998,-4.031690597499999
2018-07-21 00:33:20.100,-0.0375152948285,-0.313279614597,-0.92857144917,0.164964646101,-0.235052704811,-0.168130770326,-0.5295591,-0.0588399,13.5724036,0.0,-16.8593826294,10.3142223358,-1.91429722309,-0.025430649519,-0.176751643419,-0.433860391378,3.97000002861,-413.37109375,-141.09161377,32.446022033700004,6.85862851143,-11.185155868599999,5.3788795471,16.737438201899998,-1.866035103799998,-4.133710861200001
2018-07-21 00:33:20.150,-0.0375152948285,-0.313279614597,-0.92857144917,0.164964646101,-0.235052704811,-0.168130770326,-0.5295591,-0.0588399,13.5724036,0.0,-16.8593826294,10.3142223358,-1.91429722309,-0.025430649519,-0.176751643419,-0.433860391378,3.97000002861,-413.37109375,-141.09161377,23.229713439899996,8.80629730224,-15.387002944900004,4.9480953217,16.551082611099996,-1.832589387889998,-4.133710861200001
2018-07-21 00:33:20.200,-0.0375152948285,-0.313279614597,-0.92857144917,0.164964646101,-0.235052704811,-0.168130770326,-0.5295591,-0.0588399,13.5724036,0.0,-16.8593826294,10.3142223358,-1.91429722309,-0.025430649519,-0.176751643419,-0.433860391378,3.97000002861,-413.37109375,-141.09161377,23.229713439899996,8.81629753112,-15.377002716000003,4.6469869614,16.412960052499997,-1.821124792099998,-4.133710861200001
2018-07-21 00:33:20.250,-0.0375152948285,-0.313279614597,-0.92857144917,0.164964646101,-0.235052704811,-0.168130770326,-0.5295591,-0.0588399,13.5724036,0.0,-16.8593826294,10.3142223358,-1.91429722309,-0.025430649519,-0.176751643419,-0.433860391378,4.09999990463,-409.038543701,-139.443222046,23.229713439899996,10.64629745483,-18.807003021200003,4.0916929245,16.126579284699996,-1.794180631639998,-4.090385436999998
2018-07-21 00:33:20.300,-0.0375152948285,-0.313279614597,-0.92857144917,0.164964646101,-0.235052704811,-0.168130770326,-0.5295591,-0.0588399,13.5724036,0.0,-15.9760417938,12.1736412048,-1.79962611198,0.164964646101,-0.235052704811,-0.168130770326,4.09999990463,-409.038543701,-139.443222046,23.229713439899996,10.65629720687,-18.807003021200003,3.962849617,16.056058883699997,-1.811729073519998,-4.090385436999998
2018-07-21 00:33:20.350,-0.0375152948285,-0.313279614597,-0.92857144917,0.164964646101,-0.235052704811,-0.168130770326,-0.5295591,-0.0588399,13.5724036,0.0,-15.9760417938,12.1736412048,-1.79962611198,0.164964646101,-0.235052704811,-0.168130770326,4.23999977112,-404.301635742,-137.845565796,23.229713439899996,12.41629695892,-22.327002525300003,3.5672187804999993,15.820146560699996,-1.786914825439998,-4.0430164337
2018-07-21 00:33:20.400,-0.0375152948285,-0.313279614597,-0.92857144917,0.164964646101,-0.235052704811,-0.168130770326,-0.5295591,-0.0588399,13.5724036,0.0,-15.9760417938,12.1736412048,-1.79962611198,0.164964646101,-0.235052704811,-0.168130770326,4.23999977112,-404.301635742,-137.845565796,23.229713439899996,12.40629768371,-22.327002525300003,3.3032989502000003,15.640927314799997,-1.734923124309998,-4.010419845600001
2018-07-21 00:33:20.450,-0.0375152948285,-0.313279614597,-0.92857144917,0.164964646101,-0.235052704811,-0.168130770326,-0.5295591,-0.0588399,13.5724036,0.0,-15.9760417938,12.1736412048,-1.79962611198,0.164964646101,-0.235052704811,-0.168130770326,4.36999988556,-401.041992188,-136.264846802,23.229713439899996,12.09629726409,-26.087001800500005,3.3032989502000003,15.640927314799997,-1.734923124309998,-4.010419845600001
2018-07-21 00:33:20.500,-0.0802712119257,-0.284785428941,-0.928107367388,-0.54113137722,-0.312828600407,-0.0618214309216,-1.1179581,0.8433719,13.0428445,0.0,-15.9760417938,12.1736412048,-1.79962611198,0.164964646101,-0.235052704811,-0.168130770326,4.5,-399.506378174,-134.73475647,23.229713439899996,12.06629753112,-26.087001800500005,2.7028217316000003,15.196924209599997,-1.620185852049998,-4.010419845600001
2018-07-21 00:33:20.550,-0.0802712119257,-0.284785428941,-0.928107367388,-0.54113137722,-0.312828600407,-0.0618214309216,-1.1179581,0.8433719,13.0428445,0.0,-14.9358930588,13.6195497513,-1.52037346363,-0.54113137722,-0.312828600407,-0.0618214309216,4.5,-399.506378174,-134.73475647,18.270500183099998,7.577702999120001,-27.573667526290002,2.2775526047000003,14.843205451999996,-1.473353981969998,-3.9950637817000008
2018-07-21 00:33:20.600,-0.0802712119257,-0.284785428941,-0.928107367388,-0.54113137722,-0.312828600407,-0.0618214309216,-1.1179581,0.8433719,13.0428445,0.0,-14.9358930588,13.6195497513,-1.52037346363,-0.54113137722,-0.312828600407,-0.0618214309216,4.5,-399.506378174,-134.73475647,18.270500183099998,7.577702999120001,-27.573667526290002,2.2775526047000003,14.843205451999996,-1.473353981969998,-3.9950637817000008
2018-07-21 00:33:20.650,-0.0802712119257,-0.284785428941,-0.928107367388,-0.54113137722,-0.312828600407,-0.0618214309216,-1.1179581,0.8433719,13.0428445,0.0,-14.9358930588,13.6195497513,-1.52037346363,-0.54113137722,-0.312828600407,-0.0618214309216,4.61999988556,-397.166625977,-133.246994019,18.270500183099998,7.36770296097,-31.083667516760002,1.8355617523000003,14.409161567699996,-1.194390177729998,-3.9716663361
2018-07-21 00:33:20.700,-0.0802712119257,-0.284785428941,-0.928107367388,-0.54113137722,-0.312828600407,-0.0618214309216,-1.1179581,0.8433719,13.0428445,0.0,-14.9358930588,13.6195497513,-1.52037346363,-0.54113137722,-0.312828600407,-0.0618214309216,4.71000003815,-399.604614258,-131.801467896,18.270500183099998,7.23770284653,-34.223667457749,1.6751718521,14.245166778599996,-1.084187865259998,-3.9960460663
2018-07-21 00:33:20.750,-0.0802712119257,-0.284785428941,-0.928107367388,-0.54113137722,-0.312828600407,-0.0618214309216,-1.1179581,0.8433719,13.0428445,0.0,-14.0072860718,14.5222377777,-0.914005994797,-0.54113137722,-0.312828600407,-0.0618214309216,4.71000003815,-399.604614258,-131.801467896,18.270500183099998,7.207703113560001,-34.223667457749,1.4777622223000009,14.007286071799996,-0.914005994796998,-3.9960460663
2018-07-21 00:33:20.800,-0.0802712119257,-0.284785428941,-0.928107367388,-0.54113137722,-0.312828600407,-0.0618214309216,-1.1179581,0.8433719,13.0428445,0.0,-14.0072860718,14.5222377777,-0.914005994797,-0.54113137722,-0.312828600407,-0.0618214309216,4.71000003815,-399.604614258,-131.801467896,18.270500183099998,7.207703113560001,-34.223667457749,1.3711376190000006,13.861252784699996,-0.825417637824998,-3.8767986297999997
2018-07-21 00:33:20.850,-0.0706323046279,-0.172708794423,-0.941680283371,-0.709037601948,-0.0697918459773,-0.352801501751,-0.97085835,0.4118793,12.48386545,0.0,-14.0072860718,14.5222377777,-0.914005994797,-0.54113137722,-0.312828600407,-0.0618214309216,4.75999975204,-387.679870605,-130.406692505,18.270500183099998,7.13770341873,-36.85366749768,1.2769203186000002,13.717622756999996,-0.728823244571998,-3.8767986297999997
2018-07-21 00:33:20.900,-0.0706323046279,-0.172708794423,-0.941680283371,-0.709037601948,-0.0697918459773,-0.352801501751,-0.97085835,0.4118793,12.48386545,0.0,-14.0072860718,14.5222377777,-0.914005994797,-0.54113137722,-0.312828600407,-0.0618214309216,4.77999973297,-377.982910156,-129.062561035,12.483779907200002,6.19992232323,-23.86206746098,1.1826677322000005,13.582385063199997,-0.648299098014998,-3.7798290252999998
2018-07-21 00:33:20.950,-0.0706323046279,-0.172708794423,-0.941680283371,-0.709037601948,-0.0697918459773,-0.352801501751,-0.97085835,0.4118793,12.48386545,0.0,-14.0072860718,14.5222377777,-0.914005994797,-0.54113137722,-0.312828600407,-0.0618214309216,4.77999973297,-377.982910156,-129.062561035,12.483779907200002,6.019922018060001,-26.03206729886,1.1826677322000005,13.582385063199997,-0.648299098014998,-3.7798290252999998
2018-07-21 00:33:21.000,-0.0706323046279,-0.172708794423,-0.941680283371,-0.709037601948,-0.0697918459773,-0.352801501751,-0.97085835,0.4118793,12.48386545,0.0,-13.1392774582,15.0213289261,-0.451051086187,-0.709037601948,-0.0697918459773,-0.352801501751,4.77999973297,-377.982910156,-129.062561035,12.483779907200002,6.00992274285,-26.03206729886,1.0196695328,13.259334564199996,-0.48474836349499806,-3.7798290252999998
2018-07-21 00:33:21.050,-0.0706323046279,-0.172708794423,-0.941680283371,-0.709037601948,-0.0697918459773,-0.352801501751,-0.97085835,0.4118793,12.48386545,0.0,-13.1392774582,15.0213289261,-0.451051086187,-0.709037601948,-0.0697918459773,-0.352801501751,4.77999973297,-363.523864746,-127.735420227,12.483779907200002,5.92992281914,-27.802067279790002,0.9582033157000005,13.081266403199997,-0.4344158470629981,-3.6352386474999996
2018-07-21 00:33:21.100,-0.0706323046279,-0.172708794423,-0.941680283371,-0.709037601948,-0.0697918459773,-0.352801501751,-0.97085835,0.4118793,12.48386545,0.0,-13.1392774582,15.0213289261,-0.451051086187,-0.709037601948,-0.0697918459773,-0.352801501751,4.76999998093,-346.858398438,-126.442085266,12.483779907200002,5.69992232323,-29.27206706998,0.9582033157000005,13.081266403199997,-0.4344158470629981,-3.6352386474999996
2018-07-21 00:33:21.150,-0.0706323046279,-0.172708794423,-0.941680283371,-0.709037601948,-0.0697918459773,-0.352801501751,-0.97085835,0.4118793,12.48386545,0.0,-13.1392774582,15.0213289261,-0.451051086187,-0.709037601948,-0.0697918459773,-0.352801501751,4.76999998093,-346.858398438,-126.442085266,12.483779907200002,5.69992232323,-29.27206706998,0.8372049332000007,12.794736862199997,-0.40186989307399806,-3.4685840606999996
2018-07-21 00:33:21.200,-0.0706323046279,-0.172708794423,-0.941680283371,-0.709037601948,-0.0697918459773,-0.352801501751,-0.97085835,0.4118793,12.48386545,0.0,-13.1392774582,15.0213289261,-0.451051086187,-0.709037601948,-0.0697918459773,-0.352801501751,4.73999977112,-316.407958984,-125.174072266,12.483779907200002,5.589922189719999,-30.67206764218,0.7866735457999994,12.573361396799996,-0.29375398158999805,-3.164079666100001
2018-07-21 00:33:21.250,-0.0706323046279,-0.172708794423,-0.941680283371,-0.709037601948,-0.0697918459773,-0.352801501751,-0.97085835,0.4118793,12.48386545,0.0,-12.4643535614,15.2359733582,-0.221185177565,-0.709037601948,-0.0697918459773,-0.352801501751,4.73999977112,-316.407958984,-125.174072266,12.483779907200002,5.57992243767,-30.6620674133,0.7640266417999992,12.464353561399996,-0.22118517756499803,-3.164079666100001
2018-07-21 00:33:21.300,-0.0706323046279,-0.172708794423,-0.941680283371,-0.709037601948,-0.0697918459773,-0.352801501751,-0.97085835,0.4118793,12.48386545,0.0,-12.4643535614,15.2359733582,-0.221185177565,-0.709037601948,-0.0697918459773,-0.352801501751,4.71000003815,-295.531463623,-123.939926147,12.483779907200002,5.2399222850800005,-31.822067260700003,0.7237348557000001,12.298455238299997,-0.11651938408599805,-2.9553146362000007
2018-07-21 00:33:21.350,-0.051124115696,-0.0697457239344,-0.931915747791,-0.344087034464,-0.127253368497,-0.0665211752057,-1.01008495,0.1372931,11.5522337,0.0,-12.4643535614,15.2359733582,-0.221185177565,-0.709037601948,-0.0697918459773,-0.352801501751,4.71000003815,-295.531463623,-123.939926147,4.370784759499998,4.674524068829999,-19.97606182097,0.7237348557000001,12.298455238299997,-0.11651938408599805,-2.9553146362000007
2018-07-21 00:33:21.400,-0.051124115696,-0.0697457239344,-0.931915747791,-0.344087034464,-0.127253368497,-0.0665211752057,-1.01008495,0.1372931,11.5522337,0.0,-12.4643535614,15.2359733582,-0.221185177565,-0.709037601948,-0.0697918459773,-0.352801501751,4.71000003815,-295.531463623,-123.939926147,4.370784759499998,4.674524068829999,-19.97606182097,0.7090454101999999,12.190185546899997,-0.0033701043575980407,-2.9553146362000007
2018-07-21 00:33:21.450,-0.051124115696,-0.0697457239344,-0.931915747791,-0.344087034464,-0.127253368497,-0.0665211752057,-1.01008495,0.1372931,11.5522337,0.0,-11.9055919647,15.2716283798,0.335860192776,-0.344087034464,-0.127253368497,-0.0665211752057,4.65999984741,-290.01864624,-122.722557068,4.370784759499998,4.4345242977199995,-21.05606174467,0.7227935790999993,11.952116966199997,0.28785327076900197,-2.9001865387000016
2018-07-21 00:33:21.500,-0.051124115696,-0.0697457239344,-0.931915747791,-0.344087034464,-0.127253368497,-0.0665211752057,-1.01008495,0.1372931,11.5522337,0.0,-11.9055919647,15.2716283798,0.335860192776,-0.344087034464,-0.127253368497,-0.0665211752057,4.65999984741,-290.01864624,-122.722557068,4.370784759499998,4.4345242977199995,-21.05606174467,0.7227935790999993,11.952116966199997,0.28785327076900197,-2.9001865387000016
2018-07-21 00:33:21.550,-0.051124115696,-0.0697457239344,-0.931915747791,-0.344087034464,-0.127253368497,-0.0665211752057,-1.01008495,0.1372931,11.5522337,0.0,-11.9055919647,15.2716283798,0.335860192776,-0.344087034464,-0.127253368497,-0.0665211752057,4.57999992371,-274.238952637,-121.539115906,4.370784759499998,4.09452414513,-21.81606197357,0.7918291092,11.770531654399996,0.48641529679300194,-2.7423896789999986
2018-07-21 00:33:21.600,-0.051124115696,-0.0697457239344,-0.931915747791,-0.344087034464,-0.127253368497,-0.0665211752057,-1.01008495,0.1372931,11.5522337,0.0,-11.9055919647,15.2716283798,0.335860192776,-0.344087034464,-0.127253368497,-0.0665211752057,4.48000001907,-267.86328125,-120.372566223,4.370784759499998,3.7945244312299997,-22.10606193547,0.7918291092,11.770531654399996,0.48641529679300194,-2.7423896789999986
2018-07-21 00:33:21.650,-0.051124115696,-0.0697457239344,-0.931915747791,-0.344087034464,-0.127253368497,-0.0665211752057,-1.01008495,0.1372931,11.5522337,0.0,-11.9055919647,15.2716283798,0.335860192776,-0.344087034464,-0.127253368497,-0.0665211752057,4.48000001907,-267.86328125,-120.372566223,4.370784759499998,3.7945244312299997,-22.10606193547,0.8938903809000003,11.658486366299996,0.606535553932002,-2.678632736200001
2018-07-21 00:33:21.700,-0.051124115696,-0.0697457239344,-0.931915747791,-0.344087034464,-0.127253368497,-0.0665211752057,-1.01008495,0.1372931,11.5522337,0.0,-11.9055919647,15.2716283798,0.335860192776,-0.344087034464,-0.127253368497,-0.0665211752057,4.48000001907,-267.86328125,-120.372566223,4.370784759499998,3.7945244312299997,-22.10606193547,0.9713211059999995,11.620993614199996,0.650371253490002,-2.678632736200001
2018-07-21 00:33:21.750,-0.051124115696,-0.0697457239344,-0.931915747791,-0.344087034464,-0.127253368497,-0.0665211752057,-1.01008495,0.1372931,11.5522337,0.0,-11.9055919647,15.2716283798,0.335860192776,-0.344087034464,-0.127253368497,-0.0665211752057,4.36000013351,-249.805450439,-119.231391907,4.370784759499998,3.3945243358600004,-21.95606136317,1.1221847533999991,11.551781654399996,0.794476270676002,-2.498054504399999
2018-07-21 00:33:21.800,-0.051124115696,-0.0697457239344,-0.931915747791,-0.344087034464,-0.127253368497,-0.0665211752057,-1.01008495,0.1372931,11.5522337,0.0,-11.5393323898,14.8337774277,0.816869080067,-0.344087034464,-0.127253368497,-0.0665211752057,4.23000001907,-245.779418945,-118.064865112,4.370784759499998,3.1345241069800003,-21.55606174467,1.1221847533999991,11.551781654399996,0.794476270676002,-2.498054504399999
2018-07-21 00:33:21.850,-0.029072270068,0.0428103144749,-0.935490263358,-0.53181707859,-0.0109945870936,0.00863778218627,-0.53936575,0.4707192,10.6696352,0.0,-11.5393323898,14.8337774277,0.816869080067,-0.344087034464,-0.127253368497,-0.0665211752057,4.23000001907,-245.779418945,-118.064865112,5.1692466736,0.9429779052700002,-8.55093836783,1.3454389572000007,11.504438400299996,0.900081336498002,-2.4577941894999995
2018-07-21 00:33:21.900,-0.029072270068,0.0428103144749,-0.935490263358,-0.53181707859,-0.0109945870936,0.00863778218627,-0.53936575,0.4707192,10.6696352,0.0,-11.5393323898,14.8337774277,0.816869080067,-0.344087034464,-0.127253368497,-0.0665211752057,4.07999992371,-223.776428223,-116.932098389,5.1692466736,0.9429779052700002,-8.55093836783,1.4421453476000003,11.497100830099997,0.935259461403002,-2.2377643585000015
2018-07-21 00:33:21.950,-0.029072270068,0.0428103144749,-0.935490263358,-0.53181707859,-0.0109945870936,0.00863778218627,-0.53936575,0.4707192,10.6696352,0.0,-11.4943628311,14.345410347,0.983281493187,-0.53181707859,-0.0109945870936,0.00863778218627,4.07999992371,-223.776428223,-116.932098389,5.1692466736,0.63297796249,-7.8709380626300005,1.5950727462999996,11.494875907899996,0.961650967598002,-2.2377643585000015
2018-07-21 00:33:22.000,-0.029072270068,0.0428103144749,-0.935490263358,-0.53181707859,-0.0109945870936,0.00863778218627,-0.53936575,0.4707192,10.6696352,0.0,-11.4943628311,14.345410347,0.983281493187,-0.53181707859,-0.0109945870936,0.00863778218627,3.92999982834,-215.621368408,-115.782463074,5.1692466736,0.3329782485899999,-6.990937948229999,1.5950727462999996,11.494875907899996,0.961650967598002,-2.2377643585000015
2018-07-21 00:33:22.050,-0.029072270068,0.0428103144749,-0.935490263358,-0.53181707859,-0.0109945870936,0.00863778218627,-0.53936575,0.4707192,10.6696352,0.0,-11.4943628311,14.345410347,0.983281493187,-0.53181707859,-0.0109945870936,0.00863778218627,3.92999982834,-215.621368408,-115.782463074,5.1692466736,0.3329782485899999,-6.990937948229999,1.8242712021000003,11.502836227399996,1.062286973000002,-2.1562137604
2018-07-21 00:33:22.100,-0.029072270068,0.0428103144749,-0.935490263358,-0.53181707859,-0.0109945870936,0.00863778218627,-0.53936575,0.4707192,10.6696352,0.0,-11.4943628311,14.345410347,0.983281493187,-0.53181707859,-0.0109945870936,0.00863778218627,3.76999998093,-220.937164307,-114.632766724,5.1692466736,0.15297794341999982,-5.860938787459999,2.0450553894,11.520597457899996,1.198662042620002,-2.2093715668000016
2018-07-21 00:33:22.150,-0.029072270068,0.0428103144749,-0.935490263358,-0.53181707859,-0.0109945870936,0.00863778218627,-0.53936575,0.4707192,10.6696352,0.0,-11.4943628311,14.345410347,0.983281493187,-0.53181707859,-0.0109945870936,0.00863778218627,3.76999998093,-220.937164307,-114.632766724,5.1692466736,0.15297794341999982,-5.860938787459999,2.1589708327999997,11.530131339999997,1.271878242490002,-2.2093715668000016
2018-07-21 00:33:22.200,-0.0193957278609,0.0731930649252,-0.931243504315,-0.157064139843,-0.0401755087078,-0.063073374331,-0.46091255,0.79433865,12.22889255,0.0,-11.53013134,13.8410291672,1.27187824249,-0.53181707859,-0.0109945870936,0.00863778218627,3.76999998093,-220.937164307,-114.632766724,5.1692466736,0.15297794341999982,-5.860938787459999,2.1589708327999997,11.530131339999997,1.271878242490002,-2.2093715668000016
2018-07-21 00:33:22.250,-0.0193957278609,0.0731930649252,-0.931243504315,-0.157064139843,-0.0401755087078,-0.063073374331,-0.46091255,0.79433865,12.22889255,0.0,-11.53013134,13.8410291672,1.27187824249,-0.53181707859,-0.0109945870936,0.00863778218627,3.58999991417,-202.29473877,-113.474693298,4.423088073700001,-0.2959704399100005,-1.2761969566399989,2.1589708327999997,11.530131339999997,1.271878242490002,-2.2093715668000016
2018-07-21 00:33:22.300,-0.0193957278609,0.0731930649252,-0.931243504315,-0.157064139843,-0.0401755087078,-0.063073374331,-0.46091255,0.79433865,12.22889255,0.0,-11.53013134,13.8410291672,1.27187824249,-0.53181707859,-0.0109945870936,0.00863778218627,3.58999991417,-202.29473877,-113.474693298,4.423088073700001,-0.2959704399100005,-1.2761969566399989,2.4464855193999995,11.528128623999997,1.380834102630002,-2.0229473113999994
2018-07-21 00:33:22.350,-0.0193957278609,0.0731930649252,-0.931243504315,-0.157064139843,-0.0401755087078,-0.063073374331,-0.46091255,0.79433865,12.22889255,0.0,-11.53013134,13.8410291672,1.27187824249,-0.53181707859,-0.0109945870936,0.00863778218627,3.40999984741,-167.058380127,-112.316581726,4.423088073700001,-0.7159705162100005,-0.4061965942399999,2.6679906844999994,11.525224685699996,1.388823747630002,-1.6705837250000002
2018-07-21 00:33:22.400,-0.0193957278609,0.0731930649252,-0.931243504315,-0.157064139843,-0.0401755087078,-0.063073374331,-0.46091255,0.79433865,12.22889255,0.0,-11.53013134,13.8410291672,1.27187824249,-0.53181707859,-0.0109945870936,0.00863778218627,3.22000002861,-141.621017456,-111.16696167,4.423088073700001,-1.21597051621,0.38380336761000056,2.6679906844999994,11.525224685699996,1.388823747630002,-1.6705837250000002
2018-07-21 00:33:22.450,-0.0193957278609,0.0731930649252,-0.931243504315,-0.157064139843,-0.0401755087078,-0.063073374331,-0.46091255,0.79433865,12.22889255,0.0,-11.5129089355,13.1770381927,1.30753147602,-0.157064139843,-0.0401755087078,-0.063073374331,3.22000002861,-141.621017456,-111.16696167,4.423088073700001,-1.21597051621,0.38380336761000056,2.8229618073000005,11.512908935499997,1.307531476020002,-1.4162101745999998
2018-07-21 00:33:22.500,-0.0193957278609,0.0731930649252,-0.931243504315,-0.157064139843,-0.0401755087078,-0.063073374331,-0.46091255,0.79433865,12.22889255,0.0,-11.5129089355,13.1770381927,1.30753147602,-0.157064139843,-0.0401755087078,-0.063073374331,3.03999996185,-92.8010940552,-110.000427246,4.423088073700001,-1.8259704113000002,0.9938035011300004,2.9277248382999996,11.501016616799996,1.219222426410002,-0.9280109406000001
2018-07-21 00:33:22.550,-0.0193957278609,0.0731930649252,-0.931243504315,-0.157064139843,-0.0401755087078,-0.063073374331,-0.46091255,0.79433865,12.22889255,0.0,-11.5129089355,13.1770381927,1.30753147602,-0.157064139843,-0.0401755087078,-0.063073374331,3.03999996185,-92.8010940552,-110.000427246,4.423088073700001,-1.8259704113000002,0.9938035011300004,2.9277248382999996,11.501016616799996,1.219222426410002,-0.9280109406000001
2018-07-21 00:33:22.600,-0.013358899221,0.0826647551029,-0.933299151298,0.0158969629556,0.0245465841144,0.177560478449,-0.3334261,-0.67665885,8.1002929,0.0,-11.5129089355,13.1770381927,1.30753147602,-0.157064139843,-0.0401755087078,-0.063073374331,2.87999987602,-57.7634811401,-108.850738525,4.423088073700001,-2.4459705352800003,1.4638032913200005,3.0596265792999997,11.473032951399997,1.088705658910002,-0.5776348113999994
2018-07-21 00:33:22.650,-0.013358899221,0.0826647551029,-0.933299151298,0.0158969629556,0.0245465841144,0.177560478449,-0.3334261,-0.67665885,8.1002929,0.0,-11.4581356049,12.8114376068,0.965189278126,0.0158969629556,0.0245465841144,0.177560478449,2.87999987602,-57.7634811401,-108.850738525,5.319599151600002,-2.12198495865,2.7644944191,3.1213378905999996,11.463183402999997,1.027878046040002,-0.5776348113999994
2018-07-21 00:33:22.700,-0.013358899221,0.0826647551029,-0.933299151298,0.0158969629556,0.0245465841144,0.177560478449,-0.3334261,-0.67665885,8.1002929,0.0,-11.4581356049,12.8114376068,0.965189278126,0.0158969629556,0.0245465841144,0.177560478449,2.75,-33.0497741699,-107.701118469,5.319599151600002,-2.12198495865,2.7644944191,3.2276554108000006,11.460221290599996,0.946877896786002,-0.33049774170000035
2018-07-21 00:33:22.750,-0.013358899221,0.0826647551029,-0.933299151298,0.0158969629556,0.0245465841144,0.177560478449,-0.3334261,-0.67665885,8.1002929,0.0,-11.4581356049,12.8114376068,0.965189278126,0.0158969629556,0.0245465841144,0.177560478449,2.75,-33.0497741699,-107.701118469,5.319599151600002,-2.64198493958,3.3244943618799994,3.2899560928000007,11.459900855999997,0.895326018333002,-0.33049774170000035
2018-07-21 00:33:22.800,-0.013358899221,0.0826647551029,-0.933299151298,0.0158969629556,0.0245465841144,0.177560478449,-0.3334261,-0.67665885,8.1002929,0.0,-11.4581356049,12.8114376068,0.965189278126,0.0158969629556,0.0245465841144,0.177560478449,2.62999987602,2.03723907471,-106.559921265,5.319599151600002,-3.19198489189,4.02449464798,3.4084329605000008,11.467989921599996,0.816481292248002,0.02037239070000041
2018-07-21 00:33:22.850,-0.013358899221,0.0826647551029,-0.933299151298,0.0158969629556,0.0245465841144,0.177560478449,-0.3334261,-0.67665885,8.1002929,0.0,-11.4581356049,12.8114376068,0.965189278126,0.0158969629556,0.0245465841144,0.177560478449,2.62999987602,2.03723907471,-106.559921265,5.319599151600002,-3.19198489189,4.02449464798,3.5272846222,11.479098319999997,0.739507794380002,0.02037239070000041
2018-07-21 00:33:22.900,-0.013358899221,0.0826647551029,-0.933299151298,0.0158969629556,0.0245465841144,0.177560478449,-0.3334261,-0.67665885,8.1002929,0.0,-11.4939756393,12.3588438034,0.662442922592,0.0158969629556,0.0245465841144,0.177560478449,2.62999987602,2.03723907471,-106.559921265,5.319599151600002,-3.19198489189,4.02449464798,3.5592346190999997,11.479275703399997,0.703274428844002,0.02037239070000041
2018-07-21 00:33:22.950,-0.013358899221,0.0826647551029,-0.933299151298,0.0158969629556,0.0245465841144,0.177560478449,-0.3334261,-0.67665885,8.1002929,0.0,-11.4939756393,12.3588438034,0.662442922592,0.0158969629556,0.0245465841144,0.177560478449,2.52999997139,15.754032135,-105.427207947,5.319599151600002,-3.6419848203700003,4.744494438169999,3.6761445999000006,11.502824783299996,0.636798381805002,0.15754032140000085
2018-07-21 00:33:23.000,-0.00354932704667,0.0828049239072,-0.949217031365,-0.00930321682245,0.0499685667455,0.231389224529,0.04903325,0.38245935,8.7279185,0.0,-11.4939756393,12.3588438034,0.662442922592,0.0158969629556,0.0245465841144,0.177560478449,2.52999997139,15.754032135,-105.427207947,5.319599151600002,-3.6419848203700003,4.744494438169999,3.764316558799999,11.514992713899996,0.585903763771002,0.15754032140000085
2018-07-21 00:33:23.050,-0.00354932704667,0.0828049239072,-0.949217031365,-0.00930321682245,0.0499685667455,0.231389224529,0.04903325,0.38245935,8.7279185,0.0,-11.4939756393,12.3588438034,0.662442922592,0.0158969629556,0.0245465841144,0.177560478449,2.44000005722,21.9624519348,-104.28603363,10.7923355103,-2.477760076527,6.19406199455,3.9138174056999997,11.559888839699996,0.4764022529130019,0.21962451929999993
2018-07-21 00:33:23.100,-0.00354932704667,0.0828049239072,-0.949217031365,-0.00930321682245,0.0499685667455,0.231389224529,0.04903325,0.38245935,8.7279185,0.0,-11.4939756393,12.3588438034,0.662442922592,0.0158969629556,0.0245465841144,0.177560478449,2.44000005722,21.9624519348,-104.28603363,10.7923355103,-2.477760076527,6.19406199455,3.9512453079000007,11.568328857399996,0.4415183663370019,0.4213571548000008
2018-07-21 00:33:23.150,-0.00354932704667,0.0828049239072,-0.949217031365,-0.00930321682245,0.0499685667455,0.231389224529,0.04903325,0.38245935,8.7279185,0.0,-11.6269378662,11.8824272156,0.342826157808,-0.00930321682245,0.0499685667455,0.231389224529,2.36999988556,42.1357154846,-103.153274536,10.7923355103,-2.777760058646,7.074061989780001,4.1175727844,11.626937866199997,0.34282615780800196,0.4213571548000008
2018-07-21 00:33:23.200,-0.00354932704667,0.0828049239072,-0.949217031365,-0.00930321682245,0.0499685667455,0.231389224529,0.04903325,0.38245935,8.7279185,0.0,-11.6269378662,11.8824272156,0.342826157808,-0.00930321682245,0.0499685667455,0.231389224529,2.36999988556,42.1357154846,-103.153274536,10.7923355103,-2.777760058646,7.074061989780001,4.1569976807,11.641886711099996,0.31347009539600196,0.4213571548000008
2018-07-21 00:33:23.250,-0.00354932704667,0.0828049239072,-0.949217031365,-0.00930321682245,0.0499685667455,0.231389224529,0.04903325,0.38245935,8.7279185,0.0,-11.6269378662,11.8824272156,0.342826157808,-0.00930321682245,0.0499685667455,0.231389224529,2.31999993324,45.1591491699,-101.986740112,10.7923355103,-2.927760034804,8.104062020779,4.328081130999999,11.714888572699996,0.23110961914100198,0.45159149170000035
2018-07-21 00:33:23.300,-0.00354932704667,0.0828049239072,-0.949217031365,-0.00930321682245,0.0499685667455,0.231389224529,0.04903325,0.38245935,8.7279185,0.0,-11.6269378662,11.8824272156,0.342826157808,-0.00930321682245,0.0499685667455,0.231389224529,2.27999997139,43.4977531433,-100.870887756,10.7923355103,-2.91776004434,9.154062002898,4.435855865500001,11.775084495499996,0.15603783726700196,0.4349775313999995
2018-07-21 00:33:23.350,-0.00354932704667,0.0828049239072,-0.949217031365,-0.00930321682245,0.0499685667455,0.231389224529,0.04903325,0.38245935,8.7279185,0.0,-11.6269378662,11.8824272156,0.342826157808,-0.00930321682245,0.0499685667455,0.231389224529,2.25999999046,47.846698761,-99.6959075928,10.7923355103,-2.927760034804,9.154062002898,4.5157604218,11.809532165499997,0.10280671715700196,0.4349775313999995
2018-07-21 00:33:23.400,-0.00354932704667,0.0828049239072,-0.949217031365,-0.00930321682245,0.0499685667455,0.231389224529,0.04903325,0.38245935,8.7279185,0.0,-11.8478355408,11.4084768295,0.0523833632469,-0.00930321682245,0.0499685667455,0.231389224529,2.25999999046,47.846698761,-99.6959075928,10.7923355103,-2.927760034804,9.154062002898,4.5915231705,11.847835540799997,0.05238336324690196,0.47846698759999917
2018-07-21 00:33:23.450,0.00848706612438,0.070080790281,-0.958724754991,0.205787450075,0.0558379478753,0.0604955852032,0.46091255,0.4511059,8.50236555,0.0,-11.8478355408,11.4084768295,0.0523833632469,-0.00930321682245,0.0499685667455,0.231389224529,2.25999999046,47.846698761,-99.6959075928,10.7923355103,-2.927760034804,9.154062002898,4.5915231705,11.847835540799997,0.05238336324690196,0.47846698759999917
2018-07-21 00:33:23.500,0.00848706612438,0.070080790281,-0.958724754991,0.205787450075,0.0558379478753,0.0604955852032,0.46091255,0.4511059,8.50236555,0.0,-11.8478355408,11.4084768295,0.0523833632469,-0.00930321682245,0.0499685667455,0.231389224529,2.25999999046,47.846698761,-99.6959075928,14.031631469700002,-0.8996154069879999,9.25497794151,4.7148647308000005,11.927577972399996,-0.04539058730009804,0.47846698759999917
2018-07-21 00:33:23.550,0.00848706612438,0.070080790281,-0.958724754991,0.205787450075,0.0558379478753,0.0604955852032,0.46091255,0.4511059,8.50236555,0.0,-11.8478355408,11.4084768295,0.0523833632469,-0.00930321682245,0.0499685667455,0.231389224529,2.25,52.8804779053,-98.5209274292,14.031631469700002,-0.7996154129489998,10.24497795105,4.795004844699999,11.973433494599997,-0.16992032527899803,0.5288047790999997
2018-07-21 00:33:23.600,0.00848706612438,0.070080790281,-0.958724754991,0.205787450075,0.0558379478753,0.0604955852032,0.46091255,0.4511059,8.50236555,0.0,-11.8478355408,11.4084768295,0.0523833632469,-0.00930321682245,0.0499685667455,0.231389224529,2.25,52.8804779053,-98.5209274292,14.031631469700002,-0.7996154129489998,10.24497795105,4.845323562600001,12.002104759199996,-0.27242848277099807,0.5288047790999997
2018-07-21 00:33:23.650,0.00848706612438,0.070080790281,-0.958724754991,0.205787450075,0.0558379478753,0.0604955852032,0.46091255,0.4511059,8.50236555,0.0,-12.0619411469,11.0652589798,-0.459489703178,0.205787450075,0.0558379478753,0.0604955852032,2.26999998093,74.2890319824,-97.3374710083,14.031631469700002,-0.8896154165249999,10.99497795105,4.934741020200001,12.061941146899997,-0.45948970317799803,0.7428903580000004
2018-07-21 00:33:23.700,0.00848706612438,0.070080790281,-0.958724754991,0.205787450075,0.0558379478753,0.0604955852032,0.46091255,0.4511059,8.50236555,0.0,-12.0619411469,11.0652589798,-0.459489703178,0.205787450075,0.0558379478753,0.0604955852032,2.29999995232,86.4024200439,-96.1455841064,14.031631469700002,-0.8796154260619999,11.68497776985,4.9622020721,12.074457168599997,-0.502685189246998,0.7428903580000004
2018-07-21 00:33:23.750,0.0118335036691,0.037413982018,-0.961494361689,0.0555228218436,0.0570347495377,0.0236717164516,0.392266,0.38245935,7.6295737,0.0,-12.0619411469,11.0652589798,-0.459489703178,0.205787450075,0.0558379478753,0.0604955852032,2.29999995232,86.4024200439,-96.1455841064,14.401962280299998,0.537615060806,8.18571400642,5.076653480499999,12.155615806599997,-0.610232830047998,0.8640241622999998
2018-07-21 00:33:23.800,0.0118335036691,0.037413982018,-0.961494361689,0.0555228218436,0.0570347495377,0.0236717164516,0.392266,0.38245935,7.6295737,0.0,-12.0619411469,11.0652589798,-0.459489703178,0.205787450075,0.0558379478753,0.0604955852032,2.3599998951,90.9537353516,-94.9451828003,14.401962280299998,0.577615082264,8.90571403503,5.109616279600001,12.184175491299996,-0.668745279311998,0.9095373153999997
2018-07-21 00:33:23.850,0.0118335036691,0.037413982018,-0.961494361689,0.0555228218436,0.0570347495377,0.0236717164516,0.392266,0.38245935,7.6295737,0.0,-12.0619411469,11.0652589798,-0.459489703178,0.205787450075,0.0558379478753,0.0604955852032,2.3599998951,90.9537353516,-94.9451828003,14.401962280299998,0.577615082264,8.90571403503,5.1453580856,12.213570594799997,-0.711256623267998,0.9095373153999997
2018-07-21 00:33:23.900,0.0118335036691,0.037413982018,-0.961494361689,0.0555228218436,0.0570347495377,0.0236717164516,0.392266,0.38245935,7.6295737,0.0,-12.226729393,10.8362016678,-0.721271634102,0.0555228218436,0.0570347495377,0.0236717164516,2.44000005722,82.7035903931,-93.7532958984,14.401962280299998,0.697615087032,9.48571395874,5.192161560100001,12.250832557699997,-0.776132345199998,0.8270359039000006
2018-07-21 00:33:23.950,0.0118335036691,0.037413982018,-0.961494361689,0.0555228218436,0.0570347495377,0.0236717164516,0.392266,0.38245935,7.6295737,0.0,-12.226729393,10.8362016678,-0.721271634102,0.0555228218436,0.0570347495377,0.0236717164516,2.44000005722,82.7035903931,-93.7532958984,14.401962280299998,0.697615087032,9.48571395874,5.2160825728999995,12.274728774999996,-0.839271664618998,0.8270359039000006
2018-07-21 00:33:24.000,0.0118335036691,0.037413982018,-0.961494361689,0.0555228218436,0.0570347495377,0.0236717164516,0.392266,0.38245935,7.6295737,0.0,-12.226729393,10.8362016678,-0.721271634102,0.0555228218436,0.0570347495377,0.0236717164516,2.44000005722,82.7035903931,-93.7532958984,14.401962280299998,0.697615087032,9.48571395874,5.2160825728999995,12.274728774999996,-0.839271664618998,0.8270359039000006
2018-07-21 00:33:24.050,0.0118335036691,0.037413982018,-0.961494361689,0.0555228218436,0.0570347495377,0.0236717164516,0.392266,0.38245935,7.6295737,0.0,-12.226729393,10.8362016678,-0.721271634102,0.0555228218436,0.0570347495377,0.0236717164516,2.51999998093,85.5205535889,-92.5613937378,14.401962280299998,0.917615056038,9.92571401596,5.256403923000001,12.327354431199996,-0.938852369784998,0.8552055358999997
2018-07-21 00:33:24.100,0.0118335036691,0.037413982018,-0.961494361689,0.0555228218436,0.0570347495377,0.0236717164516,0.392266,0.38245935,7.6295737,0.0,-12.226729393,10.8362016678,-0.721271634102,0.0555228218436,0.0570347495377,0.0236717164516,2.51999998093,85.5205535889,-92.5613937378,14.401962280299998,0.917615056038,9.92571401596,5.2870254517,12.371399879499997,-0.977127790450998,0.6577425002999995
2018-07-21 00:33:24.150,0.0118335036691,0.037413982018,-0.961494361689,0.0555228218436,0.0570347495377,0.0236717164516,0.392266,0.38245935,7.6295737,0.0,-12.4102315903,10.6781177521,-1.05306208134,0.0555228218436,0.0570347495377,0.0236717164516,2.61999988556,65.7742462158,-91.3441467285,14.401962280299998,1.237615108488,10.365714073180001,5.3116893768,12.396482467699997,-1.017023444179998,0.6577425002999995
2018-07-21 00:33:24.200,0.0140774355542,0.0108908410225,-0.962380360982,0.139568775892,0.0302944928408,0.0232803076506,0.5295591,0.28439285,8.8455983,0.0,-12.4102315903,10.6781177521,-1.05306208134,0.0555228218436,0.0570347495377,0.0236717164516,2.74000000954,58.6916923523,-90.1184463501,14.401962280299998,1.237615108488,10.365714073180001,5.339879035899999,12.421390533399997,-1.074972152709998,0.5869169235000005
2018-07-21 00:33:24.250,0.0140774355542,0.0108908410225,-0.962380360982,0.139568775892,0.0302944928408,0.0232803076506,0.5295591,0.28439285,8.8455983,0.0,-12.4102315903,10.6781177521,-1.05306208134,0.0555228218436,0.0570347495377,0.0236717164516,2.74000000954,58.6916923523,-90.1184463501,14.515403747599997,2.5741997957300002,7.96900284291,5.363701820399999,12.446402549699997,-1.142261505129998,0.5869169235000005
2018-07-21 00:33:24.300,0.0140774355542,0.0108908410225,-0.962380360982,0.139568775892,0.0302944928408,0.0232803076506,0.5295591,0.28439285,8.8455983,0.0,-12.4102315903,10.6781177521,-1.05306208134,0.0555228218436,0.0570347495377,0.0236717164516,2.86999988556,53.1362533569,-88.8927307129,14.515403747599997,2.9841997623500003,8.36900293827,5.401762962299999,12.501106262199997,-1.247333407399998,0.5313625335999994
2018-07-21 00:33:24.350,0.0140774355542,0.0108908410225,-0.962380360982,0.139568775892,0.0302944928408,0.0232803076506,0.5295591,0.28439285,8.8455983,0.0,-12.4102315903,10.6781177521,-1.05306208134,0.0555228218436,0.0570347495377,0.0236717164516,2.86999988556,53.1362533569,-88.8927307129,14.515403747599997,2.9841997623500003,8.36900293827,5.423570632900001,12.553290367099997,-1.290777921679998,0.5313625335999994
2018-07-21 00:33:24.400,0.0140774355542,0.0108908410225,-0.962380360982,0.139568775892,0.0302944928408,0.0232803076506,0.5295591,0.28439285,8.8455983,0.0,-12.5532903671,10.5764293671,-1.29077792168,0.139568775892,0.0302944928408,0.0232803076506,2.86999988556,53.1362533569,-88.8927307129,14.515403747599997,2.9841997623500003,8.36900293827,5.423570632900001,12.553290367099997,-1.290777921679998,0.5313625335999994
2018-07-21 00:33:24.450,0.0140774355542,0.0108908410225,-0.962380360982,0.139568775892,0.0302944928408,0.0232803076506,0.5295591,0.28439285,8.8455983,0.0,-12.5532903671,10.5764293671,-1.29077792168,0.139568775892,0.0302944928408,0.0232803076506,3.0,42.7004814148,-87.6501312256,14.515403747599997,3.4141998291,8.75900280476,5.427350044300001,12.594497680699996,-1.322743058199998,0.4270048141
2018-07-21 00:33:24.500,0.0140774355542,0.0108908410225,-0.962380360982,0.139568775892,0.0302944928408,0.0232803076506,0.5295591,0.28439285,8.8455983,0.0,-12.5532903671,10.5764293671,-1.29077792168,0.139568775892,0.0302944928408,0.0232803076506,3.13999986649,31.6209793091,-86.3990478516,14.515403747599997,3.7741997242000003,8.92900288105,5.422596931499999,12.610299110399996,-1.352818846699998,0.3162097931000005
2018-07-21 00:33:24.550,0.00496530058587,-0.0213358418484,-0.961132280191,0.291565656662,-0.00662708096206,-0.0531853549182,0.3334261,0.30400615,9.30651085,0.0,-12.5532903671,10.5764293671,-1.29077792168,0.139568775892,0.0302944928408,0.0232803076506,3.13999986649,31.6209793091,-86.3990478516,14.515403747599997,3.7741997242000003,8.92900288105,5.4159641266000005,12.624592781099997,-1.411156773569998,0.3162097931000005
2018-07-21 00:33:24.600,0.00496530058587,-0.0213358418484,-0.961132280191,0.291565656662,-0.00662708096206,-0.0531853549182,0.3334261,0.30400615,9.30651085,0.0,-12.6387758255,10.5978937149,-1.46395087242,0.291565656662,-0.00662708096206,-0.0531853549182,3.28999996185,21.8276977539,-85.1649017334,14.0654945374,3.77984082699,5.09568095207,5.4021062851,12.638775825499996,-1.463950872419998,0.2182769775000004
2018-07-21 00:33:24.650,0.00496530058587,-0.0213358418484,-0.961132280191,0.291565656662,-0.00662708096206,-0.0531853549182,0.3334261,0.30400615,9.30651085,0.0,-12.6387758255,10.5978937149,-1.46395087242,0.291565656662,-0.00662708096206,-0.0531853549182,3.28999996185,21.8276977539,-85.1649017334,14.0654945374,4.1698409318900005,5.14568066597,5.388353347800001,12.643578529399996,-1.485459089279998,0.2182769775000004
2018-07-21 00:33:24.700,0.00496530058587,-0.0213358418484,-0.961132280191,0.291565656662,-0.00662708096206,-0.0531853549182,0.3334261,0.30400615,9.30651085,0.0,-12.6387758255,10.5978937149,-1.46395087242,0.291565656662,-0.00662708096206,-0.0531853549182,3.28999996185,21.8276977539,-85.1649017334,14.0654945374,4.1698409318900005,5.14568066597,5.388353347800001,12.643578529399996,-1.485459089279998,0.2182769775000004
2018-07-21 00:33:24.750,0.00496530058587,-0.0213358418484,-0.961132280191,0.291565656662,-0.00662708096206,-0.0531853549182,0.3334261,0.30400615,9.30651085,0.0,-12.6387758255,10.5978937149,-1.46395087242,0.291565656662,-0.00662708096206,-0.0531853549182,3.44999980927,7.6958656311,-83.9053878784,14.0654945374,4.589840769769999,5.09568095207,5.3215332030999996,12.654519081099997,-1.441132307049998,0.07695865630000043
2018-07-21 00:33:24.800,0.00496530058587,-0.0213358418484,-0.961132280191,0.291565656662,-0.00662708096206,-0.0531853549182,0.3334261,0.30400615,9.30651085,0.0,-12.6387758255,10.5978937149,-1.46395087242,0.291565656662,-0.00662708096206,-0.0531853549182,3.6099998951,-0.227928161621,-82.6542739868,14.0654945374,5.07984077931,4.82568097115,5.2885837554999995,12.653187751799997,-1.413572669029998,-0.002279281599999905
2018-07-21 00:33:24.850,0.00496530058587,-0.0213358418484,-0.961132280191,0.291565656662,-0.00662708096206,-0.0531853549182,0.3334261,0.30400615,9.30651085,0.0,-12.6529254913,10.7850904465,-1.32661473751,0.291565656662,-0.00662708096206,-0.0531853549182,3.75,-20.2280044556,-81.4032211304,14.0654945374,5.07984077931,4.82568097115,5.247644424400001,12.650520324699997,-1.358838558199998,-0.002279281599999905
2018-07-21 00:33:24.900,-0.0146931685345,-0.0547279337299,-0.957801402896,0.211761817336,-0.0984939038754,-0.0260850470513,0.8237586,0.24516625,12.0229529,0.0,-12.6529254913,10.7850904465,-1.32661473751,0.291565656662,-0.00662708096206,-0.0531853549182,3.75,-20.2280044556,-81.4032211304,14.0654945374,5.07984077931,4.82568097115,5.201918601999999,12.648296356199996,-1.290256738659998,-0.20228004459999838
2018-07-21 00:33:24.950,-0.0146931685345,-0.0547279337299,-0.957801402896,0.211761817336,-0.0984939038754,-0.0260850470513,0.8237586,0.24516625,12.0229529,0.0,-12.6529254913,10.7850904465,-1.32661473751,0.291565656662,-0.00662708096206,-0.0531853549182,3.75,-20.2280044556,-81.4032211304,13.220504760700003,4.514542028304,0.16490459442000027,5.099964141799999,12.637229919399996,-1.152531981469998,-0.20228004459999838
2018-07-21 00:33:25.000,-0.0146931685345,-0.0547279337299,-0.957801402896,0.211761817336,-0.0984939038754,-0.0260850470513,0.8237586,0.24516625,12.0229529,0.0,-12.6529254913,10.7850904465,-1.32661473751,0.291565656662,-0.00662708096206,-0.0531853549182,3.75,-20.2280044556,-81.4032211304,13.220504760700003,4.514542028304,0.16490459442000027,5.0683450698999994,12.634658813499996,-1.112394332889998,-0.20228004459999838
2018-07-21 00:33:25.050,-0.0146931685345,-0.0547279337299,-0.957801402896,0.211761817336,-0.0984939038754,-0.0260850470513,0.8237586,0.24516625,12.0229529,0.0,-12.6529254913,10.7850904465,-1.32661473751,0.291565656662,-0.00662708096206,-0.0531853549182,3.87999987602,-10.5251312256,-80.1521453857,13.220504760700003,4.794541761284,-0.37509536742999927,4.9869375229,12.606405258199997,-1.040982842449998,-0.10525131229999829
2018-07-21 00:33:25.100,-0.0146931685345,-0.0547279337299,-0.957801402896,0.211761817336,-0.0984939038754,-0.0260850470513,0.8237586,0.24516625,12.0229529,0.0,-12.5927991867,11.0447072983,-1.02772414684,0.211761817336,-0.0984939038754,-0.0260850470513,4.0,-20.6718444824,-78.9010848999,13.220504760700003,4.9145416468339995,-0.8450951576199994,4.973844528200001,12.599482536299996,-1.046231389049998,-0.10525131229999829
2018-07-21 00:33:25.150,-0.0146931685345,-0.0547279337299,-0.957801402896,0.211761817336,-0.0984939038754,-0.0260850470513,0.8237586,0.24516625,12.0229529,0.0,-12.5927991867,11.0447072983,-1.02772414684,0.211761817336,-0.0984939038754,-0.0260850470513,4.0,-20.6718444824,-78.9010848999,13.220504760700003,4.9145416468339995,-0.8450951576199994,4.905279159499999,12.572866439799997,-1.012119889259998,-0.2067184447999999
2018-07-21 00:33:25.200,-0.0146931685345,-0.0547279337299,-0.957801402896,0.211761817336,-0.0984939038754,-0.0260850470513,0.8237586,0.24516625,12.0229529,0.0,-12.5927991867,11.0447072983,-1.02772414684,0.211761817336,-0.0984939038754,-0.0260850470513,4.09999990463,-6.67724609375,-77.6753768921,13.220504760700003,4.934541627764,-1.2450952529899997,4.868441581700001,12.551155090299996,-0.974865138530998,-0.06677246090000111
2018-07-21 00:33:25.250,-0.0146931685345,-0.0547279337299,-0.957801402896,0.211761817336,-0.0984939038754,-0.0260850470513,0.8237586,0.24516625,12.0229529,0.0,-12.5927991867,11.0447072983,-1.02772414684,0.211761817336,-0.0984939038754,-0.0260850470513,4.09999990463,-6.67724609375,-77.6753768921,13.220504760700003,4.934541627764,-1.2450952529899997,4.868441581700001,12.551155090299996,-0.974865138530998,-0.06677246090000111
2018-07-21 00:33:25.300,-0.024516424445,-0.0454500715859,-0.960408280935,-0.155685976148,-0.0589172765613,0.0425482690334,0.5099458,0.4707192,9.79684335,0.0,-12.5927991867,11.0447072983,-1.02772414684,0.211761817336,-0.0984939038754,-0.0260850470513,4.19999980927,-8.61415863037,-76.4412307739,13.220504760700003,5.034542009233999,-1.6050953864999995,4.8190641403,12.535383224499997,-0.955556750297998,-0.08614158629999835
2018-07-21 00:33:25.350,-0.024516424445,-0.0454500715859,-0.960408280935,-0.155685976148,-0.0589172765613,0.0425482690334,0.5099458,0.4707192,9.79684335,0.0,-12.5927991867,11.0447072983,-1.02772414684,0.211761817336,-0.0984939038754,-0.0260850470513,4.19999980927,-8.61415863037,-76.4412307739,14.1148834229,3.6075875759099993,-0.8923454284599996,4.8190641403,12.535383224499997,-0.955556750297998,-0.08614158629999835
2018-07-21 00:33:25.400,-0.024516424445,-0.0454500715859,-0.960408280935,-0.155685976148,-0.0589172765613,0.0425482690334,0.5099458,0.4707192,9.79684335,0.0,-12.5098171234,11.2399196625,-0.932154178619,-0.155685976148,-0.0589172765613,0.0425482690334,4.19999980927,-8.61415863037,-76.4412307739,14.1148834229,3.6075875759099993,-0.8923454284599996,4.7762680054,12.511864662199997,-0.918249845504998,0.060333251999999504
2018-07-21 00:33:25.450,-0.024516424445,-0.0454500715859,-0.960408280935,-0.155685976148,-0.0589172765613,0.0425482690334,0.5099458,0.4707192,9.79684335,0.0,-12.5098171234,11.2399196625,-0.932154178619,-0.155685976148,-0.0589172765613,0.0425482690334,4.28999996185,6.03332519531,-75.1901702881,14.1148834229,3.59758734703,-1.1323451995799996,4.747209549000001,12.504540443399996,-0.929757714271998,0.060333251999999504
2018-07-21 00:33:25.500,-0.024516424445,-0.0454500715859,-0.960408280935,-0.155685976148,-0.0589172765613,0.0425482690334,0.5099458,0.4707192,9.79684335,0.0,-12.5098171234,11.2399196625,-0.932154178619,-0.155685976148,-0.0589172765613,0.0425482690334,4.36999988556,0.089168548584,-73.9729309082,14.1148834229,3.61758732796,-1.3123455047599997,4.747209549000001,12.504540443399996,-0.929757714271998,0.060333251999999504
2018-07-21 00:33:25.550,-0.024516424445,-0.0454500715859,-0.960408280935,-0.155685976148,-0.0589172765613,0.0425482690334,0.5099458,0.4707192,9.79684335,0.0,-12.5098171234,11.2399196625,-0.932154178619,-0.155685976148,-0.0589172765613,0.0425482690334,4.36999988556,0.089168548584,-73.9729309082,14.1148834229,3.61758732796,-1.3123455047599997,4.723695755,12.500548362699996,-0.901667356490998,0.0008916854999991841
2018-07-21 00:33:25.600,-0.024516424445,-0.0454500715859,-0.960408280935,-0.155685976148,-0.0589172765613,0.0425482690334,0.5099458,0.4707192,9.79684335,0.0,-12.4954824448,11.2883615494,-0.856461644173,-0.155685976148,-0.0589172765613,0.0425482690334,4.46000003815,-5.67436218262,-72.7387237549,14.1148834229,3.77758717537,-1.4723453521699996,4.711638450600001,12.495482444799997,-0.856461644172998,0.0008916854999991841
2018-07-21 00:33:25.650,-0.024516424445,-0.0454500715859,-0.960408280935,-0.155685976148,-0.0589172765613,0.0425482690334,0.5099458,0.4707192,9.79684335,0.0,-12.4954824448,11.2883615494,-0.856461644173,-0.155685976148,-0.0589172765613,0.0425482690334,4.46000003815,-5.67436218262,-72.7387237549,14.1148834229,3.77758717537,-1.4723453521699996,4.679586410500001,12.485575675999996,-0.741210758685998,-0.05674362179999903
2018-07-21 00:33:25.700,-0.0293555573836,-0.0272253908368,-0.960452827743,0.0314002595842,-0.066432222724,-0.0229440387338,0.9414384,0.2353596,11.2580342,0.0,-12.4954824448,11.2883615494,-0.856461644173,-0.155685976148,-0.0589172765613,0.0425482690334,4.52999973297,-24.5054244995,-71.5130157471,14.1148834229,3.9875872135099995,-1.6523451805100002,4.660449981699999,12.478612899799996,-0.665851294993998,-0.24505424499999862
2018-07-21 00:33:25.750,-0.0293555573836,-0.0272253908368,-0.960452827743,0.0314002595842,-0.066432222724,-0.0229440387338,0.9414384,0.2353596,11.2580342,0.0,-12.4954824448,11.2883615494,-0.856461644173,-0.155685976148,-0.0589172765613,0.0425482690334,4.52999973297,-24.5054244995,-71.5130157471,13.902759552,2.8881144523599995,0.20021486281999978,4.641276359600001,12.472854614299996,-0.593551933764998,-0.24505424499999862
2018-07-21 00:33:25.800,-0.0293555573836,-0.0272253908368,-0.960452827743,0.0314002595842,-0.066432222724,-0.0229440387338,0.9414384,0.2353596,11.2580342,0.0,-12.4534320831,11.3981170654,-0.480764389038,0.0314002595842,-0.066432222724,-0.0229440387338,4.58999967575,-29.4715881348,-70.2788696289,13.902759552,2.988114357,-0.06978535651999973,4.6211986542000005,12.455223083499996,-0.518970727920998,-0.29471588130000015
2018-07-21 00:33:25.850,-0.0293555573836,-0.0272253908368,-0.960452827743,0.0314002595842,-0.066432222724,-0.0229440387338,0.9414384,0.2353596,11.2580342,0.0,-12.4534320831,11.3981170654,-0.480764389038,0.0314002595842,-0.066432222724,-0.0229440387338,4.58999967575,-29.4715881348,-70.2788696289,13.902759552,2.988114357,-0.06978535651999973,4.583940505999999,12.443650245699997,-0.44228300452199804,-0.29471588130000015
2018-07-21 00:33:25.900,-0.0293555573836,-0.0272253908368,-0.960452827743,0.0314002595842,-0.066432222724,-0.0229440387338,0.9414384,0.2353596,11.2580342,0.0,-12.4534320831,11.3981170654,-0.480764389038,0.0314002595842,-0.066432222724,-0.0229440387338,4.58999967575,-29.4715881348,-70.2788696289,13.902759552,2.988114357,-0.06978535651999973,4.5863075256000005,12.433468818699996,-0.43228781223299806,-0.3947563171000006
2018-07-21 00:33:25.950,-0.0293555573836,-0.0272253908368,-0.960452827743,0.0314002595842,-0.066432222724,-0.0229440387338,0.9414384,0.2353596,11.2580342,0.0,-12.4534320831,11.3981170654,-0.480764389038,0.0314002595842,-0.066432222724,-0.0229440387338,4.58999967575,-29.4715881348,-70.2788696289,13.902759552,2.988114357,-0.06978535651999973,4.5863075256000005,12.433468818699996,-0.43228781223299806,-0.3947563171000006
2018-07-21 00:33:26.000,-0.0293555573836,-0.0272253908368,-0.960452827743,0.0314002595842,-0.066432222724,-0.0229440387338,0.9414384,0.2353596,11.2580342,0.0,-12.4534320831,11.3981170654,-0.480764389038,0.0314002595842,-0.066432222724,-0.0229440387338,4.63000011444,-39.4756317139,-69.0531692505,13.902759552,3.10811471939,-0.30978536605999984,4.5333938599,12.407106399499996,-0.30879229307199807,-0.3947563171000006
2018-07-21 00:33:26.050,-0.0293555573836,-0.0272253908368,-0.960452827743,0.0314002595842,-0.066432222724,-0.0229440387338,0.9414384,0.2353596,11.2580342,0.0,-12.3856687546,11.4775066376,-0.25047776103,0.0314002595842,-0.066432222724,-0.0229440387338,4.65999984741,-22.8498458862,-67.8274612427,13.902759552,3.07811450959,-0.5997853279099998,4.5224933624000005,12.385668754599996,-0.2504777610299981,-0.22849845889999898
2018-07-21 00:33:26.100,-0.0293555573836,-0.0272253908368,-0.960452827743,0.0314002595842,-0.066432222724,-0.0229440387338,0.9414384,0.2353596,11.2580342,0.0,-12.3856687546,11.4775066376,-0.25047776103,0.0314002595842,-0.066432222724,-0.0229440387338,4.67999982834,-30.0369262695,-66.6017608643,13.902759552,3.0581145286599996,-0.8197853565199997,4.492682457000001,12.367517471299996,-0.15084607899199803,-0.30036926269999853
2018-07-21 00:33:26.150,-0.0444456377186,-0.0359503731265,-0.96026726514,-0.0273232646286,-0.0586295835674,0.0184804592282,0.85317855,0.59820565,11.5522337,0.0,-12.3856687546,11.4775066376,-0.25047776103,0.0314002595842,-0.066432222724,-0.0229440387338,4.67999982834,-30.0369262695,-66.6017608643,14.064693450900002,1.6618835926099997,-2.25660777092,4.481113433799999,12.339486353799874,-0.051766317337798046,-0.30036926269999853
2018-07-21 00:33:26.200,-0.0444456377186,-0.0359503731265,-0.96026726514,-0.0273232646286,-0.0586295835674,0.0184804592282,0.85317855,0.59820565,11.5522337,0.0,-12.3856687546,11.4775066376,-0.25047776103,0.0314002595842,-0.066432222724,-0.0229440387338,4.69000005722,-18.2952880859,-65.4182891846,14.064693450900002,1.5018837451999998,-2.47660779953,4.4745168686,12.322735064399874,-0.01142571587119804,-0.18295288090000028
