%time,field.orientation.x,field.orientation.y,field.orientation.z,field.angular_velocity.x,field.angular_velocity.y,field.angular_velocity.z,field.linear_acceleration.x,field.linear_acceleration.y,field.linear_acceleration.z,field.data,field.twist.linear.x,field.twist.linear.y,field.twist.linear.z,field.twist.angular.x,field.twist.angular.y,field.twist.angular.z,field.alt_error,field.aspd_error,field.xtrack_error,delta_yaw,delta_pitch,delta_roll,delta_x,delta_y,delta_z,delta_roll_airspeed
2018-07-30 21:48:17.200,,,,,,,,,,0.0,,,,,,,0.070000000298,-223.221115112,-43.1739387512,186.0063095093,-0.4702103100719,26.486542224893,2.95841789246,4.466154098500002,-0.997239530086999,-3.196027755700001
2018-07-30 21:48:17.250,,,,,,,,,,0.0,,,,,,,0.159999996424,-315.184783936,-41.2502059937,186.0063095093,1.6697896756280999,29.066542148593,11.10710811615,18.461807250999996,-0.982061505317998,-3.1518478393999985
2018-07-30 21:48:17.300,,,,,,,,,,0.0,-18.461807251,4.89289188385,-0.982061505318,-0.0184654444456,0.0302222706378,-0.0549148805439,0.159999996424,-315.184783936,-41.2502059937,186.0063095093,1.6697896756280999,29.066542148593,11.15107250214,18.488973617599996,-0.873228669166998,-3.1518478393999985
2018-07-30 21:48:17.350,,,,,,,,,,0.0,-18.461807251,4.89289188385,-0.982061505318,-0.0184654444456,0.0302222706378,-0.0549148805439,0.25,-332.961273193,-299.579437256,37.006309509299996,-0.5202103219929,40.266542911493,11.1443157196,18.514007568399997,-0.808699846267998,-2.3296127318999993
2018-07-30 21:48:17.400,,,,,,,,,,0.0,-18.461807251,4.89289188385,-0.982061505318,-0.0184654444456,0.0302222706378,-0.0549148805439,0.25,-332.961273193,-299.579437256,37.006309509299996,-0.5202103219929,40.266542911493,11.15070295334,18.505367279099996,-0.735013842582998,-2.3296127318999993
2018-07-30 21:48:17.450,,,,,,,,,,0.0,-18.461807251,4.89289188385,-0.982061505318,-0.0184654444456,0.0302222706378,-0.0549148805439,0.319999992847,-239.944274902,-297.711181641,37.006309509299996,-2.5202102623919,40.276541233093,11.11997890472,18.506225585899998,-0.638406395911998,-2.399442672700001
2018-07-30 21:48:17.500,-0.00781510031962,-0.041028397706,-0.995230992061,0.917455434799,-0.0618546940386,-0.117202959955,0.34323275,0.14709975,11.571847,0.0,-18.4753799438,4.93573999405,-0.503687560558,0.917455434799,-0.0618546940386,-0.117202959955,0.319999992847,-239.944274902,-297.711181641,35.856643676800005,-3.046829313037,36.226315498379996,11.08001422882,18.496484756499996,-0.556663691997998,-2.399442672700001
2018-07-30 21:48:17.550,-0.00781510031962,-0.041028397706,-0.995230992061,0.917455434799,-0.0618546940386,-0.117202959955,0.34323275,0.14709975,11.571847,0.0,-18.4753799438,4.93573999405,-0.503687560558,0.917455434799,-0.0618546940386,-0.117202959955,0.370000004768,-241.533279419,-295.851501465,35.856643676800005,-5.146829456087,35.92631626128,10.99015569687,18.459703445399995,-0.3959655165669981,-2.415332794200001
2018-07-30 21:48:17.600,-0.00781510031962,-0.041028397706,-0.995230992061,0.917455434799,-0.0618546940386,-0.117202959955,0.34323275,0.14709975,11.571847,0.0,-18.4753799438,4.93573999405,-0.503687560558,0.917455434799,-0.0618546940386,-0.117202959955,0.370000004768,-241.533279419,-295.851501465,35.856643676800005,-5.136829227207,35.92631626128,10.90427780151,18.439865112299998,-0.29284703731499806,-2.415332794200001
2018-07-30 21:48:17.650,-0.00781510031962,-0.041028397706,-0.995230992061,0.917455434799,-0.0618546940386,-0.117202959955,0.34323275,0.14709975,11.571847,0.0,-18.4753799438,4.93573999405,-0.503687560558,0.917455434799,-0.0618546940386,-0.117202959955,0.389999985695,-238.672821045,-293.983337402,35.856643676800005,-7.066829055547,35.326317787179995,10.766088485720001,18.387521743799997,-0.16424496471899802,-2.3867282866999986
2018-07-30 21:48:17.700,-0.0233617125842,-0.153758175318,-0.983209177497,0.785145580769,-0.0188052523881,-0.0341069884598,0.24516625,0.28439285,11.85623985,0.0,-18.4753799438,4.93573999405,-0.503687560558,0.917455434799,-0.0618546940386,-0.117202959955,0.389999985695,-238.672821045,-293.983337402,35.856643676800005,-7.0468290746169995,35.326317787179995,10.643936634060001,18.361152648899996,-0.07816935330629804,-2.3867282866999986
2018-07-30 21:48:17.750,-0.0233617125842,-0.153758175318,-0.983209177497,0.785145580769,-0.0188052523881,-0.0341069884598,0.24516625,0.28439285,11.85623985,0.0,-18.4753799438,4.93573999405,-0.503687560558,0.917455434799,-0.0618546940386,-0.117202959955,0.389999985695,-252.055740356,-292.132110596,34.759796142599996,-8.270224034782,21.4101829529,10.38800287247,18.297107696499996,0.005621561780571959,-2.5205574036000016
2018-07-30 21:48:17.800,-0.0233617125842,-0.153758175318,-0.983209177497,0.785145580769,-0.0188052523881,-0.0341069884598,0.24516625,0.28439285,11.85623985,0.0,-18.2971076965,5.61199712753,0.00562156178057,0.785145580769,-0.0188052523881,-0.0341069884598,0.389999985695,-252.055740356,-292.132110596,34.759796142599996,-8.250224053862,21.4101829529,10.323739528659999,18.271039962799996,0.02839411422610196,-2.5205574036000016
2018-07-30 21:48:17.850,-0.0233617125842,-0.153758175318,-0.983209177497,0.785145580769,-0.0188052523881,-0.0341069884598,0.24516625,0.28439285,11.85623985,0.0,-18.2971076965,5.61199712753,0.00562156178057,0.785145580769,-0.0188052523881,-0.0341069884598,0.389999985695,-252.055740356,-292.132110596,34.759796142599996,-8.250224053862,21.4101829529,10.323739528659999,18.271039962799996,0.02839411422610196,-2.5205574036000016
2018-07-30 21:48:17.900,-0.0233617125842,-0.153758175318,-0.983209177497,0.785145580769,-0.0188052523881,-0.0341069884598,0.24516625,0.28439285,11.85623985,0.0,-18.2971076965,5.61199712753,0.00562156178057,0.785145580769,-0.0188052523881,-0.0341069884598,0.370000004768,-254.671295166,-290.289337158,34.759796142599996,-8.890224397182,20.430183410700003,9.939378261569999,18.168674468999995,0.08569802343850196,-2.546712875400001
2018-07-30 21:48:17.950,-0.0233617125842,-0.153758175318,-0.983209177497,0.785145580769,-0.0188052523881,-0.0341069884598,0.24516625,0.28439285,11.85623985,0.0,-18.2971076965,5.61199712753,0.00562156178057,0.785145580769,-0.0188052523881,-0.0341069884598,0.329999983311,-252.063568115,-288.480194092,34.759796142599996,-9.650224149232,19.240184784,9.59335899353,18.076543807999997,0.10895935446000196,-2.5206356049000007
2018-07-30 21:48:18.000,-0.0233617125842,-0.153758175318,-0.983209177497,0.785145580769,-0.0188052523881,-0.0341069884598,0.24516625,0.28439285,11.85623985,0.0,-18.0284137726,6.56792879105,0.0684400871396,0.785145580769,-0.0188052523881,-0.0341069884598,0.329999983311,-252.063568115,-288.480194092,34.759796142599996,-9.630223691462,19.240184784,9.51100873947,18.059617996199997,0.07554613798860196,-2.5206356049000007
2018-07-30 21:48:18.050,-0.0279439947217,-0.252019902849,-0.961520902845,0.387099683285,0.0381433293223,-0.12626761198,-0.392266,0.7256921,9.14960445,0.0,-18.0284137726,6.56792879105,0.0684400871396,0.785145580769,-0.0188052523881,-0.0341069884598,0.299999982119,-247.328567505,-286.654327393,34.759796142599996,-10.560223996642,18.0201835632,9.27895307541,17.980022430399995,0.00960238464177196,-2.4732856749999996
2018-07-30 21:48:18.100,-0.0279439947217,-0.252019902849,-0.961520902845,0.387099683285,0.0381433293223,-0.12626761198,-0.392266,0.7256921,9.14960445,0.0,-18.0284137726,6.56792879105,0.0684400871396,0.785145580769,-0.0188052523881,-0.0341069884598,0.299999982119,-247.328567505,-286.654327393,33.441116333,-9.614994376899899,6.5129394530999996,9.13769102097,17.931337356599997,-0.07183381170029804,-2.4732856749999996
2018-07-30 21:48:18.150,-0.0279439947217,-0.252019902849,-0.961520902845,0.387099683285,0.0381433293223,-0.12626761198,-0.392266,0.7256921,9.14960445,0.0,-18.0284137726,6.56792879105,0.0684400871396,0.785145580769,-0.0188052523881,-0.0341069884598,0.280000001192,-233.60748291,-284.845336914,33.441116333,-7.5449942052399,5.352939605699998,8.88196992874,17.833093643199998,-0.31766390800499805,-2.3360748290999993
2018-07-30 21:48:18.200,-0.0279439947217,-0.252019902849,-0.961520902845,0.387099683285,0.0381433293223,-0.12626761198,-0.392266,0.7256921,9.14960445,0.0,-18.0284137726,6.56792879105,0.0684400871396,0.785145580769,-0.0188052523881,-0.0341069884598,0.280000001192,-233.60748291,-284.845336914,33.441116333,-7.5349939763499,5.342937469499997,8.759478092190001,17.791614532499995,-0.4639929831029981,-2.3360748290999993
2018-07-30 21:48:18.250,-0.0279439947217,-0.252019902849,-0.961520902845,0.387099683285,0.0381433293223,-0.12626761198,-0.392266,0.7256921,9.14960445,0.0,-17.7148933411,7.43092393875,-0.670718669891,0.387099683285,0.0381433293223,-0.12626761198,0.289999991655,-226.308258057,-283.061737061,33.441116333,-5.5349939763499,4.2529411316,8.627737522130001,17.747903823899996,-0.604729473590998,-2.2630825043000016
2018-07-30 21:48:18.300,-0.0279439947217,-0.252019902849,-0.961520902845,0.387099683285,0.0381433293223,-0.12626761198,-0.392266,0.7256921,9.14960445,0.0,-17.7148933411,7.43092393875,-0.670718669891,0.387099683285,0.0381433293223,-0.12626761198,0.289999991655,-226.308258057,-283.061737061,33.441116333,-5.5249942243099,4.242938995399999,8.50570011139,17.693511962899997,-0.742897450923998,-2.2630825043000016
2018-07-30 21:48:18.350,-0.0279439947217,-0.252019902849,-0.961520902845,0.387099683285,0.0381433293223,-0.12626761198,-0.392266,0.7256921,9.14960445,0.0,-17.7148933411,7.43092393875,-0.670718669891,0.387099683285,0.0381433293223,-0.12626761198,0.340000003576,-214.9480896,-281.286560059,33.441116333,-4.1149939000599,3.112937927299999,8.26028347015,17.585817336999998,-1.085245847699998,-2.149480819699999
2018-07-30 21:48:18.400,-0.0279439947217,-0.252019902849,-0.961520902845,0.387099683285,0.0381433293223,-0.12626761198,-0.392266,0.7256921,9.14960445,0.0,-17.7148933411,7.43092393875,-0.670718669891,0.387099683285,0.0381433293223,-0.12626761198,0.340000003576,-214.9480896,-281.286560059,33.441116333,-4.1049941480199,3.102939605699998,8.134866714480001,17.532264709499998,-1.242849826809998,-2.149480819699999
2018-07-30 21:48:18.450,-0.013433851942,-0.303379601077,-0.939028397087,0.151196867228,-0.0559099912643,-0.358189076185,-0.8825985,0.67665885,6.40374245,0.0,-17.7148933411,7.43092393875,-0.670718669891,0.387099683285,0.0381433293223,-0.12626761198,0.439999997616,-207.195663452,-279.519805908,33.441116333,-4.8049939572799,1.8929386139000002,7.939268112180001,17.435018539399998,-1.497232675549998,-2.071956634500001
2018-07-30 21:48:18.500,-0.013433851942,-0.303379601077,-0.939028397087,0.151196867228,-0.0559099912643,-0.358189076185,-0.8825985,0.67665885,6.40374245,0.0,-17.329580307,8.27601909637,-1.73830389977,0.151196867228,-0.0559099912643,-0.358189076185,0.439999997616,-207.195663452,-279.519805908,27.830024719199997,-0.6055855751100001,-3.8928298949999984,7.8078546524,17.369525909399997,-1.651371836659998,-2.071956634500001
2018-07-30 21:48:18.550,-0.013433851942,-0.303379601077,-0.939028397087,0.151196867228,-0.0559099912643,-0.358189076185,-0.8825985,0.67665885,6.40374245,0.0,-17.329580307,8.27601909637,-1.73830389977,0.151196867228,-0.0559099912643,-0.358189076185,0.579999983311,-193.509490967,-277.770019531,27.830024719199997,-1.3655853271500007,-5.312829971299998,7.64209938049,17.284324645999998,-1.802721738819998,-1.9350948334000009
2018-07-30 21:48:18.600,-0.013433851942,-0.303379601077,-0.939028397087,0.151196867228,-0.0559099912643,-0.358189076185,-0.8825985,0.67665885,6.40374245,0.0,-17.329580307,8.27601909637,-1.73830389977,0.151196867228,-0.0559099912643,-0.358189076185,0.579999983311,-193.509490967,-277.770019531,27.830024719199997,-1.3655853271500007,-5.3228302001999985,7.473970413210001,17.199689865099998,-1.909715890879998,-1.9350948334000009
2018-07-30 21:48:18.650,-0.013433851942,-0.303379601077,-0.939028397087,0.151196867228,-0.0559099912643,-0.358189076185,-0.8825985,0.67665885,6.40374245,0.0,-17.329580307,8.27601909637,-1.73830389977,0.151196867228,-0.0559099912643,-0.358189076185,0.759999990463,-195.855712891,-276.053985596,27.830024719199997,-2.0555853843700005,-7.1028308868,7.12817573547,17.026433944699995,-2.099637031559998,-1.9585571289000008
2018-07-30 21:48:18.700,-0.013433851942,-0.303379601077,-0.939028397087,0.151196867228,-0.0559099912643,-0.358189076185,-0.8825985,0.67665885,6.40374245,0.0,-17.329580307,8.27601909637,-1.73830389977,0.151196867228,-0.0559099912643,-0.358189076185,0.759999990463,-195.855712891,-276.053985596,27.830024719199997,-2.0555853843700005,-7.112831115699997,6.95062828064,16.932395935099997,-2.174218893049998,-1.9585571289000008
2018-07-30 21:48:18.750,-0.013433851942,-0.303379601077,-0.939028397087,0.151196867228,-0.0559099912643,-0.358189076185,-0.8825985,0.67665885,6.40374245,0.0,-17.329580307,8.27601909637,-1.73830389977,0.151196867228,-0.0559099912643,-0.358189076185,0.959999978542,-199.4972229,-274.380249023,27.830024719199997,-2.6655855178900003,-9.112831115699997,6.6563005447400005,16.780769348099998,-2.285856246949998,-1.9949722289999983
2018-07-30 21:48:18.800,-0.0145341682478,-0.308049562538,-0.92415741948,-0.10843424499,-0.125500068069,-0.301984548569,-1.18660465,0.73549875,9.7085835,0.0,-16.7283382416,9.44197273254,-2.31790685654,0.151196867228,-0.0559099912643,-0.358189076185,0.959999978542,-199.4972229,-274.380249023,27.830024719199997,-2.67558526993,-9.122831344599998,6.4614229202299995,16.676666259799998,-2.3526813983899983,-1.9949722289999983
2018-07-30 21:48:18.850,-0.0145341682478,-0.308049562538,-0.92415741948,-0.10843424499,-0.125500068069,-0.301984548569,-1.18660465,0.73549875,9.7085835,0.0,-16.7283382416,9.44197273254,-2.31790685654,0.151196867228,-0.0559099912643,-0.358189076185,1.17999994755,-204.067047119,-272.689605713,20.636970520000006,-0.8173470497100004,-11.650648117100001,6.4614229202299995,16.676666259799998,-2.3526813983899983,-1.9949722289999983
2018-07-30 21:48:18.900,-0.0145341682478,-0.308049562538,-0.92415741948,-0.10843424499,-0.125500068069,-0.301984548569,-1.18660465,0.73549875,9.7085835,0.0,-16.7283382416,9.44197273254,-2.31790685654,0.151196867228,-0.0559099912643,-0.358189076185,1.17999994755,-204.067047119,-272.689605713,20.636970520000006,-0.8273468017500001,-11.670646667500002,6.08702087402,16.459386825599996,-2.5027072429699984,-2.040670394900001
2018-07-30 21:48:18.950,-0.0145341682478,-0.308049562538,-0.92415741948,-0.10843424499,-0.125500068069,-0.301984548569,-1.18660465,0.73549875,9.7085835,0.0,-16.7283382416,9.44197273254,-2.31790685654,0.151196867228,-0.0559099912643,-0.358189076185,1.39999997616,-202.346038818,-271.032623291,20.636970520000006,-1.3473467826800007,-13.960647583,5.7263269424,16.239173889199996,-2.688606023789998,-2.0234603882
2018-07-30 21:48:19.000,-0.0145341682478,-0.308049562538,-0.92415741948,-0.10843424499,-0.125500068069,-0.301984548569,-1.18660465,0.73549875,9.7085835,0.0,-16.7283382416,9.44197273254,-2.31790685654,0.151196867228,-0.0559099912643,-0.358189076185,1.39999997616,-202.346038818,-271.032623291,20.636970520000006,-1.3573470115600008,-13.960647583,5.6451797485,16.187686920199997,-2.7376809120199983,-2.0234603882
2018-07-30 21:48:19.050,-0.0145341682478,-0.308049562538,-0.92415741948,-0.10843424499,-0.125500068069,-0.301984548569,-1.18660465,0.73549875,9.7085835,0.0,-16.0933151245,10.5004863739,-2.84407711029,-0.10843424499,-0.125500068069,-0.301984548569,1.64999997616,-201.769256592,-269.401184082,20.636970520000006,-1.627346515650001,-16.080646514900003,5.3501167297,15.994428634599997,-2.9335422515899983,-2.017692565899999
2018-07-30 21:48:19.100,-0.0145341682478,-0.308049562538,-0.92415741948,-0.10843424499,-0.125500068069,-0.301984548569,-1.18660465,0.73549875,9.7085835,0.0,-16.0933151245,10.5004863739,-2.84407711029,-0.10843424499,-0.125500068069,-0.301984548569,1.64999997616,-201.769256592,-269.401184082,20.636970520000006,-1.6373467445300003,-16.0906467438,5.1884040833,15.887492179899997,-3.0169241428399984,-2.017692565899999
2018-07-30 21:48:19.150,-0.0145341682478,-0.308049562538,-0.92415741948,-0.10843424499,-0.125500068069,-0.301984548569,-1.18660465,0.73549875,9.7085835,0.0,-16.0933151245,10.5004863739,-2.84407711029,-0.10843424499,-0.125500068069,-0.301984548569,1.90999996662,-199.672317505,-267.795043945,20.636970520000006,-1.6373467445300003,-16.0906467438,5.017603874200001,15.782524108899997,-3.1008331775699984,-1.9967231749999996
2018-07-30 21:48:19.200,-0.0145341682478,-0.308049562538,-0.92415741948,-0.10843424499,-0.125500068069,-0.301984548569,-1.18660465,0.73549875,9.7085835,0.0,-16.0933151245,10.5004863739,-2.84407711029,-0.10843424499,-0.125500068069,-0.301984548569,1.90999996662,-199.672317505,-267.795043945,20.636970520000006,-1.8973469734200004,-18.250646591200002,4.8604040146,15.687442779499996,-3.175039529799998,-1.9967231749999996
2018-07-30 21:48:19.250,-0.00787333458148,-0.284763349882,-0.915191348693,-0.0132019845769,-0.079803019762,-0.271489292383,-1.1571847,0.59820565,8.91424485,0.0,-16.0933151245,10.5004863739,-2.84407711029,-0.10843424499,-0.125500068069,-0.301984548569,2.19000005722,-198.468963623,-266.231201172,13.8489837646,-0.021768569949999872,-17.131263732900003,4.613907813999999,15.528056144699997,-3.2684228420299983,-1.9846897124999998
2018-07-30 21:48:19.300,-0.00787333458148,-0.284763349882,-0.915191348693,-0.0132019845769,-0.079803019762,-0.271489292383,-1.1571847,0.59820565,8.91424485,0.0,-15.4200372696,11.5500078201,-3.33449006081,-0.0132019845769,-0.079803019762,-0.271489292383,2.19000005722,-198.468963623,-266.231201172,13.8489837646,-0.021768569949999872,-17.131263732900003,4.613907813999999,15.528056144699997,-3.2684228420299983,-1.9846897124999998
2018-07-30 21:48:19.350,-0.00787333458148,-0.284763349882,-0.915191348693,-0.0132019845769,-0.079803019762,-0.271489292383,-1.1571847,0.59820565,8.91424485,0.0,-15.4200372696,11.5500078201,-3.33449006081,-0.0132019845769,-0.079803019762,-0.271489292383,2.49000000954,-203.043945312,-264.675842285,13.8489837646,-0.19176864625000078,-19.4312639236,4.0200223923,15.155731201199997,-3.4451308250399983,-2.0304393768000004
2018-07-30 21:48:19.400,-0.00787333458148,-0.284763349882,-0.915191348693,-0.0132019845769,-0.079803019762,-0.271489292383,-1.1571847,0.59820565,8.91424485,0.0,-15.4200372696,11.5500078201,-3.33449006081,-0.0132019845769,-0.079803019762,-0.271489292383,2.49000000954,-203.043945312,-264.675842285,13.8489837646,-0.21176910401000093,-19.4412631988,4.0200223923,15.155731201199997,-3.4451308250399983,-2.0304393768000004
2018-07-30 21:48:19.450,-0.00787333458148,-0.284763349882,-0.915191348693,-0.0132019845769,-0.079803019762,-0.271489292383,-1.1571847,0.59820565,8.91424485,0.0,-15.4200372696,11.5500078201,-3.33449006081,-0.0132019845769,-0.079803019762,-0.271489292383,2.78999996185,-202.626419067,-263.137329102,13.8489837646,-0.3917684555100003,-21.841263771,4.0200223923,15.155731201199997,-3.4451308250399983,-2.0304393768000004
2018-07-30 21:48:19.500,-0.00787333458148,-0.284763349882,-0.915191348693,-0.0132019845769,-0.079803019762,-0.271489292383,-1.1571847,0.59820565,8.91424485,0.0,-15.4200372696,11.5500078201,-3.33449006081,-0.0132019845769,-0.079803019762,-0.271489292383,2.78999996185,-202.626419067,-263.137329102,13.8489837646,-0.3917684555100003,-21.841263771,3.6215076446999994,14.892362594599996,-3.570687294009998,-2.026264190700001
2018-07-30 21:48:19.550,-0.00787333458148,-0.284763349882,-0.915191348693,-0.0132019845769,-0.079803019762,-0.271489292383,-1.1571847,0.59820565,8.91424485,0.0,-14.7950935364,12.5316791534,-3.61746048927,-0.0132019845769,-0.079803019762,-0.271489292383,3.09999990463,-210.226623535,-261.632659912,13.8489837646,-0.5217685699499999,-24.191263675640002,3.6215076446999994,14.892362594599996,-3.570687294009998,-2.026264190700001
2018-07-30 21:48:19.600,-0.00787333458148,-0.284763349882,-0.915191348693,-0.0132019845769,-0.079803019762,-0.271489292383,-1.1571847,0.59820565,8.91424485,0.0,-14.7950935364,12.5316791534,-3.61746048927,-0.0132019845769,-0.079803019762,-0.271489292383,3.09999990463,-210.226623535,-261.632659912,13.8489837646,-0.5217685699499999,-24.20126342769,3.2412643432999992,14.639926910399996,-3.687871456149998,-2.102266311600001
2018-07-30 21:48:19.650,0.00306703654709,-0.255377308411,-0.904877831495,-0.298278450966,-0.0584362819791,-0.240766391158,-1.18660465,0.36284605,8.20816605,0.0,-14.7950935364,12.5316791534,-3.61746048927,-0.0132019845769,-0.079803019762,-0.271489292383,3.41999983788,-200.281906128,-260.144714355,13.8489837646,-0.7517690658599996,-26.291263580280003,3.0616044997999996,14.507785797099997,-3.8007190227499983,-2.0028190612999985
2018-07-30 21:48:19.700,0.00306703654709,-0.255377308411,-0.904877831495,-0.298278450966,-0.0584362819791,-0.240766391158,-1.18660465,0.36284605,8.20816605,0.0,-14.7950935364,12.5316791534,-3.61746048927,-0.0132019845769,-0.079803019762,-0.271489292383,3.41999983788,-200.281906128,-260.144714355,7.3266525268999985,1.0597171783300006,-22.07356405262,2.8806571959999996,14.369396209699996,-3.910015583039998,-2.0028190612999985
2018-07-30 21:48:19.750,0.00306703654709,-0.255377308411,-0.904877831495,-0.298278450966,-0.0584362819791,-0.240766391158,-1.18660465,0.36284605,8.20816605,0.0,-14.2408018112,13.3059930801,-3.96823000908,-0.298278450966,-0.0584362819791,-0.240766391158,3.75999999046,-193.390472412,-258.690795898,7.3266525268999985,0.8197174072099997,-23.9435641766,2.7595911026,14.287385940599997,-3.954317808149998,-1.9339046477999986
2018-07-30 21:48:19.800,0.00306703654709,-0.255377308411,-0.904877831495,-0.298278450966,-0.0584362819791,-0.240766391158,-1.18660465,0.36284605,8.20816605,0.0,-14.2408018112,13.3059930801,-3.96823000908,-0.298278450966,-0.0584362819791,-0.240766391158,3.75999999046,-193.390472412,-258.690795898,7.3266525268999985,0.7897167205700004,-23.953564167059998,2.5801658629999995,14.167268753099997,-4.004759311679998,-1.9339046477999986
2018-07-30 21:48:19.850,0.00306703654709,-0.255377308411,-0.904877831495,-0.298278450966,-0.0584362819791,-0.240766391158,-1.18660465,0.36284605,8.20816605,0.0,-14.2408018112,13.3059930801,-3.96823000908,-0.298278450966,-0.0584362819791,-0.240766391158,4.09999990463,-198.173339844,-257.245300293,7.3266525268999985,0.5997171401799992,-25.75356411938,2.402053833,14.050081253099997,-4.0094895362899985,-1.9817333220999984
2018-07-30 21:48:19.900,0.00306703654709,-0.255377308411,-0.904877831495,-0.298278450966,-0.0584362819791,-0.240766391158,-1.18660465,0.36284605,8.20816605,0.0,-14.2408018112,13.3059930801,-3.96823000908,-0.298278450966,-0.0584362819791,-0.240766391158,4.09999990463,-198.173339844,-257.245300293,7.3266525268999985,0.5797166824200009,-25.76356410984,2.3065223693999997,13.988886833199997,-4.048994541169998,-1.9817333220999984
2018-07-30 21:48:19.950,0.00306703654709,-0.255377308411,-0.904877831495,-0.298278450966,-0.0584362819791,-0.240766391158,-1.18660465,0.36284605,8.20816605,0.0,-14.2408018112,13.3059930801,-3.96823000908,-0.298278450966,-0.0584362819791,-0.240766391158,4.44999980927,-202.90814209,-255.825149536,7.3266525268999985,0.3997173309199997,-27.323563993016,2.1830387115,13.891218185399996,-4.133495807649998,-2.0290813446000016
2018-07-30 21:48:20.000,0.00306703654709,-0.255377308411,-0.904877831495,-0.298278450966,-0.0584362819791,-0.240766391158,-1.18660465,0.36284605,8.20816605,0.0,-13.8336353302,13.894317627,-4.18694877625,-0.298278450966,-0.0584362819791,-0.240766391158,4.44999980927,-202.90814209,-255.825149536,7.3266525268999985,0.37971687315000047,-27.323563993016,2.1464653014999993,13.865180969199997,-4.1701011657699985,-2.0290813446000016
2018-07-30 21:48:20.050,0.00306703654709,-0.255377308411,-0.904877831495,-0.298278450966,-0.0584362819791,-0.240766391158,-1.18660465,0.36284605,8.20816605,0.0,-13.8336353302,13.894317627,-4.18694877625,-0.298278450966,-0.0584362819791,-0.240766391158,4.7999997139,-214.354522705,-254.430374146,7.3266525268999985,0.25971698759999917,-28.603563964406,1.9776067733999998,13.735317230199996,-4.2341260909999985,-2.1435451508000014
2018-07-30 21:48:20.100,0.0485115868463,-0.151314215021,-0.908850778534,-0.35279738903,-0.0487482175231,-0.155975371599,-1.4317709,-0.20593965,8.95347145,0.0,-13.8336353302,13.894317627,-4.18694877625,-0.298278450966,-0.0584362819791,-0.240766391158,4.7999997139,-214.354522705,-254.430374146,7.3266525268999985,0.25971698759999917,-28.603563964406,1.9776067733999998,13.735317230199996,-4.2341260909999985,-2.1435451508000014
2018-07-30 21:48:20.150,0.0485115868463,-0.151314215021,-0.908850778534,-0.35279738903,-0.0487482175231,-0.155975371599,-1.4317709,-0.20593965,8.95347145,0.0,-13.8336353302,13.894317627,-4.18694877625,-0.298278450966,-0.0584362819791,-0.240766391158,5.17000007629,-225.016967773,-253.035430908,1.474384307900003,1.7333002089999994,-14.770435035206,1.8520555495999993,13.651588439899996,-4.240182876589998,-2.2501697540000016
2018-07-30 21:48:20.200,0.0485115868463,-0.151314215021,-0.908850778534,-0.35279738903,-0.0487482175231,-0.155975371599,-1.4317709,-0.20593965,8.95347145,0.0,-13.8336353302,13.894317627,-4.18694877625,-0.298278450966,-0.0584362819791,-0.240766391158,5.17000007629,-225.016967773,-253.035430908,1.474384307900003,1.6933002471999998,-16.04043507574,1.7309141158999992,13.563196182299997,-4.331164836879998,-2.2501697540000016
2018-07-30 21:48:20.250,0.0485115868463,-0.151314215021,-0.908850778534,-0.35279738903,-0.0487482175231,-0.155975371599,-1.4317709,-0.20593965,8.95347145,0.0,-13.5158596039,14.3395795822,-4.40378522873,-0.35279738903,-0.0487482175231,-0.155975371599,5.5499997139,-227.503387451,-251.640670776,1.474384307900003,1.6433010101,-16.96043491361,1.6604204177999993,13.515859603899996,-4.403785228729999,-2.275033950800001
2018-07-30 21:48:20.300,0.0485115868463,-0.151314215021,-0.908850778534,-0.35279738903,-0.0487482175231,-0.155975371599,-1.4317709,-0.20593965,8.95347145,0.0,-13.5158596039,14.3395795822,-4.40378522873,-0.35279738903,-0.0487482175231,-0.155975371599,5.5499997139,-227.503387451,-251.640670776,1.474384307900003,1.6433010101,-16.96043491361,1.6287364960000001,13.495721816999996,-4.398272991179998,-2.275033950800001
2018-07-30 21:48:20.350,0.0485115868463,-0.151314215021,-0.908850778534,-0.35279738903,-0.0487482175231,-0.155975371599,-1.4317709,-0.20593965,8.95347145,0.0,-13.5158596039,14.3395795822,-4.40378522873,-0.35279738903,-0.0487482175231,-0.155975371599,5.94000005722,-235.420043945,-250.254364014,1.474384307900003,1.6733007430999987,-17.73043489454,1.5065612792999996,13.456394195599996,-4.332868099209998,-2.3542003632000004
2018-07-30 21:48:20.400,0.0485115868463,-0.151314215021,-0.908850778534,-0.35279738903,-0.0487482175231,-0.155975371599,-1.4317709,-0.20593965,8.95347145,0.0,-13.5158596039,14.3395795822,-4.40378522873,-0.35279738903,-0.0487482175231,-0.155975371599,5.94000005722,-235.420043945,-250.254364014,1.474384307900003,1.6733007430999987,-18.16043519971,1.4744014740000004,13.443335533099997,-4.309519290919998,-2.3542003632000004
2018-07-30 21:48:20.450,0.0485115868463,-0.151314215021,-0.908850778534,-0.35279738903,-0.0487482175231,-0.155975371599,-1.4317709,-0.20593965,8.95347145,0.0,-13.5158596039,14.3395795822,-4.40378522873,-0.35279738903,-0.0487482175231,-0.155975371599,6.31999969482,-254.687683105,-248.867950439,1.474384307900003,1.7633008956999987,-18.36043500898,1.4744014740000004,13.443335533099997,-4.309519290919998,-2.3542003632000004
2018-07-30 21:48:20.500,0.0646755857217,-0.0992680029308,-0.910945266237,-0.317932248116,-0.0325761511922,-0.0572916567326,-1.2552512,0.4511059,10.40485565,0.0,-13.4033050537,14.6964845657,-4.12334442139,-0.317932248116,-0.0325761511922,-0.0572916567326,6.31999969482,-254.687683105,-248.867950439,-0.14559555049999773,1.259675979699999,-11.91347646713,1.3314323424999994,13.407915115399996,-4.167230129239998,-2.5468769072999997
2018-07-30 21:48:20.550,0.0646755857217,-0.0992680029308,-0.910945266237,-0.317932248116,-0.0325761511922,-0.0572916567326,-1.2552512,0.4511059,10.40485565,0.0,-13.4033050537,14.6964845657,-4.12334442139,-0.317932248116,-0.0325761511922,-0.0572916567326,6.67999982834,-282.688537598,-247.481613159,-0.14559555049999773,1.4396753311600001,-12.5634765625,1.2047290802,13.392118453999997,-3.944216728209998,-2.8268852234000015
2018-07-30 21:48:20.600,0.0646755857217,-0.0992680029308,-0.910945266237,-0.317932248116,-0.0325761511922,-0.0572916567326,-1.2552512,0.4511059,10.40485565,0.0,-13.4033050537,14.6964845657,-4.12334442139,-0.317932248116,-0.0325761511922,-0.0572916567326,6.67999982834,-282.688537598,-247.481613159,-0.14559555049999773,1.4396753311600001,-12.5634765625,1.2047290802,13.392118453999997,-3.944216728209998,-2.8268852234000015
2018-07-30 21:48:20.650,0.0646755857217,-0.0992680029308,-0.910945266237,-0.317932248116,-0.0325761511922,-0.0572916567326,-1.2552512,0.4511059,10.40485565,0.0,-13.4033050537,14.6964845657,-4.12334442139,-0.317932248116,-0.0325761511922,-0.0572916567326,7.01999998093,-301.22833252,-246.095291138,-0.14559555049999773,1.59967613225,-13.16347646713,1.0993776320999995,13.378197669999997,-3.7652535438499983,-3.0122833251999985
2018-07-30 21:48:20.700,0.0646755857217,-0.0992680029308,-0.910945266237,-0.317932248116,-0.0325761511922,-0.0572916567326,-1.2552512,0.4511059,10.40485565,0.0,-13.4033050537,14.6964845657,-4.12334442139,-0.317932248116,-0.0325761511922,-0.0572916567326,7.01999998093,-301.22833252,-246.095291138,-0.14559555049999773,1.59967613225,-13.16347646713,1.0356760025000007,13.369542121899997,-3.680642366409998,-3.0122833251999985
2018-07-30 21:48:20.750,0.0646755857217,-0.0992680029308,-0.910945266237,-0.317932248116,-0.0325761511922,-0.0572916567326,-1.2552512,0.4511059,10.40485565,0.0,-13.3673191071,14.9858207703,-3.64097237587,-0.317932248116,-0.0325761511922,-0.0572916567326,7.33999967575,-307.697479248,-244.725875854,-0.14559555049999773,1.6896753311600001,-13.633476257320002,0.9750671387000001,13.364804267899997,-3.586667060849998,-3.0769748688000007
2018-07-30 21:48:20.800,0.0646755857217,-0.0992680029308,-0.910945266237,-0.317932248116,-0.0325761511922,-0.0572916567326,-1.2552512,0.4511059,10.40485565,0.0,-13.3673191071,14.9858207703,-3.64097237587,-0.317932248116,-0.0325761511922,-0.0572916567326,7.33999967575,-307.697479248,-244.725875854,-0.14559555049999773,1.6896753311600001,-13.633476257320002,0.9619064330999993,13.373188972499996,-3.5651652812999983,-3.0769748688000007
2018-07-30 21:48:20.850,0.0707701414306,-0.0647465479284,-0.912592057982,-0.145916700363,-0.0518621318042,0.028935931623,-1.42196425,-0.00980665,11.4345539,0.0,-13.3673191071,14.9858207703,-3.64097237587,-0.317932248116,-0.0325761511922,-0.0572916567326,7.64999961853,-310.996063232,-243.314056396,-0.14559555049999773,1.7096757889200003,-13.92347621917,0.8990974426000005,13.379218101499996,-3.435758590699998,-3.1099605560000008
2018-07-30 21:48:20.900,0.0707701414306,-0.0647465479284,-0.912592057982,-0.145916700363,-0.0518621318042,0.028935931623,-1.42196425,-0.00980665,11.4345539,0.0,-13.3673191071,14.9858207703,-3.64097237587,-0.317932248116,-0.0325761511922,-0.0572916567326,7.64999961853,-310.996063232,-243.314056396,-0.7403106689000012,0.7968654632200014,-9.93934082985,0.8743276596000005,13.388356208799996,-3.372596502299998,-3.1099605560000008
2018-07-30 21:48:20.950,0.0707701414306,-0.0647465479284,-0.912592057982,-0.145916700363,-0.0518621318042,0.028935931623,-1.42196425,-0.00980665,11.4345539,0.0,-13.3673191071,14.9858207703,-3.64097237587,-0.317932248116,-0.0325761511922,-0.0572916567326,7.64999961853,-310.996063232,-243.314056396,-0.7403106689000012,0.7968654632200014,-9.93934082985,0.8743276596000005,13.388356208799996,-3.372596502299998,-3.1099605560000008
2018-07-30 21:48:21.000,0.0707701414306,-0.0647465479284,-0.912592057982,-0.145916700363,-0.0518621318042,0.028935931623,-1.42196425,-0.00980665,11.4345539,0.0,-13.4244756699,15.169093132,-3.22489690781,-0.145916700363,-0.0518621318042,0.028935931623,7.94000005722,-310.733215332,-241.936203003,-0.7403106689000012,0.756865501370001,-10.10934090614,0.8309068679999996,13.424475669899996,-3.224896907809998,-3.1073322296000008
2018-07-30 21:48:21.050,0.0707701414306,-0.0647465479284,-0.912592057982,-0.145916700363,-0.0518621318042,0.028935931623,-1.42196425,-0.00980665,11.4345539,0.0,-13.4244756699,15.169093132,-3.22489690781,-0.145916700363,-0.0518621318042,0.028935931623,8.21000003815,-311.017028809,-240.532989502,-0.7403106689000012,0.586865425080001,-10.12934088707,0.8309068679999996,13.424475669899996,-3.224896907809998,-3.1073322296000008
2018-07-30 21:48:21.100,0.0707701414306,-0.0647465479284,-0.912592057982,-0.145916700363,-0.0518621318042,0.028935931623,-1.42196425,-0.00980665,11.4345539,0.0,-13.4244756699,15.169093132,-3.22489690781,-0.145916700363,-0.0518621318042,0.028935931623,8.21000003815,-311.017028809,-240.532989502,-0.7403106689000012,0.586865425080001,-10.12934088707,0.8127450943000003,13.455495834399997,-3.140509366989998,-3.1101703643999983
2018-07-30 21:48:21.150,0.0707701414306,-0.0647465479284,-0.912592057982,-0.145916700363,-0.0518621318042,0.028935931623,-1.42196425,-0.00980665,11.4345539,0.0,-13.4244756699,15.169093132,-3.22489690781,-0.145916700363,-0.0518621318042,0.028935931623,8.47999954224,-309.365081787,-239.1381073,-0.7403106689000012,0.34686565400000013,-10.05934071541,0.8094787597999993,13.479005813599997,-3.089676618579998,-3.0936508178999986
2018-07-30 21:48:21.200,0.0707701414306,-0.0647465479284,-0.912592057982,-0.145916700363,-0.0518621318042,0.028935931623,-1.42196425,-0.00980665,11.4345539,0.0,-13.4244756699,15.169093132,-3.22489690781,-0.145916700363,-0.0518621318042,0.028935931623,8.47999954224,-309.365081787,-239.1381073,-0.7403106689000012,0.34686565400000013,-10.05934071541,0.8199691772000008,13.508680343599996,-3.065950155259998,-3.0936508178999986
2018-07-30 21:48:21.250,0.0811808104828,-0.0275168627536,-0.916850219125,-0.196927055717,-0.00552348233759,0.0357691384852,-1.5102241,-0.20593965,9.77723005,0.0,-13.5168781281,15.1756095886,-3.07374000549,-0.145916700363,-0.0518621318042,0.028935931623,8.75,-294.12020874,-237.72644043,-0.7403106689000012,0.40686511990000085,-9.799340963359999,0.8341722487999998,13.530683517499996,-3.0883638858799984,-2.9412021637000016
2018-07-30 21:48:21.300,0.0811808104828,-0.0275168627536,-0.916850219125,-0.196927055717,-0.00552348233759,0.0357691384852,-1.5102241,-0.20593965,9.77723005,0.0,-13.5168781281,15.1756095886,-3.07374000549,-0.145916700363,-0.0518621318042,0.028935931623,8.75,-294.12020874,-237.72644043,-0.14254379270000328,-0.19357013702000003,-5.442783296108,0.8514528274999993,13.558443069499996,-3.0793962478599983,-2.9412021637000016
2018-07-30 21:48:21.350,0.0811808104828,-0.0275168627536,-0.916850219125,-0.196927055717,-0.00552348233759,0.0357691384852,-1.5102241,-0.20593965,9.77723005,0.0,-13.5168781281,15.1756095886,-3.07374000549,-0.145916700363,-0.0518621318042,0.028935931623,9.01999950409,-284.237304688,-236.33152771,-0.14254379270000328,0.19643020630000052,-5.132782876488,0.8734760284000007,13.587273597699996,-3.0977668762199984,-2.8423728942999986
2018-07-30 21:48:21.400,0.0811808104828,-0.0275168627536,-0.916850219125,-0.196927055717,-0.00552348233759,0.0357691384852,-1.5102241,-0.20593965,9.77723005,0.0,-13.5168781281,15.1756095886,-3.07374000549,-0.145916700363,-0.0518621318042,0.028935931623,9.01999950409,-284.237304688,-236.33152771,-0.14254379270000328,0.19643020630000052,-5.132782876488,0.8734760284000007,13.587273597699996,-3.0977668762199984,-2.8423728942999986
2018-07-30 21:48:21.450,0.0811808104828,-0.0275168627536,-0.916850219125,-0.196927055717,-0.00552348233759,0.0357691384852,-1.5102241,-0.20593965,9.77723005,0.0,-13.5168781281,15.1756095886,-3.07374000549,-0.145916700363,-0.0518621318042,0.028935931623,9.30000019073,-280.19140625,-234.919876099,-0.14254379270000328,0.5664300918599992,-4.692783296108,0.9436492919999999,13.655812263499996,-3.138823509219998,-2.8019142150999983
2018-07-30 21:48:21.500,0.0811808104828,-0.0275168627536,-0.916850219125,-0.196927055717,-0.00552348233759,0.0357691384852,-1.5102241,-0.20593965,9.77723005,0.0,-13.6751375198,15.0347309113,-3.15684366226,-0.196927055717,-0.00552348233759,0.0357691384852,9.30000019073,-280.19140625,-234.919876099,-0.14254379270000328,0.5664300918599992,-4.692783296108,0.9436492919999999,13.655812263499996,-3.138823509219998,-2.8019142150999983
2018-07-30 21:48:21.550,0.0811808104828,-0.0275168627536,-0.916850219125,-0.196927055717,-0.00552348233759,0.0357691384852,-1.5102241,-0.20593965,9.77723005,0.0,-13.6751375198,15.0347309113,-3.15684366226,-0.196927055717,-0.00552348233759,0.0357691384852,9.30000019073,-280.19140625,-234.919876099,-0.14254379270000328,0.5664300918599992,-4.692783296108,0.9820289611999993,13.696439742999997,-3.1725604534099983,-2.8019142150999983
2018-07-30 21:48:21.600,0.0811808104828,-0.0275168627536,-0.916850219125,-0.196927055717,-0.00552348233759,0.0357691384852,-1.5102241,-0.20593965,9.77723005,0.0,-13.6751375198,15.0347309113,-3.15684366226,-0.196927055717,-0.00552348233759,0.0357691384852,9.57999992371,-266.849700928,-233.525115967,-0.14254379270000328,0.8464298248300004,-4.232783257958,1.0244712830000005,13.735855102499997,-3.1856496334099984,-2.6684970855999985
2018-07-30 21:48:21.650,0.0811808104828,-0.0275168627536,-0.916850219125,-0.196927055717,-0.00552348233759,0.0357691384852,-1.5102241,-0.20593965,9.77723005,0.0,-13.6751375198,15.0347309113,-3.15684366226,-0.196927055717,-0.00552348233759,0.0357691384852,9.85999965668,-257.460784912,-232.104888916,-0.14254379270000328,1.13642978669,-3.692783296108,1.0736389160000002,13.779947280899997,-3.227503776549998,-2.5746078491000013
2018-07-30 21:48:21.700,0.0811808104828,-0.0275168627536,-0.916850219125,-0.196927055717,-0.00552348233759,0.0357691384852,-1.5102241,-0.20593965,9.77723005,0.0,-13.6751375198,15.0347309113,-3.15684366226,-0.196927055717,-0.00552348233759,0.0357691384852,9.85999965668,-257.460784912,-232.104888916,-0.14254379270000328,1.13642978669,-3.692783296108,1.1123027802000003,13.818284988399997,-3.2502188682599984,-2.5746078491000013
2018-07-30 21:48:21.750,0.0935317574919,-0.00353260518692,-0.91848788859,-0.0309682786465,0.0145732294768,0.0141942258924,-1.3533177,0.20593965,9.0613446,0.0,-13.8387451172,14.869011879,-3.24853181839,-0.196927055717,-0.00552348233759,0.0357691384852,10.1599998474,-254.288482666,-230.684768677,-0.14254379270000328,1.4264297485400004,-3.182783067228,1.1440753936999997,13.852473258999996,-3.2377789020499983,-2.5428848267
2018-07-30 21:48:21.800,0.0935317574919,-0.00353260518692,-0.91848788859,-0.0309682786465,0.0145732294768,0.0141942258924,-1.3533177,0.20593965,9.0613446,0.0,-13.8387451172,14.869011879,-3.24853181839,-0.196927055717,-0.00552348233759,0.0357691384852,10.1599998474,-254.288482666,-230.684768677,0.2649726868000002,1.6713151931599999,-0.1226439476000003,1.1696472167999996,13.881564140299997,-3.2326979637099984,-2.5428848267
2018-07-30 21:48:21.850,0.0935317574919,-0.00353260518692,-0.91848788859,-0.0309682786465,0.0145732294768,0.0141942258924,-1.3533177,0.20593965,9.0613446,0.0,-13.8387451172,14.869011879,-3.24853181839,-0.196927055717,-0.00552348233759,0.0357691384852,10.4499998093,-257.135192871,-229.24760437,0.2649726868000002,2.0513153075999995,0.42735600472,1.2120475768999999,13.933235400099873,-3.208380460739998,-2.5713520050000014
2018-07-30 21:48:21.900,0.0935317574919,-0.00353260518692,-0.91848788859,-0.0309682786465,0.0145732294768,0.0141942258924,-1.3533177,0.20593965,9.0613446,0.0,-13.8387451172,14.869011879,-3.24853181839,-0.196927055717,-0.00552348233759,0.0357691384852,10.4499998093,-257.135192871,-229.24760437,0.2649726868000002,2.0513153075999995,0.42735600472,1.2554035186999997,13.979203455799874,-3.225277662279998,-2.5713520050000014
2018-07-30 21:48:21.950,0.0935317574919,-0.00353260518692,-0.91848788859,-0.0309682786465,0.0145732294768,0.0141942258924,-1.3533177,0.20593965,9.0613446,0.0,-13.8387451172,14.869011879,-3.24853181839,-0.196927055717,-0.00552348233759,0.0357691384852,10.4499998093,-257.135192871,-229.24760437,0.2649726868000002,2.0513153075999995,0.42735600472,1.2554035186999997,13.979203455799874,-3.225277662279998,-2.5713520050000014
2018-07-30 21:48:22.000,0.0935317574919,-0.00353260518692,-0.91848788859,-0.0309682786465,0.0145732294768,0.0141942258924,-1.3533177,0.20593965,9.0613446,0.0,-14.0545845032,14.6672182083,-3.21856284142,-0.0309682786465,0.0145732294768,0.0141942258924,10.75,-257.866271973,-227.819030762,0.2649726868000002,2.4213156699999994,0.9473559856399998,1.3156137466000004,14.037966959799874,-3.2239568233499982,-2.5786628723000007
2018-07-30 21:48:22.050,0.0935317574919,-0.00353260518692,-0.91848788859,-0.0309682786465,0.0145732294768,0.0141942258924,-1.3533177,0.20593965,9.0613446,0.0,-14.0545845032,14.6672182083,-3.21856284142,-0.0309682786465,0.0145732294768,0.0141942258924,10.75,-257.866271973,-227.819030762,0.2649726868000002,2.4213156699999994,0.9473559856399998,1.3156137466000004,14.037966959799874,-3.2239568233499982,-2.5786628723000007
2018-07-30 21:48:22.100,0.0935317574919,-0.00353260518692,-0.91848788859,-0.0309682786465,0.0145732294768,0.0141942258924,-1.3533177,0.20593965,9.0613446,0.0,-14.0545845032,14.6672182083,-3.21856284142,-0.0309682786465,0.0145732294768,0.0141942258924,11.0500001907,-258.538635254,-226.373565674,0.2649726868000002,2.851315498329999,1.46735596657,1.3847179413,14.10937927291979,-3.2209637165099982,-2.5853862762000013
2018-07-30 21:48:22.150,0.0922795977327,-0.00354413544865,-0.921439907247,0.0111524816602,-0.0211896933615,0.0631557106972,-1.48080415,-0.0784532,10.0812362,0.0,-14.0545845032,14.6672182083,-3.21856284142,-0.0309682786465,0.0145732294768,0.0141942258924,11.3499994278,-251.580627441,-224.938232422,1.1359291077000009,3.1368889808700002,1.83414316177,1.4243469238,14.149430733219791,-3.197336196899998,-2.5158061981000017
2018-07-30 21:48:22.200,0.0922795977327,-0.00354413544865,-0.921439907247,0.0111524816602,-0.0211896933615,0.0631557106972,-1.48080415,-0.0784532,10.0812362,0.0,-14.197602272,14.5252990723,-3.17187047005,0.0111524816602,-0.0211896933615,0.0631557106972,11.3499994278,-251.580627441,-224.938232422,1.1359291077000009,3.1368889808700002,1.83414316177,1.4747009277000007,14.19895027201979,-3.1718704700499982,-2.5158061981000017
2018-07-30 21:48:22.250,0.0922795977327,-0.00354413544865,-0.921439907247,0.0111524816602,-0.0211896933615,0.0631557106972,-1.48080415,-0.0784532,10.0812362,0.0,-14.197602272,14.5252990723,-3.17187047005,0.0111524816602,-0.0211896933615,0.0631557106972,11.3499994278,-251.580627441,-224.938232422,1.1359291077000009,3.1368889808700002,1.83414316177,1.4747009277000007,14.19895027201979,-3.1718704700499982,-2.5158061981000017
2018-07-30 21:48:22.300,0.0922795977327,-0.00354413544865,-0.921439907247,0.0111524816602,-0.0211896933615,0.0631557106972,-1.48080415,-0.0784532,10.0812362,0.0,-14.197602272,14.5252990723,-3.17187047005,0.0111524816602,-0.0211896933615,0.0631557106972,11.6399993896,-253.039733887,-223.484207153,1.1359291077000009,3.5368890762400005,2.3741431236199997,1.5366678238000002,14.26190326731979,-3.1366825103799982,-2.5303974151999995
2018-07-30 21:48:22.350,0.0922795977327,-0.00354413544865,-0.921439907247,0.0111524816602,-0.0211896933615,0.0631557106972,-1.48080415,-0.0784532,10.0812362,0.0,-14.197602272,14.5252990723,-3.17187047005,0.0111524816602,-0.0211896933615,0.0631557106972,11.9299993515,-248.400115967,-222.143951416,1.1359291077000009,3.8768892288300005,3.314143091437,1.6030778884999997,14.381740376365,-3.081230163569998,-2.4840011597
2018-07-30 21:48:22.400,0.0861963482855,-0.000130934716476,-0.925038089528,0.0326993428171,-0.0432793237269,0.0498428121209,-1.4121576,-0.28439285,10.5519554,0.0,-14.197602272,14.5252990723,-3.17187047005,0.0111524816602,-0.0211896933615,0.0631557106972,11.9299993515,-248.400115967,-222.143951416,1.1359291077000009,3.8768892288300005,3.314143091437,1.6166448592999991,14.392958447365,-3.0526437759399982,-2.4840011597
2018-07-30 21:48:22.450,0.0861963482855,-0.000130934716476,-0.925038089528,0.0326993428171,-0.0432793237269,0.0498428121209,-1.4121576,-0.28439285,10.5519554,0.0,-14.3754806519,14.3354845047,-3.01443743706,0.0326993428171,-0.0432793237269,0.0498428121209,12.2199993134,-258.029754639,-220.684707642,2.1060409545999974,3.53174638748,3.880211532116,1.6643991469999992,14.436473652765,-3.014437437059998,-2.5802974700999997
2018-07-30 21:48:22.500,0.0861963482855,-0.000130934716476,-0.925038089528,0.0326993428171,-0.0432793237269,0.0498428121209,-1.4121576,-0.28439285,10.5519554,0.0,-14.3754806519,14.3354845047,-3.01443743706,0.0326993428171,-0.0432793237269,0.0498428121209,12.2199993134,-258.029754639,-220.684707642,2.1060409545999974,3.53174638748,3.880211532116,1.6643991469999992,14.436473652765,-3.014437437059998,-2.5802974700999997
2018-07-30 21:48:22.550,0.0861963482855,-0.000130934716476,-0.925038089528,0.0326993428171,-0.0432793237269,0.0498428121209,-1.4121576,-0.28439285,10.5519554,0.0,-14.3754806519,14.3354845047,-3.01443743706,0.0326993428171,-0.0432793237269,0.0498428121209,12.5,-265.827178955,-219.435028076,2.1060409545999974,4.001746654510001,5.32021152973,1.7469682694,14.642333418087,-2.9199082851399982,-2.6582717896000005
2018-07-30 21:48:22.600,0.0861963482855,-0.000130934716476,-0.925038089528,0.0326993428171,-0.0432793237269,0.0498428121209,-1.4121576,-0.28439285,10.5519554,0.0,-14.3754806519,14.3354845047,-3.01443743706,0.0326993428171,-0.0432793237269,0.0498428121209,12.5,-265.827178955,-219.435028076,2.1060409545999974,4.001746654510001,5.32021152973,1.7901048659999983,14.672886282187001,-2.8534829616499984,-2.6582717896000005
2018-07-30 21:48:22.650,0.0861963482855,-0.000130934716476,-0.925038089528,0.0326993428171,-0.0432793237269,0.0498428121209,-1.4121576,-0.28439285,10.5519554,0.0,-14.3754806519,14.3354845047,-3.01443743706,0.0326993428171,-0.0432793237269,0.0498428121209,12.7599992752,-267.419616699,-217.955612183,2.1060409545999974,4.4417467117300005,5.84021139145,1.837336540199999,14.705397993287,-2.801202058789998,-2.674196243299999
2018-07-30 21:48:22.700,0.0861963482855,-0.000130934716476,-0.925038089528,0.0326993428171,-0.0432793237269,0.0498428121209,-1.4121576,-0.28439285,10.5519554,0.0,-14.3754806519,14.3354845047,-3.01443743706,0.0326993428171,-0.0432793237269,0.0498428121209,12.7599992752,-267.419616699,-217.955612183,2.1060409545999974,4.4417467117300005,5.84021139145,1.837336540199999,14.705397993287,-2.801202058789998,-2.674196243299999
2018-07-30 21:48:22.750,0.0722932648432,-0.00966281004173,-0.927246421461,0.107164204121,-0.0706477984786,0.0200051981956,-1.28467115,0.1765197,10.0616229,0.0,-14.5233106613,14.1357984543,-2.77190947533,0.0326993428171,-0.0432793237269,0.0498428121209,13.029999733,-270.840820312,-216.476196289,2.6387443542,3.8052802085899993,4.61671996117,1.9057054519999994,14.742424398687,-2.7073192596399984,-2.7084083557000014
2018-07-30 21:48:22.800,0.0722932648432,-0.00966281004173,-0.927246421461,0.107164204121,-0.0706477984786,0.0200051981956,-1.28467115,0.1765197,10.0616229,0.0,-14.5233106613,14.1357984543,-2.77190947533,0.0326993428171,-0.0432793237269,0.0498428121209,13.029999733,-270.840820312,-216.476196289,2.6387443542,3.8052802085899993,4.61671996117,1.9298896789999986,14.752996832087,-2.682738304139998,-2.7084083557000014
2018-07-30 21:48:22.850,0.0722932648432,-0.00966281004173,-0.927246421461,0.107164204121,-0.0706477984786,0.0200051981956,-1.28467115,0.1765197,10.0616229,0.0,-14.5233106613,14.1357984543,-2.77190947533,0.0326993428171,-0.0432793237269,0.0498428121209,13.279999733,-264.450653076,-215.15965271,3.6387443542,4.15528035164,5.66671991348,1.955493927000001,14.870244860679001,-2.606703996659998,-2.6445064545
2018-07-30 21:48:22.900,0.0722932648432,-0.00966281004173,-0.927246421461,0.107164204121,-0.0706477984786,0.0200051981956,-1.28467115,0.1765197,10.0616229,0.0,-14.5233106613,14.1357984543,-2.77190947533,0.0326993428171,-0.0432793237269,0.0498428121209,13.279999733,-264.450653076,-215.15965271,3.6387443542,4.15528035164,5.66671991348,1.9661149979,14.872147440879,-2.5971686840099983,-2.6445064545
2018-07-30 21:48:22.950,0.0722932648432,-0.00966281004173,-0.927246421461,0.107164204121,-0.0706477984786,0.0200051981956,-1.28467115,0.1765197,10.0616229,0.0,-14.5688962936,13.9944581985,-2.48593950272,0.107164204121,-0.0706477984786,0.0200051981956,13.5199995041,-266.264526367,-213.671157837,3.6387443542,4.50528025627,5.8567199707,1.994622230500001,14.876155734079001,-2.512222766879998,-2.662645340000001
2018-07-30 21:48:23.000,0.0722932648432,-0.00966281004173,-0.927246421461,0.107164204121,-0.0706477984786,0.0200051981956,-1.28467115,0.1765197,10.0616229,0.0,-14.5688962936,13.9944581985,-2.48593950272,0.107164204121,-0.0706477984786,0.0200051981956,13.5199995041,-266.264526367,-213.671157837,3.6387443542,4.50528025627,5.86671996117,2.0150651932,14.881981730479001,-2.4552187919599984,-2.662645340000001
2018-07-30 21:48:23.050,0.0722932648432,-0.00966281004173,-0.927246421461,0.107164204121,-0.0706477984786,0.0200051981956,-1.28467115,0.1765197,10.0616229,0.0,-14.5688962936,13.9944581985,-2.48593950272,0.107164204121,-0.0706477984786,0.0200051981956,13.7599992752,-276.842102051,-213.08531189,6.6387443542,4.8652801513699995,11.28672003746,2.0016975403000004,15.69842576978,-2.289836168289998,-2.7684211730999984
2018-07-30 21:48:23.100,0.0553797840054,-0.0236006175753,-0.929035825836,0.144749447703,-0.0849687308073,0.0429508723319,-1.24544455,0.22555295,11.5522337,0.0,-14.5688962936,13.9944581985,-2.48593950272,0.107164204121,-0.0706477984786,0.0200051981956,13.7599992752,-276.842102051,-213.08531189,6.6387443542,4.8652801513699995,11.28672003746,2.0096473693999997,15.70299005508,-2.253177165989998,-2.7684211730999984
2018-07-30 21:48:23.150,0.0553797840054,-0.0236006175753,-0.929035825836,0.144749447703,-0.0849687308073,0.0429508723319,-1.24544455,0.22555295,11.5522337,0.0,-14.5688962936,13.9944581985,-2.48593950272,0.107164204121,-0.0706477984786,0.0200051981956,13.9699993134,-282.434082031,-211.530044556,7.1077346801999965,4.04965591431,9.112745463846,2.0249166488999997,15.68813943858,-2.146601915359998,-2.8243408203000016
2018-07-30 21:48:23.200,0.0553797840054,-0.0236006175753,-0.929035825836,0.144749447703,-0.0849687308073,0.0429508723319,-1.24544455,0.22555295,11.5522337,0.0,-14.5451316833,13.9087114334,-2.08966112137,0.144749447703,-0.0849687308073,0.0429508723319,13.9699993134,-282.434082031,-211.530044556,7.1077346801999965,4.04965591431,9.122745692726,2.0562076569,15.66128206248,-2.073356389999998,-2.8243408203000016
2018-07-30 21:48:23.250,0.0553797840054,-0.0236006175753,-0.929035825836,0.144749447703,-0.0849687308073,0.0429508723319,-1.24544455,0.22555295,11.5522337,0.0,-14.5451316833,13.9087114334,-2.08966112137,0.144749447703,-0.0849687308073,0.0429508723319,14.1700000763,-278.602783203,-209.982406616,7.1077346801999965,4.3296558857,9.112745463846,2.0707178116,15.64573431018,-2.060778856279998,-2.7860279082999995
2018-07-30 21:48:23.300,0.0553797840054,-0.0236006175753,-0.929035825836,0.144749447703,-0.0849687308073,0.0429508723319,-1.24544455,0.22555295,11.5522337,0.0,-14.5451316833,13.9087114334,-2.08966112137,0.144749447703,-0.0849687308073,0.0429508723319,14.1700000763,-278.602783203,-209.982406616,7.1077346801999965,4.3296558857,9.112745463846,2.0572710037000004,15.93227124218,-2.031491041179998,-2.7860279082999995
2018-07-30 21:48:23.350,0.0553797840054,-0.0236006175753,-0.929035825836,0.144749447703,-0.0849687308073,0.0429508723319,-1.24544455,0.22555295,11.5522337,0.0,-14.5451316833,13.9087114334,-2.08966112137,0.144749447703,-0.0849687308073,0.0429508723319,14.3699998856,-273.776245117,-208.631088257,8.107734680199997,4.54965591431,10.942745387506,2.0572710037000004,15.93227124218,-2.031491041179998,-2.7860279082999995
2018-07-30 21:48:23.400,0.0553797840054,-0.0236006175753,-0.929035825836,0.144749447703,-0.0849687308073,0.0429508723319,-1.24544455,0.22555295,11.5522337,0.0,-14.4090967178,13.859621048,-1.95806646347,0.144749447703,-0.0849687308073,0.0429508723319,14.3699998856,-273.776245117,-208.631088257,8.107734680199997,4.54965591431,10.942745387506,2.0775613784000004,15.863107919680001,-1.971485137939998,-2.7377624511999983
2018-07-30 21:48:23.450,0.0553797840054,-0.0236006175753,-0.929035825836,0.144749447703,-0.0849687308073,0.0429508723319,-1.24544455,0.22555295,11.5522337,0.0,-14.4090967178,13.859621048,-1.95806646347,0.144749447703,-0.0849687308073,0.0429508723319,14.5499992371,-265.902130127,-207.068374634,8.107734680199997,4.76965594292,10.732745349405999,2.0819635391,15.822658777280001,-1.927105665209998,-2.6590213775999985
2018-07-30 21:48:23.500,0.0553797840054,-0.0236006175753,-0.929035825836,0.144749447703,-0.0849687308073,0.0429508723319,-1.24544455,0.22555295,11.5522337,0.0,-14.4090967178,13.859621048,-1.95806646347,0.144749447703,-0.0849687308073,0.0429508723319,14.5499992371,-265.902130127,-207.068374634,8.107734680199997,4.76965594292,10.732745349405999,2.0819635391,15.822658777280001,-1.927105665209998,-2.6590213775999985
2018-07-30 21:48:23.550,0.0253874255737,-0.0648856300315,-0.93054086539,0.233338475227,-0.0777654126287,0.0172335747629,-1.28467115,0.42168595,10.48330885,0.0,-14.4090967178,13.859621048,-1.95806646347,0.144749447703,-0.0849687308073,0.0429508723319,14.7299995422,-266.286468506,-205.676040649,10.107734680199997,5.00965583325,14.992745578306,1.9917583465999993,16.498053312339998,-1.859516739849998,-2.6628646851000006
2018-07-30 21:48:23.600,0.0253874255737,-0.0648856300315,-0.93054086539,0.233338475227,-0.0777654126287,0.0172335747629,-1.28467115,0.42168595,10.48330885,0.0,-14.4090967178,13.859621048,-1.95806646347,0.144749447703,-0.0849687308073,0.0429508723319,14.7299995422,-266.286468506,-205.676040649,11.0319709778,3.4980472326299994,9.28041648866,1.9674491882999998,16.42309260364,-1.763495445249998,-2.6628646851000006
2018-07-30 21:48:23.650,0.0253874255737,-0.0648856300315,-0.93054086539,0.233338475227,-0.0777654126287,0.0172335747629,-1.28467115,0.42168595,10.48330885,0.0,-14.1687850952,13.9026727676,-1.68684399128,0.233338475227,-0.0777654126287,0.0172335747629,14.8999996185,-270.433227539,-204.072250366,11.0319709778,3.7280472516999996,8.78041648866,1.947194099499999,16.35549902914,-1.686843991279998,-2.7043323516999997
2018-07-30 21:48:23.700,0.0253874255737,-0.0648856300315,-0.93054086539,0.233338475227,-0.0777654126287,0.0172335747629,-1.28467115,0.42168595,10.48330885,0.0,-14.1687850952,13.9026727676,-1.68684399128,0.233338475227,-0.0777654126287,0.0172335747629,14.8999996185,-270.433227539,-204.072250366,11.0319709778,3.7380472421599995,8.78041648866,1.9365053177,16.32646536824,-1.672528505329998,-2.7043323516999997
2018-07-30 21:48:23.750,0.0253874255737,-0.0648856300315,-0.93054086539,0.233338475227,-0.0777654126287,0.0172335747629,-1.28467115,0.42168595,10.48330885,0.0,-14.1687850952,13.9026727676,-1.68684399128,0.233338475227,-0.0777654126287,0.0172335747629,15.0699996948,-264.032745361,-202.503448486,11.0319709778,3.8880472183199997,8.19041633606,1.7627592087000004,17.15134620669,-1.618823528289998,-2.640327453600001
2018-07-30 21:48:23.800,0.0253874255737,-0.0648856300315,-0.93054086539,0.233338475227,-0.0777654126287,0.0172335747629,-1.28467115,0.42168595,10.48330885,0.0,-14.1687850952,13.9026727676,-1.68684399128,0.233338475227,-0.0777654126287,0.0172335747629,15.0699996948,-264.032745361,-202.503448486,11.0319709778,3.8980472087799996,8.19041633606,1.7339086533000003,17.08309650419,-1.576788306239998,-2.640327453600001
2018-07-30 21:48:23.850,0.0253874255737,-0.0648856300315,-0.93054086539,0.233338475227,-0.0777654126287,0.0172335747629,-1.28467115,0.42168595,10.48330885,0.0,-13.8258199692,14.0379896164,-1.46072804928,0.233338475227,-0.0777654126287,0.0172335747629,15.2199993134,-270.496368408,-200.492553711,15.0319709778,4.09804725647,12.74041652676,1.6754169464000004,16.95147991179,-1.471582293509998,-2.704963684100001
2018-07-30 21:48:23.900,0.0253874255737,-0.0648856300315,-0.93054086539,0.233338475227,-0.0777654126287,0.0172335747629,-1.28467115,0.42168595,10.48330885,0.0,-13.8258199692,14.0379896164,-1.46072804928,0.233338475227,-0.0777654126287,0.0172335747629,15.2199993134,-270.496368408,-200.492553711,15.0319709778,4.09804725647,12.74041652676,1.6754169464000004,16.95147991179,-1.471582293509998,-2.704963684100001
2018-07-30 21:48:23.950,0.0253874255737,-0.0648856300315,-0.93054086539,0.233338475227,-0.0777654126287,0.0172335747629,-1.28467115,0.42168595,10.48330885,0.0,-13.8258199692,14.0379896164,-1.46072804928,0.233338475227,-0.0777654126287,0.0172335747629,15.2199993134,-270.496368408,-200.492553711,15.0319709778,4.09804725647,12.74041652676,1.5064554214,17.302722454090002,-1.417856454849998,-2.677078247099999
2018-07-30 21:48:24.000,-0.000767753267531,-0.104289884937,-0.925847065506,0.183112621307,-0.0270769074559,-0.0122872134671,-1.22583125,0.1372931,10.28717585,0.0,-13.8258199692,14.0379896164,-1.46072804928,0.233338475227,-0.0777654126287,0.0172335747629,15.3599996567,-267.707824707,-198.8697052,15.0319709778,4.26804721355,11.850417137160001,1.4893512726000004,17.26333475109,-1.417407274249998,-2.677078247099999
2018-07-30 21:48:24.050,-0.000767753267531,-0.104289884937,-0.925847065506,0.183112621307,-0.0270769074559,-0.0122872134671,-1.22583125,0.1372931,10.28717585,0.0,-13.8258199692,14.0379896164,-1.46072804928,0.233338475227,-0.0777654126287,0.0172335747629,15.5,-263.052368164,-196.756484985,15.5766830444,3.283250868321,8.4815359116,1.4232473373000012,17.07891607289,-1.402164578439998,-2.6305236815999997
2018-07-30 21:48:24.100,-0.000767753267531,-0.104289884937,-0.925847065506,0.183112621307,-0.0270769074559,-0.0122872134671,-1.22583125,0.1372931,10.28717585,0.0,-13.8258199692,14.0379896164,-1.46072804928,0.233338475227,-0.0777654126287,0.0172335747629,15.5,-263.052368164,-196.756484985,15.5766830444,3.283250868321,8.4815359116,1.4232473373000012,17.07891607289,-1.402164578439998,-2.6305236815999997
2018-07-30 21:48:24.150,-0.000767753267531,-0.104289884937,-0.925847065506,0.183112621307,-0.0270769074559,-0.0122872134671,-1.22583125,0.1372931,10.28717585,0.0,-13.3775539398,14.2107448578,-1.36333763599,0.183112621307,-0.0270769074559,-0.0122872134671,15.6300001144,-251.037216187,-195.135223389,15.5766830444,3.3732508420950005,7.581534385700001,1.3608465195000008,16.90001916889,-1.365770578379998,-2.5103721619000012
2018-07-30 21:48:24.200,-0.000767753267531,-0.104289884937,-0.925847065506,0.183112621307,-0.0270769074559,-0.0122872134671,-1.22583125,0.1372931,10.28717585,0.0,-13.3775539398,14.2107448578,-1.36333763599,0.183112621307,-0.0270769074559,-0.0122872134671,15.6300001144,-251.037216187,-195.135223389,15.5766830444,3.3732508420950005,7.581534385700001,1.3257761001000006,16.78794336319,-1.357976794239998,-2.5103721619000012
2018-07-30 21:48:24.250,-0.000767753267531,-0.104289884937,-0.925847065506,0.183112621307,-0.0270769074559,-0.0122872134671,-1.22583125,0.1372931,10.28717585,0.0,-13.3775539398,14.2107448578,-1.36333763599,0.183112621307,-0.0270769074559,-0.0122872134671,15.7599992752,-240.302093506,-193.557678223,15.5766830444,3.4232508540160005,6.7315359116,0.6611976623999993,18.85079622271,-1.3787467479699982,-2.4030208588000015
2018-07-30 21:48:24.300,-0.000767753267531,-0.104289884937,-0.925847065506,0.183112621307,-0.0270769074559,-0.0122872134671,-1.22583125,0.1372931,10.28717585,0.0,-13.3775539398,14.2107448578,-1.36333763599,0.183112621307,-0.0270769074559,-0.0122872134671,15.7599992752,-240.302093506,-193.557678223,15.5766830444,3.4232508540160005,6.7315359116,0.6611976623999993,18.85079622271,-1.3787467479699982,-2.4030208588000015
