%time,field.orientation.x,field.orientation.y,field.orientation.z,field.angular_velocity.x,field.angular_velocity.y,field.angular_velocity.z,field.linear_acceleration.x,field.linear_acceleration.y,field.linear_acceleration.z,field.data,field.twist.linear.x,field.twist.linear.y,field.twist.linear.z,field.twist.angular.x,field.twist.angular.y,field.twist.angular.z,field.alt_error,field.aspd_error,field.xtrack_error,delta_yaw,delta_pitch,delta_roll,delta_x,delta_y,delta_z,delta_roll_airspeed
2018-10-18 15:07:58.950,,,,,,,,,,0.0,,,,,,,-1.35000002384,-416.512878418,-31.981754303,178.2387466431,-4.53703367711,28.04541754727,-3.1191368103,16.2439250946,1.94381833076,15.0
2018-10-18 15:07:59.000,,,,,,,,,,0.0,,,,,,,-1.55999994278,-412.548248291,-30.3082008362,178.2387466431,-4.64703381062,29.77541708947,-3.17767262459,16.2199077606,1.81816542149,15.0
2018-10-18 15:07:59.050,,,,,,,,,,0.0,,,,,,,-1.55999994278,-412.548248291,-30.3082008362,178.2387466431,-4.63703358174,29.76541876797,-3.22151398659,16.1971359253,1.62048828602,15.0
2018-10-18 15:07:59.100,0.0132777939027,-0.162995848138,-0.977188123496,0.6091324687,0.140065461397,-0.0938963890076,-0.7649187,0.24516625,5.63882375,0.0,-16.1971359253,3.22151398659,1.62048828602,0.928110003471,0.103158541024,-0.058564811945,-1.73000001907,-412.548248291,-28.640750885,175.8630981445,-2.0190806388800002,15.2648563385,-3.26514530182,16.165184021,1.43177783489,15.0
2018-10-18 15:07:59.150,0.0132777939027,-0.162995848138,-0.977188123496,0.6091324687,0.140065461397,-0.0938963890076,-0.7649187,0.24516625,5.63882375,0.0,-16.1971359253,3.22151398659,1.62048828602,0.928110003471,0.103158541024,-0.058564811945,-1.86000001431,-394.706359863,-332.480682373,30.8630981445,-1.9990806579599996,15.254858017,-3.26514530182,16.165184021,1.43177783489,15.0
2018-10-18 15:07:59.200,0.0132777939027,-0.162995848138,-0.977188123496,0.6091324687,0.140065461397,-0.0938963890076,-0.7649187,0.24516625,5.63882375,0.0,-16.1971359253,3.22151398659,1.62048828602,0.928110003471,0.103158541024,-0.058564811945,-1.86000001431,-394.706359863,-332.480682373,30.8630981445,-3.7190804481499997,19.3748569489,12.47569322586,16.059879302999995,1.137018918990002,16.0
2018-10-18 15:07:59.250,0.0132777939027,-0.162995848138,-0.977188123496,0.6091324687,0.140065461397,-0.0938963890076,-0.7649187,0.24516625,5.63882375,0.0,-16.1971359253,3.22151398659,1.62048828602,0.928110003471,0.103158541024,-0.058564811945,-1.9699999094,-294.706359863,-330.874542236,30.8630981445,-3.6790804863,19.3648586274,12.47569322586,16.059879302999995,1.137018918990002,16.0
2018-10-18 15:07:59.300,0.0132777939027,-0.162995848138,-0.977188123496,0.6091324687,0.140065461397,-0.0938963890076,-0.7649187,0.24516625,5.63882375,0.0,-15.9512472153,3.90262651443,1.02276623249,0.6091324687,0.140065461397,-0.0938963890076,-1.9699999094,-294.706359863,-330.874542236,30.8630981445,-5.44907999038,18.314855575599996,11.91193008423,15.909271240199997,1.000242590900002,16.0
2018-10-18 15:07:59.350,0.0132777939027,-0.162995848138,-0.977188123496,0.6091324687,0.140065461397,-0.0938963890076,-0.7649187,0.24516625,5.63882375,0.0,-15.9512472153,3.90262651443,1.02276623249,0.6091324687,0.140065461397,-0.0938963890076,-1.9699999094,-294.706359863,-330.874542236,30.8630981445,-5.439080715179999,18.314855575599996,11.711847305300001,15.865766525299996,0.997472643852002,16.0
2018-10-18 15:07:59.400,0.00578376695484,-0.257229964319,-0.954004754028,0.52927428484,-0.00537051819265,-0.11729709059,-0.42168595,0.44129925,10.1596894,0.0,-15.9512472153,3.90262651443,1.02276623249,0.6091324687,0.140065461397,-0.0938963890076,-2.05999994278,-282.588195801,-329.276916504,29.034950256299993,-6.10531806949,5.9524478913,11.5120267868,15.823135375999996,0.990220189095002,16.0
2018-10-18 15:07:59.450,0.00578376695484,-0.257229964319,-0.954004754028,0.52927428484,-0.00537051819265,-0.11729709059,-0.42168595,0.44129925,10.1596894,0.0,-15.9512472153,3.90262651443,1.02276623249,0.6091324687,0.140065461397,-0.0938963890076,-2.05999994278,-282.588195801,-329.276916504,29.034950256299993,-6.095317840589999,5.9524478913,11.19894790649,15.737001419099997,0.946826994419002,16.0
2018-10-18 15:07:59.500,0.00578376695484,-0.257229964319,-0.954004754028,0.52927428484,-0.00537051819265,-0.11729709059,-0.42168595,0.44129925,10.1596894,0.0,-15.9512472153,3.90262651443,1.02276623249,0.6091324687,0.140065461397,-0.0938963890076,-2.14999985695,-282.588195801,-327.704620361,29.034950256299993,-7.97531795499,4.392446518000003,10.99041366577,15.682734489399996,0.872885882854002,16.0
2018-10-18 15:07:59.550,0.00578376695484,-0.257229964319,-0.954004754028,0.52927428484,-0.00537051819265,-0.11729709059,-0.42168595,0.44129925,10.1596894,0.0,-15.6248016357,5.23102140427,0.800352632999,0.52927428484,-0.00537051819265,-0.11729709059,-2.14999985695,-282.588195801,-327.704620361,29.034950256299993,-7.955318450889999,4.3524456024,10.66300153732,15.586943626399997,0.758698225021002,16.0
2018-10-18 15:07:59.600,0.00578376695484,-0.257229964319,-0.954004754028,0.52927428484,-0.00537051819265,-0.11729709059,-0.42168595,0.44129925,10.1596894,0.0,-15.6248016357,5.23102140427,0.800352632999,0.52927428484,-0.00537051819265,-0.11729709059,-2.23000001907,-287.25680542,-326.140777588,29.034950256299993,-9.81531810759,2.632448196400002,10.44912242889,15.522720336899997,0.670392990112002,16.0
2018-10-18 15:07:59.650,0.00578376695484,-0.257229964319,-0.954004754028,0.52927428484,-0.00537051819265,-0.11729709059,-0.42168595,0.44129925,10.1596894,0.0,-15.6248016357,5.23102140427,0.800352632999,0.52927428484,-0.00537051819265,-0.11729709059,-2.23000001907,-287.25680542,-326.140777588,29.034950256299993,-9.79531764989,2.612447738700002,10.24294281006,15.464782714799997,0.588745892048002,16.0
2018-10-18 15:07:59.700,0.00578376695484,-0.257229964319,-0.954004754028,0.52927428484,-0.00537051819265,-0.11729709059,-0.42168595,0.44129925,10.1596894,0.0,-15.6248016357,5.23102140427,0.800352632999,0.52927428484,-0.00537051819265,-0.11729709059,-2.29999995232,-287.25680542,-324.593719482,29.034950256299993,-11.675318717989999,0.8024463654000016,10.0387673378,15.391427993799997,0.502566754818002,16.0
2018-10-18 15:07:59.750,0.00578376695484,-0.257229964319,-0.954004754028,0.52927428484,-0.00537051819265,-0.11729709059,-0.42168595,0.44129925,10.1596894,0.0,-15.6248016357,5.23102140427,0.800352632999,0.52927428484,-0.00537051819265,-0.11729709059,-2.29999995232,-287.25680542,-324.593719482,29.034950256299993,-11.675318717989999,0.8024463654000016,10.0387673378,15.391427993799997,0.502566754818002,16.0
2018-10-18 15:07:59.800,0.00938626591706,-0.308599106059,-0.933876509762,-0.12087213248,0.0235808640718,-0.101813398302,-1.2944778,-0.04903325,7.6295737,0.0,-15.1853084564,6.49013519287,0.250249773264,0.52927428484,-0.00537051819265,-0.11729709059,-2.33999991417,-287.220581055,-323.080596924,29.034950256299993,-13.595318794289998,-1.1575527191,9.50986480713,15.185308456399996,0.25024977326400194,16.0
2018-10-18 15:07:59.850,0.00938626591706,-0.308599106059,-0.933876509762,-0.12087213248,0.0235808640718,-0.101813398302,-1.2944778,-0.04903325,7.6295737,0.0,-15.1853084564,6.49013519287,0.250249773264,0.52927428484,-0.00537051819265,-0.11729709059,-2.33999991417,-287.220581055,-323.080596924,26.489372253400006,-11.374592304230001,-7.0673217774,9.15873861313,15.022618293799997,-0.01810021698469804,16.0
2018-10-18 15:07:59.900,0.00938626591706,-0.308599106059,-0.933876509762,-0.12087213248,0.0235808640718,-0.101813398302,-1.2944778,-0.04903325,7.6295737,0.0,-15.1853084564,6.49013519287,0.250249773264,0.52927428484,-0.00537051819265,-0.11729709059,-2.34999990463,-287.220581055,-321.575927734,26.489372253400006,-13.03459215163,-8.927322387700002,9.0748963356,14.990587234499996,-0.07484153658149804,16.0
2018-10-18 15:07:59.950,0.00938626591706,-0.308599106059,-0.933876509762,-0.12087213248,0.0235808640718,-0.101813398302,-1.2944778,-0.04903325,7.6295737,0.0,-15.1853084564,6.49013519287,0.250249773264,0.52927428484,-0.00537051819265,-0.11729709059,-2.34999990463,-287.220581055,-321.575927734,26.489372253400006,-13.134592533129998,-8.937322616600003,8.805569171910001,14.859642982499997,-0.24862988293199803,16.0
2018-10-18 15:08:00.000,0.00938626591706,-0.308599106059,-0.933876509762,-0.12087213248,0.0235808640718,-0.101813398302,-1.2944778,-0.04903325,7.6295737,0.0,-14.7927751541,7.32743930817,-0.394933372736,-0.12087213248,0.0235808640718,-0.101813398302,-2.32999992371,-294.767578125,-320.105072021,26.489372253400006,-13.22459268573,-10.737321853700003,8.67256069183,14.792775154099996,-0.39493337273599805,16.0
2018-10-18 15:08:00.050,0.00938626591706,-0.308599106059,-0.933876509762,-0.12087213248,0.0235808640718,-0.101813398302,-1.2944778,-0.04903325,7.6295737,0.0,-14.7927751541,7.32743930817,-0.394933372736,-0.12087213248,0.0235808640718,-0.101813398302,-2.28999996185,-294.767578125,-318.651123047,26.489372253400006,-13.454592227929998,-12.247322082500002,8.43483829498,14.638327598599997,-0.723716437816998,16.0
2018-10-18 15:08:00.100,0.00938626591706,-0.308599106059,-0.933876509762,-0.12087213248,0.0235808640718,-0.101813398302,-1.2944778,-0.04903325,7.6295737,0.0,-14.7927751541,7.32743930817,-0.394933372736,-0.12087213248,0.0235808640718,-0.101813398302,-2.28999996185,-294.767578125,-318.651123047,26.489372253400006,-13.454592227929998,-12.247322082500002,8.43483829498,14.638327598599997,-0.723716437816998,16.0
2018-10-18 15:08:00.150,0.00938626591706,-0.308599106059,-0.933876509762,-0.12087213248,0.0235808640718,-0.101813398302,-1.2944778,-0.04903325,7.6295737,0.0,-14.7927751541,7.32743930817,-0.394933372736,-0.12087213248,0.0235808640718,-0.101813398302,-2.28999996185,-294.767578125,-318.651123047,26.489372253400006,-13.66459321973,-12.297321319600002,8.16549348831,14.436593055699996,-1.092838644979998,16.0
2018-10-18 15:08:00.200,0.00938626591706,-0.308599106059,-0.933876509762,-0.12087213248,0.0235808640718,-0.101813398302,-1.2944778,-0.04903325,7.6295737,0.0,-14.3365631104,7.92817878723,-1.38402915001,-0.12087213248,0.0235808640718,-0.101813398302,-2.19000005722,-287.094299316,-317.222473145,26.489372253400006,-13.79459238053,-13.757322311400003,8.09594106674,14.366558074999997,-1.280044913289998,16.0
2018-10-18 15:08:00.250,0.00938626591706,-0.308599106059,-0.933876509762,-0.12087213248,0.0235808640718,-0.101813398302,-1.2944778,-0.04903325,7.6295737,0.0,-14.3365631104,7.92817878723,-1.38402915001,-0.12087213248,0.0235808640718,-0.101813398302,-2.19000005722,-287.094299316,-317.222473145,26.489372253400006,-13.864593982729998,-13.777320861800003,8.05685091019,14.306494712799996,-1.497849583629998,16.0
2018-10-18 15:08:00.300,0.0477749332682,-0.270657999684,-0.938934181536,-0.246363729239,0.142585605383,-0.306734740734,-1.8632635,0.61781895,2.4124359,0.0,-14.3365631104,7.92817878723,-1.38402915001,-0.12087213248,0.0235808640718,-0.101813398302,-2.05999994278,-287.094299316,-315.810791016,26.489372253400006,-14.16459321973,-14.687322616600003,8.05874252319,14.218842506399996,-1.921102762219998,16.0
2018-10-18 15:08:00.350,0.0477749332682,-0.270657999684,-0.938934181536,-0.246363729239,0.142585605383,-0.306734740734,-1.8632635,0.61781895,2.4124359,0.0,-14.3365631104,7.92817878723,-1.38402915001,-0.12087213248,0.0235808640718,-0.101813398302,-2.05999994278,-287.094299316,-315.810791016,24.250473022500003,-10.128488540699998,-9.376482009900002,8.05533647537,14.119201660199996,-2.338491439819998,16.0
2018-10-18 15:08:00.400,0.0477749332682,-0.270657999684,-0.938934181536,-0.246363729239,0.142585605383,-0.306734740734,-1.8632635,0.61781895,2.4124359,0.0,-14.3365631104,7.92817878723,-1.38402915001,-0.12087213248,0.0235808640718,-0.101813398302,-1.84999990463,-272.613525391,-314.424316406,24.250473022500003,-10.198488235499998,-9.896480560300002,8.037505149840001,14.052886962899997,-2.5916926860799983,16.0
2018-10-18 15:08:00.450,0.0477749332682,-0.270657999684,-0.938934181536,-0.246363729239,0.142585605383,-0.306734740734,-1.8632635,0.61781895,2.4124359,0.0,-14.3365631104,7.92817878723,-1.38402915001,-0.12087213248,0.0235808640718,-0.101813398302,-1.84999990463,-272.613525391,-314.424316406,24.250473022500003,-10.198488235499998,-9.896480560300002,8.037505149840001,14.052886962899997,-2.5916926860799983,16.0
2018-10-18 15:08:00.500,0.0477749332682,-0.270657999684,-0.938934181536,-0.246363729239,0.142585605383,-0.306734740734,-1.8632635,0.61781895,2.4124359,0.0,-13.9172468185,8.03745269775,-3.03567433357,-0.246363729239,0.142585605383,-0.306734740734,-1.57999992371,-272.613525391,-313.038024902,24.250473022500003,-10.518487930300001,-10.746480941800002,7.96254730225,13.917246818499997,-3.035674333569998,16.0
2018-10-18 15:08:00.550,0.0477749332682,-0.270657999684,-0.938934181536,-0.246363729239,0.142585605383,-0.306734740734,-1.8632635,0.61781895,2.4124359,0.0,-13.9172468185,8.03745269775,-3.03567433357,-0.246363729239,0.142585605383,-0.306734740734,-1.57999992371,-272.613525391,-313.038024902,24.250473022500003,-10.6284866333,-10.816480636600001,7.8534164428699995,13.766050338699996,-3.452475786209998,16.0
2018-10-18 15:08:00.600,0.0477749332682,-0.270657999684,-0.938934181536,-0.246363729239,0.142585605383,-0.306734740734,-1.8632635,0.61781895,2.4124359,0.0,-13.9172468185,8.03745269775,-3.03567433357,-0.246363729239,0.142585605383,-0.306734740734,-1.24000000954,-249.374572754,-311.68548584,24.250473022500003,-10.4884872437,-11.876482009900002,7.85085678101,13.696667671199997,-3.740639686579998,16.0
2018-10-18 15:08:00.650,0.0477749332682,-0.270657999684,-0.938934181536,-0.246363729239,0.142585605383,-0.306734740734,-1.8632635,0.61781895,2.4124359,0.0,-13.9172468185,8.03745269775,-3.03567433357,-0.246363729239,0.142585605383,-0.306734740734,-1.24000000954,-249.374572754,-311.68548584,24.250473022500003,-10.408487319999999,-11.9564819336,7.856958389280001,13.596765518199996,-4.157449722289998,16.0
2018-10-18 15:08:00.700,0.0477749332682,-0.270657999684,-0.938934181536,-0.246363729239,0.142585605383,-0.306734740734,-1.8632635,0.61781895,2.4124359,0.0,-13.5366420746,8.14515399933,-4.42473077774,-0.246363729239,0.142585605383,-0.306734740734,-0.839999973774,-249.374572754,-310.332885742,24.250473022500003,-10.408487319999999,-12.496480941800002,7.85907745361,13.567352294899996,-4.292093753809998,16.0
2018-10-18 15:08:00.750,0.0841116457703,-0.26829771551,-0.922068629787,0.226902723312,0.0208965316415,-0.27091562748,-2.1378497,0.9022118,2.941995,0.0,-13.5366420746,8.14515399933,-4.42473077774,-0.246363729239,0.142585605383,-0.306734740734,-0.839999973774,-249.374572754,-310.332885742,18.193393707299997,-4.613128662099999,-10.7772445678,7.779900550840001,13.443452835099997,-4.717317581179998,16.0
2018-10-18 15:08:00.800,0.0841116457703,-0.26829771551,-0.922068629787,0.226902723312,0.0208965316415,-0.27091562748,-2.1378497,0.9022118,2.941995,0.0,-13.5366420746,8.14515399933,-4.42473077774,-0.246363729239,0.142585605383,-0.306734740734,-0.379999995232,-252.810089111,-309.014190674,18.193393707299997,-4.483129501299999,-11.517246246300001,7.57934093475,13.342992782599996,-4.814762115479998,16.0
2018-10-18 15:08:00.850,0.0841116457703,-0.26829771551,-0.922068629787,0.226902723312,0.0208965316415,-0.27091562748,-2.1378497,0.9022118,2.941995,0.0,-13.5366420746,8.14515399933,-4.42473077774,-0.246363729239,0.142585605383,-0.306734740734,-0.379999995232,-252.810089111,-309.014190674,18.193393707299997,-4.433130264300001,-11.537244796700001,7.439693450929999,13.272137641899997,-4.869318485259998,16.0
2018-10-18 15:08:00.900,0.0841116457703,-0.26829771551,-0.922068629787,0.226902723312,0.0208965316415,-0.27091562748,-2.1378497,0.9022118,2.941995,0.0,-13.2044343948,8.67201328278,-4.96062898636,0.226902723312,0.0208965316415,-0.27091562748,0.109999999404,-252.810089111,-307.695465088,18.193393707299997,-4.453128814700001,-13.1972455978,7.37751102448,13.237463951099997,-4.907713890079998,16.0
2018-10-18 15:08:00.950,0.0841116457703,-0.26829771551,-0.922068629787,0.226902723312,0.0208965316415,-0.27091562748,-2.1378497,0.9022118,2.941995,0.0,-13.2044343948,8.67201328278,-4.96062898636,0.226902723312,0.0208965316415,-0.27091562748,0.109999999404,-252.810089111,-307.695465088,18.193393707299997,-4.593130111699999,-13.2372455597,7.23119449615,13.150133132899997,-5.0659580230699985,16.0
2018-10-18 15:08:01.000,0.0841116457703,-0.26829771551,-0.922068629787,0.226902723312,0.0208965316415,-0.27091562748,-2.1378497,0.9022118,2.941995,0.0,-13.2044343948,8.67201328278,-4.96062898636,0.226902723312,0.0208965316415,-0.27091562748,0.629999995232,-215.398025513,-306.419036865,18.193393707299997,-4.863128662099999,-14.567245483399999,7.09270572662,13.056718826299996,-5.255937576289998,16.0
2018-10-18 15:08:01.050,0.0841116457703,-0.26829771551,-0.922068629787,0.226902723312,0.0208965316415,-0.27091562748,-2.1378497,0.9022118,2.941995,0.0,-13.2044343948,8.67201328278,-4.96062898636,0.226902723312,0.0208965316415,-0.27091562748,0.629999995232,-215.398025513,-306.419036865,18.193393707299997,-5.1031303406,-14.6072454452,6.97115039825,12.944958686799996,-5.501638412479998,16.0
2018-10-18 15:08:01.100,0.0841116457703,-0.26829771551,-0.922068629787,0.226902723312,0.0208965316415,-0.27091562748,-2.1378497,0.9022118,2.941995,0.0,-13.2044343948,8.67201328278,-4.96062898636,0.226902723312,0.0208965316415,-0.27091562748,1.17999994755,-215.398025513,-305.125610352,18.193393707299997,-5.1931285858,-15.887245178199999,6.873385429380001,12.885144233699997,-5.623412132259999,16.0
2018-10-18 15:08:01.150,0.0992577932304,-0.255491777709,-0.90879543726,-0.090542010963,-0.0179645381868,-0.234930574894,-2.0397832,0.5295591,7.44324735,0.0,-12.7913894653,9.27209568024,-5.8076839447,-0.090542010963,-0.0179645381868,-0.234930574894,1.17999994755,-215.398025513,-305.125610352,12.3360748291,-2.6626186370999996,-13.094207763599998,6.72790431976,12.791389465299996,-5.807683944699998,16.0
2018-10-18 15:08:01.200,0.0992577932304,-0.255491777709,-0.90879543726,-0.090542010963,-0.0179645381868,-0.234930574894,-2.0397832,0.5295591,7.44324735,0.0,-12.7913894653,9.27209568024,-5.8076839447,-0.090542010963,-0.0179645381868,-0.234930574894,1.75,-229.227264404,-303.882995605,12.3360748291,-2.8426189422999997,-14.404207229599999,6.62088489532,12.723117828399996,-5.917371749879998,16.0
2018-10-18 15:08:01.250,0.0992577932304,-0.255491777709,-0.90879543726,-0.090542010963,-0.0179645381868,-0.234930574894,-2.0397832,0.5295591,7.44324735,0.0,-12.7913894653,9.27209568024,-5.8076839447,-0.090542010963,-0.0179645381868,-0.234930574894,1.75,-229.227264404,-303.882995605,12.3360748291,-2.9326190949000015,-14.4242076874,6.53383636475,12.671391487099996,-6.026707649229998,16.0
2018-10-18 15:08:01.300,0.0992577932304,-0.255491777709,-0.90879543726,-0.090542010963,-0.0179645381868,-0.234930574894,-2.0397832,0.5295591,7.44324735,0.0,-12.7913894653,9.27209568024,-5.8076839447,-0.090542010963,-0.0179645381868,-0.234930574894,2.34999990463,-229.227264404,-302.623352051,12.3360748291,-3.0226192474999998,-15.654207229589998,6.45525169373,12.627175331099997,-6.146035671229998,16.0
2018-10-18 15:08:01.350,0.0992577932304,-0.255491777709,-0.90879543726,-0.090542010963,-0.0179645381868,-0.234930574894,-2.0397832,0.5295591,7.44324735,0.0,-12.7913894653,9.27209568024,-5.8076839447,-0.090542010963,-0.0179645381868,-0.234930574894,2.34999990463,-229.227264404,-302.623352051,12.3360748291,-3.2126197815000026,-15.664207458469999,6.319367408750001,12.539651870699997,-6.325297355649998,16.0
2018-10-18 15:08:01.400,0.0992577932304,-0.255491777709,-0.90879543726,-0.090542010963,-0.0179645381868,-0.234930574894,-2.0397832,0.5295591,7.44324735,0.0,-12.4688386917,9.83930873871,-6.4451956749,-0.090542010963,-0.0179645381868,-0.234930574894,2.97000002861,-225.461761475,-301.397644043,12.3360748291,-3.2726192474999998,-16.87420749662,6.160691261289999,12.468838691699997,-6.445195674899998,16.0
2018-10-18 15:08:01.450,0.0992577932304,-0.255491777709,-0.90879543726,-0.090542010963,-0.0179645381868,-0.234930574894,-2.0397832,0.5295591,7.44324735,0.0,-12.4688386917,9.83930873871,-6.4451956749,-0.090542010963,-0.0179645381868,-0.234930574894,2.97000002861,-225.461761475,-301.397644043,12.3360748291,-3.2626190186000024,-16.884207725499998,6.02718448639,12.414842605599997,-6.491602897639998,16.0
2018-10-18 15:08:01.500,0.0992577932304,-0.255491777709,-0.90879543726,-0.090542010963,-0.0179645381868,-0.234930574894,-2.0397832,0.5295591,7.44324735,0.0,-12.4688386917,9.83930873871,-6.4451956749,-0.090542010963,-0.0179645381868,-0.234930574894,2.97000002861,-225.461761475,-301.397644043,12.3360748291,-3.2626190186000024,-16.884207725499998,6.02718448639,12.414842605599997,-6.491602897639998,16.0
2018-10-18 15:08:01.550,0.113855409808,-0.230983919691,-0.905297935114,-0.0360587909818,0.01432815101,-0.0621839538217,-1.96133,0.53936575,9.97336305,0.0,-12.4688386917,9.83930873871,-6.4451956749,-0.090542010963,-0.0179645381868,-0.234930574894,3.6099998951,-225.461761475,-300.180389404,9.1462249756,-1.9942741394000016,-14.53881120678,5.610416412399999,12.274985313399997,-6.5532207488999985,16.0
2018-10-18 15:08:01.600,0.113855409808,-0.230983919691,-0.905297935114,-0.0360587909818,0.01432815101,-0.0621839538217,-1.96133,0.53936575,9.97336305,0.0,-12.2135295868,10.6174116135,-6.52221298218,-0.0360587909818,0.01432815101,-0.0621839538217,4.26999998093,-234.925842285,-298.980010986,9.1462249756,-2.0342731476000004,-16.07881116863,5.3825883865,12.213529586799996,-6.522212982179998,16.0
2018-10-18 15:08:01.650,0.113855409808,-0.230983919691,-0.905297935114,-0.0360587909818,0.01432815101,-0.0621839538217,-1.96133,0.53936575,9.97336305,0.0,-12.2135295868,10.6174116135,-6.52221298218,-0.0360587909818,0.01432815101,-0.0621839538217,4.26999998093,-234.925842285,-298.980010986,9.1462249756,-2.0342731476000004,-16.07881116863,5.3825883865,12.213529586799996,-6.522212982179998,16.0
2018-10-18 15:08:01.700,0.113855409808,-0.230983919691,-0.905297935114,-0.0360587909818,0.01432815101,-0.0621839538217,-1.96133,0.53936575,9.97336305,0.0,-12.2135295868,10.6174116135,-6.52221298218,-0.0360587909818,0.01432815101,-0.0621839538217,4.90999984741,-234.925842285,-297.779632568,9.1462249756,-2.2642745972,-17.568811416590002,5.3825883865,12.213529586799996,-6.522212982179998,16.0
2018-10-18 15:08:01.750,0.113855409808,-0.230983919691,-0.905297935114,-0.0360587909818,0.01432815101,-0.0621839538217,-1.96133,0.53936575,9.97336305,0.0,-12.2135295868,10.6174116135,-6.52221298218,-0.0360587909818,0.01432815101,-0.0621839538217,4.90999984741,-234.925842285,-297.779632568,9.1462249756,-2.3642749786999993,-17.568811416590002,4.9748058318999995,12.072424888599997,-6.6470160484299985,16.0
2018-10-18 15:08:01.800,0.125989572255,-0.205337199359,-0.908612133347,-0.276445895433,0.00776290753856,-0.0393366403878,-2.0593965,0.588399,8.6494653,0.0,-12.2135295868,10.6174116135,-6.52221298218,-0.0360587909818,0.01432815101,-0.0621839538217,5.5499997139,-268.022521973,-296.604553223,9.1462249756,-2.5142745972,-18.92881131168,4.8393230438,12.020380973799996,-6.766331672669998,16.0
2018-10-18 15:08:01.850,0.125989572255,-0.205337199359,-0.908612133347,-0.276445895433,0.00776290753856,-0.0393366403878,-2.0593965,0.588399,8.6494653,0.0,-12.2135295868,10.6174116135,-6.52221298218,-0.0360587909818,0.01432815101,-0.0621839538217,5.5499997139,-268.022521973,-296.604553223,9.1462249756,-2.5142745972,-18.92881131168,4.8393230438,12.020380973799996,-6.766331672669998,16.0
2018-10-18 15:08:01.900,0.125989572255,-0.205337199359,-0.908612133347,-0.276445895433,0.00776290753856,-0.0393366403878,-2.0593965,0.588399,8.6494653,0.0,-11.9751329422,11.3095016479,-6.81966018677,-0.276445895433,0.00776290753856,-0.0393366403878,6.21000003815,-268.022521973,-295.421112061,8.3110580444,-2.2426357269000015,-16.53850281236,4.6904983521000005,11.975132942199997,-6.819660186769998,16.0
2018-10-18 15:08:01.950,0.125989572255,-0.205337199359,-0.908612133347,-0.276445895433,0.00776290753856,-0.0393366403878,-2.0593965,0.588399,8.6494653,0.0,-11.9751329422,11.3095016479,-6.81966018677,-0.276445895433,0.00776290753856,-0.0393366403878,6.86999988556,-296.390350342,-294.229217529,8.3110580444,-2.4226360321000016,-16.53850281236,4.4719562531,11.945675849899997,-6.819223880769998,16.0
2018-10-18 15:08:02.000,0.125989572255,-0.205337199359,-0.908612133347,-0.276445895433,0.00776290753856,-0.0393366403878,-2.0593965,0.588399,8.6494653,0.0,-11.9751329422,11.3095016479,-6.81966018677,-0.276445895433,0.00776290753856,-0.0393366403878,6.86999988556,-296.390350342,-294.229217529,8.3110580444,-2.4226360321000016,-16.53850281236,4.4719562531,11.945675849899997,-6.819223880769998,16.0
2018-10-18 15:08:02.050,0.125989572255,-0.205337199359,-0.908612133347,-0.276445895433,0.00776290753856,-0.0393366403878,-2.0593965,0.588399,8.6494653,0.0,-11.9751329422,11.3095016479,-6.81966018677,-0.276445895433,0.00776290753856,-0.0393366403878,7.52999973297,-296.390350342,-293.054077148,8.3110580444,-2.6526355742999996,-17.598502755142,4.272292137100001,11.933767318699996,-6.861543655399998,16.0
2018-10-18 15:08:02.100,0.125989572255,-0.205337199359,-0.908612133347,-0.276445895433,0.00776290753856,-0.0393366403878,-2.0593965,0.588399,8.6494653,0.0,-11.9751329422,11.3095016479,-6.81966018677,-0.276445895433,0.00776290753856,-0.0393366403878,7.52999973297,-296.390350342,-293.054077148,8.3110580444,-2.6526355742999996,-17.598502755142,4.272292137100001,11.933767318699996,-6.861543655399998,16.0
2018-10-18 15:08:02.150,0.125989572255,-0.205337199359,-0.908612133347,-0.276445895433,0.00776290753856,-0.0393366403878,-2.0593965,0.588399,8.6494653,0.0,-11.9317035675,11.9242010117,-6.89579868317,-0.276445895433,0.00776290753856,-0.0393366403878,7.52999973297,-296.390350342,-293.054077148,8.3110580444,-2.802635192900002,-18.298502713419,4.1103715897,11.927863120999996,-6.884331703189998,16.0
2018-10-18 15:08:02.200,0.125989572255,-0.205337199359,-0.908612133347,-0.276445895433,0.00776290753856,-0.0393366403878,-2.0593965,0.588399,8.6494653,0.0,-11.9317035675,11.9242010117,-6.89579868317,-0.276445895433,0.00776290753856,-0.0393366403878,8.19999980927,-324.915710449,-291.870605469,8.3110580444,-2.872634887700002,-18.978502690769,4.042075157199999,11.936024665799996,-6.907835006709998,16.0
2018-10-18 15:08:02.250,0.125989572255,-0.205337199359,-0.908612133347,-0.276445895433,0.00776290753856,-0.0393366403878,-2.0593965,0.588399,8.6494653,0.0,-11.9317035675,11.9242010117,-6.89579868317,-0.276445895433,0.00776290753856,-0.0393366403878,8.19999980927,-324.915710449,-291.870605469,8.3110580444,-2.9626350403000004,-18.978502690769,3.9220638275000006,11.929741859399996,-6.941870212549998,16.0
2018-10-18 15:08:02.300,0.157888353619,-0.141483501996,-0.913636019495,-0.205932989717,0.0491023138165,-0.109815523028,-2.18688295,0.5295591,9.22805765,0.0,-11.9317035675,11.9242010117,-6.89579868317,-0.276445895433,0.00776290753856,-0.0393366403878,8.85999965668,-324.915710449,-290.70401001,8.3110580444,-3.0026359558000024,-19.60850274561,3.8614864348999998,11.926510810899996,-6.984868049619998,16.0
2018-10-18 15:08:02.350,0.157888353619,-0.141483501996,-0.913636019495,-0.205932989717,0.0491023138165,-0.109815523028,-2.18688295,0.5295591,9.22805765,0.0,-11.9097061157,12.2760190964,-7.07040071487,-0.205932989717,0.0491023138165,-0.109815523028,8.85999965668,-324.915710449,-290.70401001,6.294075012199997,-1.9632015229000004,-10.90740716458,3.7239809035999993,11.909706115699997,-7.070400714869998,16.0
2018-10-18 15:08:02.400,0.157888353619,-0.141483501996,-0.913636019495,-0.205932989717,0.0491023138165,-0.109815523028,-2.18688295,0.5295591,9.22805765,0.0,-11.9097061157,12.2760190964,-7.07040071487,-0.205932989717,0.0491023138165,-0.109815523028,9.55000019073,-337.914855957,-289.512115479,6.294075012199997,-1.9732017517999978,-11.52740716934,3.6386566162000005,11.898349761999997,-7.075212478639998,16.0
2018-10-18 15:08:02.450,0.157888353619,-0.141483501996,-0.913636019495,-0.205932989717,0.0491023138165,-0.109815523028,-2.18688295,0.5295591,9.22805765,0.0,-11.9097061157,12.2760190964,-7.07040071487,-0.205932989717,0.0491023138165,-0.109815523028,9.55000019073,-337.914855957,-289.512115479,6.294075012199997,-1.993202209499998,-11.52740716934,3.5730600356999993,11.892292022699996,-7.125631809229998,16.0
2018-10-18 15:08:02.500,0.157888353619,-0.141483501996,-0.913636019495,-0.205932989717,0.0491023138165,-0.109815523028,-2.18688295,0.5295591,9.22805765,0.0,-11.9097061157,12.2760190964,-7.07040071487,-0.205932989717,0.0491023138165,-0.109815523028,10.2399997711,-337.914855957,-288.328613281,6.294075012199997,-2.0132026673,-12.22740697861,3.4632606506000005,11.882019042999996,-7.1725358962999985,16.0
2018-10-18 15:08:02.550,0.157888353619,-0.141483501996,-0.913636019495,-0.205932989717,0.0491023138165,-0.109815523028,-2.18688295,0.5295591,9.22805765,0.0,-11.9097061157,12.2760190964,-7.07040071487,-0.205932989717,0.0491023138165,-0.109815523028,10.2399997711,-337.914855957,-288.328613281,6.294075012199997,-2.0232009887999993,-12.22740697861,3.3918638228999995,11.878211975099996,-7.193946361539998,16.0
2018-10-18 15:08:02.600,0.157888353619,-0.141483501996,-0.913636019495,-0.205932989717,0.0491023138165,-0.109815523028,-2.18688295,0.5295591,9.22805765,0.0,-11.904425621,12.6655797958,-7.2496509552,-0.205932989717,0.0491023138165,-0.109815523028,10.9399995804,-367.967041016,-287.162078857,6.294075012199997,-2.0132026673,-12.82740712166,3.3460960388000007,11.894176483199997,-7.217110633849998,16.0
2018-10-18 15:08:02.650,0.164441417746,-0.124088613361,-0.918080019872,-0.335644990206,-0.0418633557856,0.124711118639,-2.46146915,0.9022118,8.75733845,0.0,-11.904425621,12.6655797958,-7.2496509552,-0.205932989717,0.0491023138165,-0.109815523028,11.6499996185,-367.967041016,-285.961761475,6.962295532200002,-2.114891052200001,-10.78302502632,3.285800933799999,11.939097404499996,-7.221410274509998,16.0
2018-10-18 15:08:02.700,0.164441417746,-0.124088613361,-0.918080019872,-0.335644990206,-0.0418633557856,0.124711118639,-2.46146915,0.9022118,8.75733845,0.0,-11.904425621,12.6655797958,-7.2496509552,-0.205932989717,0.0491023138165,-0.109815523028,11.6499996185,-367.967041016,-285.961761475,6.962295532200002,-2.1748905182000016,-10.91302490234,3.2594289780000008,11.954359054599996,-7.201102733609998,16.0
2018-10-18 15:08:02.750,0.164441417746,-0.124088613361,-0.918080019872,-0.335644990206,-0.0418633557856,0.124711118639,-2.46146915,0.9022118,8.75733845,0.0,-11.904425621,12.6655797958,-7.2496509552,-0.205932989717,0.0491023138165,-0.109815523028,11.6499996185,-367.967041016,-285.961761475,6.962295532200002,-2.2048912048000027,-10.90302491188,3.2710485457999994,11.958941459699997,-7.4647150039699985,16.0
2018-10-18 15:08:02.800,0.164441417746,-0.124088613361,-0.918080019872,-0.335644990206,-0.0418633557856,0.124711118639,-2.46146915,0.9022118,8.75733845,0.0,-11.904425621,12.6655797958,-7.2496509552,-0.205932989717,0.0491023138165,-0.109815523028,11.6499996185,-367.967041016,-285.961761475,6.962295532200002,-2.2048912048000027,-10.90302491188,3.2710485457999994,11.958941459699997,-7.4647150039699985,16.0
2018-10-18 15:08:02.850,0.164441417746,-0.124088613361,-0.918080019872,-0.335644990206,-0.0418633557856,0.124711118639,-2.46146915,0.9022118,8.75733845,0.0,-11.9509477615,12.6390886307,-7.76750087738,-0.335644990206,-0.0418633557856,0.124711118639,12.3599996567,-387.312316895,-284.795013428,6.962295532200002,-2.224891662600001,-10.8430249691,3.3609113693,11.950947761499997,-7.767500877379998,16.0
2018-10-18 15:08:02.900,0.164441417746,-0.124088613361,-0.918080019872,-0.335644990206,-0.0418633557856,0.124711118639,-2.46146915,0.9022118,8.75733845,0.0,-11.9509477615,12.6390886307,-7.76750087738,-0.335644990206,-0.0418633557856,0.124711118639,13.1199998856,-387.312316895,-283.611602783,6.962295532200002,-2.2748908996000026,-10.30302500725,3.4507608413999993,12.058849334699996,-7.892851829529998,16.0
2018-10-18 15:08:02.950,0.164441417746,-0.124088613361,-0.918080019872,-0.335644990206,-0.0418633557856,0.124711118639,-2.46146915,0.9022118,8.75733845,0.0,-11.9509477615,12.6390886307,-7.76750087738,-0.335644990206,-0.0418633557856,0.124711118639,13.1199998856,-387.312316895,-283.611602783,6.962295532200002,-2.2848911285,-10.29302501678,3.4507608413999993,12.058849334699996,-7.892851829529998,16.0
2018-10-18 15:08:03.000,0.190845017773,-0.0816254834128,-0.918286707377,-0.273606866598,0.0566197559237,-0.259189665318,-3.12832135,1.63771055,9.44380395,0.0,-11.9509477615,12.6390886307,-7.76750087738,-0.335644990206,-0.0418633557856,0.124711118639,13.9200000763,-407.116119385,-282.402740479,5.9612503051999965,-1.0650482177999976,-3.75067973137,3.425069809,12.207089424099996,-7.735548019409999,16.0
2018-10-18 15:08:03.050,0.190845017773,-0.0816254834128,-0.918286707377,-0.273606866598,0.0566197559237,-0.259189665318,-3.12832135,1.63771055,9.44380395,0.0,-11.9509477615,12.6390886307,-7.76750087738,-0.335644990206,-0.0418633557856,0.124711118639,13.9200000763,-407.116119385,-282.402740479,5.9612503051999965,-1.0650482177999976,-3.75067973137,3.3788537978999997,12.285441398599996,-7.608168601989998,16.0
2018-10-18 15:08:03.100,0.190845017773,-0.0816254834128,-0.918286707377,-0.273606866598,0.0566197559237,-0.259189665318,-3.12832135,1.63771055,9.44380395,0.0,-12.3364505768,12.6708669662,-7.51398277283,-0.273606866598,0.0566197559237,-0.259189665318,14.6799993515,-407.116119385,-281.202392578,5.9612503051999965,-1.0650482177999976,-3.44067978859,3.298207283,12.361006736799997,-7.456126689909998,16.0
2018-10-18 15:08:03.150,0.190845017773,-0.0816254834128,-0.918286707377,-0.273606866598,0.0566197559237,-0.259189665318,-3.12832135,1.63771055,9.44380395,0.0,-12.3364505768,12.6708669662,-7.51398277283,-0.273606866598,0.0566197559237,-0.259189665318,14.6799993515,-407.116119385,-281.202392578,5.9612503051999965,-1.0550479889000002,-3.44067978859,3.2206153870000005,12.414530754099996,-7.338880538939998,16.0
2018-10-18 15:08:03.200,0.190845017773,-0.0816254834128,-0.918286707377,-0.273606866598,0.0566197559237,-0.259189665318,-3.12832135,1.63771055,9.44380395,0.0,-12.3364505768,12.6708669662,-7.51398277283,-0.273606866598,0.0566197559237,-0.259189665318,15.4200000763,-395.795440674,-279.968231201,5.9612503051999965,-0.845046997099999,-3.5406799316399997,3.2122869491999992,12.416613578799996,-7.411053180689998,16.0
2018-10-18 15:08:03.250,0.190845017773,-0.0816254834128,-0.918286707377,-0.273606866598,0.0566197559237,-0.259189665318,-3.12832135,1.63771055,9.44380395,0.0,-12.3364505768,12.6708669662,-7.51398277283,-0.273606866598,0.0566197559237,-0.259189665318,15.4200000763,-395.795440674,-279.968231201,5.9612503051999965,-0.845046997099999,-3.5406799316399997,3.1987113953,12.424226760899996,-7.4736580848699985,16.0
2018-10-18 15:08:03.300,0.190845017773,-0.0816254834128,-0.918286707377,-0.273606866598,0.0566197559237,-0.259189665318,-3.12832135,1.63771055,9.44380395,0.0,-12.4448289871,12.8301906586,-7.54372310638,-0.273606866598,0.0566197559237,-0.259189665318,16.1700000763,-395.795440674,-278.725494385,5.9612503051999965,-0.14504814149999845,-3.60067987442,3.1698093414000006,12.444828987099996,-7.543723106379998,16.0
2018-10-18 15:08:03.350,0.181202805068,-0.089737222388,-0.902237530322,-0.301001995802,-0.0805594697595,-0.0545589514077,-2.8047019,0.6472389,8.3160392,0.0,-12.4448289871,12.8301906586,-7.54372310638,-0.273606866598,0.0566197559237,-0.259189665318,16.1700000763,-395.795440674,-278.725494385,5.9612503051999965,-0.14504814149999845,-3.61067986488,3.1401262282999998,12.473847389199996,-7.555347442629998,16.0
2018-10-18 15:08:03.400,0.181202805068,-0.089737222388,-0.902237530322,-0.301001995802,-0.0805594697595,-0.0545589514077,-2.8047019,0.6472389,8.3160392,0.0,-12.4448289871,12.8301906586,-7.54372310638,-0.273606866598,0.0566197559237,-0.259189665318,16.9200000763,-451.640136719,-277.47442627,0.5314979552999972,-0.08302497869999925,-3.74039018154,3.1175937653000005,12.527489662199997,-7.658328533169998,16.0
2018-10-18 15:08:03.450,0.181202805068,-0.089737222388,-0.902237530322,-0.301001995802,-0.0805594697595,-0.0545589514077,-2.8047019,0.6472389,8.3160392,0.0,-12.4448289871,12.8301906586,-7.54372310638,-0.273606866598,0.0566197559237,-0.259189665318,16.9200000763,-451.640136719,-277.47442627,0.5314979552999972,-0.08302497869999925,-3.74039018154,3.1175937653000005,12.527489662199997,-7.658328533169998,16.0
2018-10-18 15:08:03.500,0.181202805068,-0.089737222388,-0.902237530322,-0.301001995802,-0.0805594697595,-0.0545589514077,-2.8047019,0.6472389,8.3160392,0.0,-12.4448289871,12.8301906586,-7.54372310638,-0.273606866598,0.0566197559237,-0.259189665318,17.6900005341,-451.640136719,-276.223236084,0.5314979552999972,0.8569736480000003,-3.66039001942,3.1559152603000005,12.498038291899997,-8.029602050779998,16.0
2018-10-18 15:08:03.550,0.181202805068,-0.089737222388,-0.902237530322,-0.301001995802,-0.0805594697595,-0.0545589514077,-2.8047019,0.6472389,8.3160392,0.0,-12.4448289871,12.8301906586,-7.54372310638,-0.273606866598,0.0566197559237,-0.259189665318,17.6900005341,-451.640136719,-276.223236084,0.5314979552999972,0.8569736480000003,-3.66039001942,3.1456909179999997,12.526340484599997,-8.099036216739998,16.0
2018-10-18 15:08:03.600,0.181202805068,-0.089737222388,-0.902237530322,-0.301001995802,-0.0805594697595,-0.0545589514077,-2.8047019,0.6472389,8.3160392,0.0,-12.5311632156,12.8582859039,-8.12218761444,-0.301001995802,-0.0805594697595,-0.0545589514077,17.6900005341,-451.640136719,-276.223236084,0.5314979552999972,0.8569736480000003,-3.66039001942,3.1456909179999997,12.526340484599997,-8.099036216739998,16.0
2018-10-18 15:08:03.650,0.181202805068,-0.089737222388,-0.902237530322,-0.301001995802,-0.0805594697595,-0.0545589514077,-2.8047019,0.6472389,8.3160392,0.0,-12.5311632156,12.8582859039,-8.12218761444,-0.301001995802,-0.0805594697595,-0.0545589514077,18.5,-453.426940918,-274.95526123,0.5314979552999972,1.8069744109999988,-3.59039008617,3.1317367554000004,12.518218994099996,-8.261095046999998,16.0
2018-10-18 15:08:03.700,0.185888912169,-0.0722342804323,-0.90295199521,-0.0144288390875,0.00981434527785,-6.93947076797e-05,-3.20677455,-0.7649187,8.1199062,0.0,-12.5311632156,12.8582859039,-8.12218761444,-0.301001995802,-0.0805594697595,-0.0545589514077,19.3099994659,-453.426940918,-273.712646484,0.14139175420000072,2.387537002600002,-1.4906873106979999,3.1317367554000004,12.518218994099996,-8.261095046999998,16.0
2018-10-18 15:08:03.750,0.185888912169,-0.0722342804323,-0.90295199521,-0.0144288390875,0.00981434527785,-6.93947076797e-05,-3.20677455,-0.7649187,8.1199062,0.0,-12.5495433807,13.0307006836,-8.11749744415,-0.0144288390875,0.00981434527785,-6.93947076797e-05,19.3099994659,-453.426940918,-273.712646484,0.14139175420000072,2.387537002600002,-1.4906873106979999,2.9937934874999996,12.548561096199997,-8.136086463929999,16.0
2018-10-18 15:08:03.800,0.185888912169,-0.0722342804323,-0.90295199521,-0.0144288390875,0.00981434527785,-6.93947076797e-05,-3.20677455,-0.7649187,8.1199062,0.0,-12.5495433807,13.0307006836,-8.11749744415,-0.0144288390875,0.00981434527785,-6.93947076797e-05,19.3099994659,-453.426940918,-273.712646484,0.14139175420000072,3.137537002600002,-1.850687205788,2.9937934874999996,12.548561096199997,-8.136086463929999,16.0
2018-10-18 15:08:03.850,0.185888912169,-0.0722342804323,-0.90295199521,-0.0144288390875,0.00981434527785,-6.93947076797e-05,-3.20677455,-0.7649187,8.1199062,0.0,-12.5495433807,13.0307006836,-8.11749744415,-0.0144288390875,0.00981434527785,-6.93947076797e-05,20.1499996185,-447.262573242,-272.469909668,0.14139175420000072,3.137537002600002,-1.8606871962579998,2.8962659835999993,12.560633659399997,-8.094285964969998,16.0
2018-10-18 15:08:03.900,0.185888912169,-0.0722342804323,-0.90295199521,-0.0144288390875,0.00981434527785,-6.93947076797e-05,-3.20677455,-0.7649187,8.1199062,0.0,-12.5495433807,13.0307006836,-8.11749744415,-0.0144288390875,0.00981434527785,-6.93947076797e-05,20.9699993134,-447.262573242,-271.218688965,0.14139175420000072,3.887537002600002,-2.1206871867180004,2.8962659835999993,12.560633659399997,-8.094285964969998,16.0
2018-10-18 15:08:03.950,0.185888912169,-0.0722342804323,-0.90295199521,-0.0144288390875,0.00981434527785,-6.93947076797e-05,-3.20677455,-0.7649187,8.1199062,0.0,-12.5495433807,13.0307006836,-8.11749744415,-0.0144288390875,0.00981434527785,-6.93947076797e-05,20.9699993134,-447.262573242,-271.218688965,0.14139175420000072,3.887537002600002,-2.1206871867180004,2.9048023224,12.517152786299997,-8.271743774409998,16.0
2018-10-18 15:08:04.000,0.185888912169,-0.0722342804323,-0.90295199521,-0.0144288390875,0.00981434527785,-6.93947076797e-05,-3.20677455,-0.7649187,8.1199062,0.0,-12.5495433807,13.0307006836,-8.11749744415,-0.0144288390875,0.00981434527785,-6.93947076797e-05,21.7999992371,-468.555053711,-269.976074219,0.14139175420000072,4.937536239700002,-2.2706872820879997,2.9048023224,12.517152786299997,-8.271743774409998,16.0
2018-10-18 15:08:04.050,0.185888912169,-0.0722342804323,-0.90295199521,-0.0144288390875,0.00981434527785,-6.93947076797e-05,-3.20677455,-0.7649187,8.1199062,0.0,-12.5423231125,13.1069145203,-8.28538513184,-0.0144288390875,0.00981434527785,-6.93947076797e-05,21.7999992371,-468.555053711,-269.976074219,0.14139175420000072,4.937536239700002,-2.2706872820879997,2.8937072754000006,12.536369323699997,-8.276281356809998,16.0
2018-10-18 15:08:04.100,0.185888912169,-0.0722342804323,-0.90295199521,-0.0144288390875,0.00981434527785,-6.93947076797e-05,-3.20677455,-0.7649187,8.1199062,0.0,-12.5423231125,13.1069145203,-8.28538513184,-0.0144288390875,0.00981434527785,-6.93947076797e-05,21.7999992371,-468.555053711,-269.976074219,0.14139175420000072,4.937536239700002,-2.2706872820879997,2.8937072754000006,12.536369323699997,-8.276281356809998,16.0
2018-10-18 15:08:04.150,0.185888912169,-0.0722342804323,-0.90295199521,-0.0144288390875,0.00981434527785,-6.93947076797e-05,-3.20677455,-0.7649187,8.1199062,0.0,-12.5423231125,13.1069145203,-8.28538513184,-0.0144288390875,0.00981434527785,-6.93947076797e-05,22.6499996185,-468.555053711,-268.733459473,0.14139175420000072,5.8675365448,-2.2106871008880002,2.9335746764999993,12.612043380699996,-8.300178527829999,16.0
2018-10-18 15:08:04.200,0.167497953518,-0.0750268250847,-0.92017105117,-0.364642351866,-0.0680645629764,-0.0205352082849,-3.34406765,0.89240515,9.87529655,0.0,-12.5423231125,13.1069145203,-8.28538513184,-0.0144288390875,0.00981434527785,-6.93947076797e-05,23.5,-466.033172607,-267.490783691,0.14139175420000072,6.857536316000001,-1.760687291618,3.0104331969999993,12.643999099699997,-8.429406166079998,16.0
2018-10-18 15:08:04.250,0.167497953518,-0.0750268250847,-0.92017105117,-0.364642351866,-0.0680645629764,-0.0205352082849,-3.34406765,0.89240515,9.87529655,0.0,-12.7593860626,12.9785003662,-8.20313930511,-0.364642351866,-0.0680645629764,-0.0205352082849,23.5,-466.033172607,-267.490783691,5.058300018300002,4.969228744599999,-3.81495916843,3.031237602199999,12.718566894499997,-8.300638198849999,16.0
2018-10-18 15:08:04.300,0.167497953518,-0.0750268250847,-0.92017105117,-0.364642351866,-0.0680645629764,-0.0205352082849,-3.34406765,0.89240515,9.87529655,0.0,-12.7593860626,12.9785003662,-8.20313930511,-0.364642351866,-0.0680645629764,-0.0205352082849,23.5,-466.033172607,-267.490783691,5.058300018300002,4.969228744599999,-3.81495916843,3.031237602199999,12.718566894499997,-8.300638198849999,16.0
2018-10-18 15:08:04.350,0.167497953518,-0.0750268250847,-0.92017105117,-0.364642351866,-0.0680645629764,-0.0205352082849,-3.34406765,0.89240515,9.87529655,0.0,-12.7593860626,12.9785003662,-8.20313930511,-0.364642351866,-0.0680645629764,-0.0205352082849,24.359998703,-466.033172607,-266.239715576,5.058300018300002,5.919228553799998,-3.24495911598,3.0499105452999995,12.894910812399996,-7.997018337249998,16.0
2018-10-18 15:08:04.400,0.167497953518,-0.0750268250847,-0.92017105117,-0.364642351866,-0.0680645629764,-0.0205352082849,-3.34406765,0.89240515,9.87529655,0.0,-12.7593860626,12.9785003662,-8.20313930511,-0.364642351866,-0.0680645629764,-0.0205352082849,25.1899986267,-483.529846191,-264.963195801,5.058300018300002,6.6092281341999986,-2.56495904922,3.0765590668,12.943081855799996,-7.918984889979998,16.0
2018-10-18 15:08:04.450,0.167497953518,-0.0750268250847,-0.92017105117,-0.364642351866,-0.0680645629764,-0.0205352082849,-3.34406765,0.89240515,9.87529655,0.0,-12.7593860626,12.9785003662,-8.20313930511,-0.364642351866,-0.0680645629764,-0.0205352082849,25.1899986267,-483.529846191,-264.963195801,5.058300018300002,6.6092281341999986,-2.044959127903,3.0919628143000004,12.979399681099997,-7.867901802059998,16.0
2018-10-18 15:08:04.500,0.167497953518,-0.0750268250847,-0.92017105117,-0.364642351866,-0.0680645629764,-0.0205352082849,-3.34406765,0.89240515,9.87529655,0.0,-13.0836029053,12.8895797729,-7.70065069199,-0.364642351866,-0.0680645629764,-0.0205352082849,26.0,-483.529846191,-263.678314209,5.058300018300002,7.399228096099998,-2.044959127903,3.1081285477,13.032730102499997,-7.827049732209998,16.0
2018-10-18 15:08:04.550,0.165438427253,-0.0257771057727,-0.915676949511,-0.133520200849,-0.150923997164,-0.145695701241,-2.9027684,0.1569064,12.18966595,0.0,-13.0836029053,12.8895797729,-7.70065069199,-0.364642351866,-0.0680645629764,-0.0205352082849,26.0,-483.529846191,-263.678314209,5.058300018300002,7.399228096099998,-2.054959118366,3.1116409302,13.108611106899996,-7.634901046749998,16.0
2018-10-18 15:08:04.600,0.165438427253,-0.0257771057727,-0.915676949511,-0.133520200849,-0.150923997164,-0.145695701241,-2.9027684,0.1569064,12.18966595,0.0,-13.0836029053,12.8895797729,-7.70065069199,-0.364642351866,-0.0680645629764,-0.0205352082849,26.7699985504,-502.501495361,-262.368103027,1.7552452087000034,5.662610054,4.323757991193999,3.1094083785999995,13.187662124599996,-7.484029293059998,16.0
2018-10-18 15:08:04.650,0.165438427253,-0.0257771057727,-0.915676949511,-0.133520200849,-0.150923997164,-0.145695701241,-2.9027684,0.1569064,12.18966595,0.0,-13.0836029053,12.8895797729,-7.70065069199,-0.364642351866,-0.0680645629764,-0.0205352082849,26.7699985504,-502.501495361,-262.368103027,1.7552452087000034,5.672610282899999,4.333757996558,3.1140937804999993,13.301278114299997,-7.200635910029998,16.0
2018-10-18 15:08:04.700,0.165438427253,-0.0257771057727,-0.915676949511,-0.133520200849,-0.150923997164,-0.145695701241,-2.9027684,0.1569064,12.18966595,0.0,-13.0836029053,12.8895797729,-7.70065069199,-0.364642351866,-0.0680645629764,-0.0205352082849,27.5199985504,-502.501495361,-261.049255371,1.7552452087000034,6.182609558099999,4.873757988214,3.1112232207999995,13.354749679599996,-7.023834705349998,16.0
2018-10-18 15:08:04.750,0.165438427253,-0.0257771057727,-0.915676949511,-0.133520200849,-0.150923997164,-0.145695701241,-2.9027684,0.1569064,12.18966595,0.0,-13.3793973923,12.9005327225,-6.95917844772,-0.133520200849,-0.150923997164,-0.145695701241,27.5199985504,-502.501495361,-261.049255371,1.7552452087000034,6.182609558099999,4.873757988214,3.1112232207999995,13.354749679599996,-7.023834705349998,16.0
2018-10-18 15:08:04.800,0.165438427253,-0.0257771057727,-0.915676949511,-0.133520200849,-0.150923997164,-0.145695701241,-2.9027684,0.1569064,12.18966595,0.0,-13.3793973923,12.9005327225,-6.95917844772,-0.133520200849,-0.150923997164,-0.145695701241,28.2299995422,-510.934448242,-259.705169678,1.7552452087000034,6.622610092199999,5.173757970332,3.086045265199999,13.431722640999997,-6.794338226319998,16.0
2018-10-18 15:08:04.850,0.165438427253,-0.0257771057727,-0.915676949511,-0.133520200849,-0.150923997164,-0.145695701241,-2.9027684,0.1569064,12.18966595,0.0,-13.3793973923,12.9005327225,-6.95917844772,-0.133520200849,-0.150923997164,-0.145695701241,28.2299995422,-510.934448242,-259.705169678,1.7552452087000034,6.622610092199999,5.183757960796,3.0755605698000004,13.551397323599996,-6.437834739689999,16.0
2018-10-18 15:08:04.900,0.136343104625,-0.0268744576865,-0.919003897983,0.152680307627,-0.165021494031,0.090920984745,-2.83412185,0.2353596,16.4555587,0.0,-13.3793973923,12.9005327225,-6.95917844772,-0.133520200849,-0.150923997164,-0.145695701241,28.8999996185,-510.934448242,-258.361083984,1.7552452087000034,6.7926101684999995,5.733757972719999,3.0676631926999995,13.626827239999997,-6.157988548279998,16.0
2018-10-18 15:08:04.950,0.136343104625,-0.0268744576865,-0.919003897983,0.152680307627,-0.165021494031,0.090920984745,-2.83412185,0.2353596,16.4555587,0.0,-13.7336769104,12.9273777008,-5.82164001465,0.152680307627,-0.165021494031,0.090920984745,28.8999996185,-510.934448242,-258.361083984,1.8326644897000008,3.7098598481000007,4.3191523552,3.076057434100001,13.762362480199997,-5.755276203159998,16.0
2018-10-18 15:08:05.000,0.136343104625,-0.0268744576865,-0.919003897983,0.152680307627,-0.165021494031,0.090920984745,-2.83412185,0.2353596,16.4555587,0.0,-13.7336769104,12.9273777008,-5.82164001465,0.152680307627,-0.165021494031,0.090920984745,29.5,-535.558105469,-256.991668701,1.8326644897000008,3.739859581000001,4.95915234089,3.076057434100001,13.762362480199997,-5.755276203159998,16.0
2018-10-18 15:08:05.050,0.136343104625,-0.0268744576865,-0.919003897983,0.152680307627,-0.165021494031,0.090920984745,-2.83412185,0.2353596,16.4555587,0.0,-13.7336769104,12.9273777008,-5.82164001465,0.152680307627,-0.165021494031,0.090920984745,29.5,-535.558105469,-256.991668701,1.8326644897000008,3.739859581000001,4.95915234089,3.108410835300001,13.814826011699996,-5.5892176628099985,16.0
2018-10-18 15:08:05.100,0.136343104625,-0.0268744576865,-0.919003897983,0.152680307627,-0.165021494031,0.090920984745,-2.83412185,0.2353596,16.4555587,0.0,-13.7336769104,12.9273777008,-5.82164001465,0.152680307627,-0.165021494031,0.090920984745,30.0699996948,-535.558105469,-255.622192383,1.8326644897000008,3.899859428400001,5.46915221215,3.1463985443,13.860996246299996,-5.443965435029998,16.0
2018-10-18 15:08:05.150,0.136343104625,-0.0268744576865,-0.919003897983,0.152680307627,-0.165021494031,0.090920984745,-2.83412185,0.2353596,16.4555587,0.0,-13.9210348129,12.7782363892,-5.30781602859,0.152680307627,-0.165021494031,0.090920984745,30.0699996948,-535.558105469,-255.622192383,1.8326644897000008,3.899859428400001,5.479152202610001,3.2088470459000007,13.917229652399996,-5.322151184079998,16.0
2018-10-18 15:08:05.200,0.136343104625,-0.0268744576865,-0.919003897983,0.152680307627,-0.165021494031,0.090920984745,-2.83412185,0.2353596,16.4555587,0.0,-13.9210348129,12.7782363892,-5.30781602859,0.152680307627,-0.165021494031,0.090920984745,30.0699996948,-535.558105469,-255.622192383,1.8326644897000008,3.899859428400001,5.479152202610001,3.2088470459000007,13.917229652399996,-5.322151184079998,16.0
2018-10-18 15:08:05.250,0.136343104625,-0.0268744576865,-0.919003897983,0.152680307627,-0.165021494031,0.090920984745,-2.83412185,0.2353596,16.4555587,0.0,-13.9210348129,12.7782363892,-5.30781602859,0.152680307627,-0.165021494031,0.090920984745,30.5999984741,-571.107299805,-254.244354248,1.8326644897000008,4.019859314000001,5.999152421950001,3.2579593657999997,13.930724143999996,-5.299972057339998,16.0
2018-10-18 15:08:05.300,0.114492554276,-0.0228382858119,-0.919413396908,-0.0977843105793,-0.152344435453,-0.113388165832,-2.6674088,0.6080123,10.24794925,0.0,-13.9210348129,12.7782363892,-5.30781602859,0.152680307627,-0.165021494031,0.090920984745,31.1299991608,-571.107299805,-252.857879639,1.8326644897000008,4.1798601151,6.33915233612,3.293414115899999,13.955007553099996,-5.161942958829998,16.0
2018-10-18 15:08:05.350,0.114492554276,-0.0228382858119,-0.919413396908,-0.0977843105793,-0.152344435453,-0.113388165832,-2.6674088,0.6080123,10.24794925,0.0,-13.9210348129,12.7782363892,-5.30781602859,0.152680307627,-0.165021494031,0.090920984745,31.1299991608,-571.107299805,-252.857879639,1.2628021239999967,1.6509046554999998,5.8900794982899995,3.3409252167000005,13.960703849799996,-5.093433856959998,16.0
2018-10-18 15:08:05.400,0.114492554276,-0.0228382858119,-0.919413396908,-0.0977843105793,-0.152344435453,-0.113388165832,-2.6674088,0.6080123,10.24794925,0.0,-13.9210348129,12.7782363892,-5.30781602859,0.152680307627,-0.165021494031,0.090920984745,31.6399993896,-564.891235352,-251.480010986,1.2628021239999967,1.8009042740000005,6.18007946014,3.3841152191,13.966880798299997,-5.0156774520899985,16.0
2018-10-18 15:08:05.450,0.114492554276,-0.0228382858119,-0.919413396908,-0.0977843105793,-0.152344435453,-0.113388165832,-2.6674088,0.6080123,10.24794925,0.0,-13.9647064209,12.5997886658,-4.98744869232,-0.0977843105793,-0.152344435453,-0.113388165832,31.6399993896,-564.891235352,-251.480010986,1.2628021239999967,1.8009042740000005,6.190079450600001,3.4297332764000004,13.962712287899997,-5.000482082369998,16.0
2018-10-18 15:08:05.500,0.114492554276,-0.0228382858119,-0.919413396908,-0.0977843105793,-0.152344435453,-0.113388165832,-2.6674088,0.6080123,10.24794925,0.0,-13.9647064209,12.5997886658,-4.98744869232,-0.0977843105793,-0.152344435453,-0.113388165832,31.6399993896,-564.891235352,-251.480010986,1.2628021239999967,1.8009042740000005,6.190079450600001,3.4297332764000004,13.962712287899997,-5.000482082369998,16.0
2018-10-18 15:08:05.550,0.114492554276,-0.0228382858119,-0.919413396908,-0.0977843105793,-0.152344435453,-0.113388165832,-2.6674088,0.6080123,10.24794925,0.0,-13.9647064209,12.5997886658,-4.98744869232,-0.0977843105793,-0.152344435453,-0.113388165832,32.1499977112,-564.891235352,-250.093704224,1.2628021239999967,1.9409046172999993,6.520079374310001,3.4490222931000005,13.933984756499996,-5.029032707209998,16.0
2018-10-18 15:08:05.600,0.114492554276,-0.0228382858119,-0.919413396908,-0.0977843105793,-0.152344435453,-0.113388165832,-2.6674088,0.6080123,10.24794925,0.0,-13.9647064209,12.5997886658,-4.98744869232,-0.0977843105793,-0.152344435453,-0.113388165832,32.6599998474,-563.231445312,-248.724258423,1.2628021239999967,2.1909046172999993,6.440079450600001,3.4376707077000006,13.892320632899997,-4.972236156459998,16.0
2018-10-18 15:08:05.650,0.114492554276,-0.0228382858119,-0.919413396908,-0.0977843105793,-0.152344435453,-0.113388165832,-2.6674088,0.6080123,10.24794925,0.0,-13.8508834839,12.5866804123,-4.84228563309,-0.0977843105793,-0.152344435453,-0.113388165832,32.6599998474,-563.231445312,-248.724258423,1.2628021239999967,2.1909046172999993,6.440079450600001,3.4133195877,13.850883483899997,-4.842285633089999,16.0
2018-10-18 15:08:05.700,0.114492554276,-0.0228382858119,-0.919413396908,-0.0977843105793,-0.152344435453,-0.113388165832,-2.6674088,0.6080123,10.24794925,0.0,-13.8508834839,12.5866804123,-4.84228563309,-0.0977843105793,-0.152344435453,-0.113388165832,33.1699981689,-563.231445312,-247.354873657,1.2628021239999967,3.0009040833,6.07007956504,3.4116611481000003,13.833630561799996,-4.840373516079998,16.0
2018-10-18 15:08:05.750,0.0852480914286,-0.045243599627,-0.920489725088,0.416303515434,-0.00425332318991,0.222177997231,-2.38301595,-0.5491724,9.1005712,0.0,-13.8508834839,12.5866804123,-4.84228563309,-0.0977843105793,-0.152344435453,-0.113388165832,33.1699981689,-563.231445312,-247.354873657,1.3839759827000009,0.8630561828999994,2.38648283481,3.4046459198,13.765220642099996,-4.847504138949998,16.0
2018-10-18 15:08:05.800,0.0852480914286,-0.045243599627,-0.920489725088,0.416303515434,-0.00425332318991,0.222177997231,-2.38301595,-0.5491724,9.1005712,0.0,-13.8508834839,12.5866804123,-4.84228563309,-0.0977843105793,-0.152344435453,-0.113388165832,33.6699981689,-553.072570801,-245.993759155,1.3839759827000009,3.1030564308399997,1.9964827299099999,3.4023637771999997,13.735145568799997,-4.682725906369998,16.0
2018-10-18 15:08:05.850,0.0852480914286,-0.045243599627,-0.920489725088,0.416303515434,-0.00425332318991,0.222177997231,-2.38301595,-0.5491724,9.1005712,0.0,-13.8508834839,12.5866804123,-4.84228563309,-0.0977843105793,-0.152344435453,-0.113388165832,33.6699981689,-553.072570801,-245.993759155,1.3839759827000009,3.1030564308399997,1.9964827299099999,3.4149684905999997,13.764025688199997,-4.332290172579998,16.0
2018-10-18 15:08:05.900,0.0852480914286,-0.045243599627,-0.920489725088,0.416303515434,-0.00425332318991,0.222177997231,-2.38301595,-0.5491724,9.1005712,0.0,-13.8108043671,12.5412139893,-4.05125665665,0.416303515434,-0.00425332318991,0.222177997231,34.1499977112,-553.072570801,-244.649734497,1.3839759827000009,4.92305612567,2.07648265362,3.425419807400001,13.781317710899996,-4.2448682784999985,16.0
2018-10-18 15:08:05.950,0.0852480914286,-0.045243599627,-0.920489725088,0.416303515434,-0.00425332318991,0.222177997231,-2.38301595,-0.5491724,9.1005712,0.0,-13.8108043671,12.5412139893,-4.05125665665,0.416303515434,-0.00425332318991,0.222177997231,34.1499977112,-553.072570801,-244.649734497,1.3839759827000009,4.92305612567,2.08648264408,3.4724531174000006,13.833122253399996,-3.942644834519998,16.0
2018-10-18 15:08:06.000,0.0852480914286,-0.045243599627,-0.920489725088,0.416303515434,-0.00425332318991,0.222177997231,-2.38301595,-0.5491724,9.1005712,0.0,-13.8108043671,12.5412139893,-4.05125665665,0.416303515434,-0.00425332318991,0.222177997231,34.5699996948,-546.442993164,-243.297210693,1.3839759827000009,6.553056240109999,2.69648277759,3.525403022800001,13.891121864299997,-3.7045309543599982,16.0
2018-10-18 15:08:06.050,0.0971447225313,0.0264285081939,-0.93522291978,-0.452029168606,-0.0749095976353,0.0316930413246,-2.1378497,1.01008495,15.89657965,0.0,-13.8108043671,12.5412139893,-4.05125665665,0.416303515434,-0.00425332318991,0.222177997231,34.5699996948,-546.442993164,-243.297210693,1.3839759827000009,6.56305599215,2.70648276806,3.6155614853000007,13.998917579699997,-3.349810838699998,16.0
2018-10-18 15:08:06.100,0.0971447225313,0.0264285081939,-0.93522291978,-0.452029168606,-0.0749095976353,0.0316930413246,-2.1378497,1.01008495,15.89657965,0.0,-13.8108043671,12.5412139893,-4.05125665665,0.416303515434,-0.00425332318991,0.222177997231,34.9399986267,-546.442993164,-241.927780151,5.5483474731000015,6.365319728849999,11.69683599472,3.691737175,14.073901176499996,-3.1227478980999983,16.0
2018-10-18 15:08:06.150,0.0971447225313,0.0264285081939,-0.93522291978,-0.452029168606,-0.0749095976353,0.0316930413246,-2.1378497,1.01008495,15.89657965,0.0,-13.8108043671,12.5412139893,-4.05125665665,0.416303515434,-0.00425332318991,0.222177997231,34.9399986267,-546.442993164,-241.927780151,5.5483474731000015,6.365319728849999,11.69683599472,3.691737175,14.073901176499996,-3.1227478980999983,16.0
2018-10-18 15:08:06.200,0.0971447225313,0.0264285081939,-0.93522291978,-0.452029168606,-0.0749095976353,0.0316930413246,-2.1378497,1.01008495,15.89657965,0.0,-14.2610340118,12.1159095764,-2.71014904976,-0.452029168606,-0.0749095976353,0.0316930413246,35.25,-548.804077148,-240.53302002,5.5483474731000015,7.695319652559999,13.06683588028,3.8840904236,14.261034011799996,-2.7101490497599983,16.0
2018-10-18 15:08:06.250,0.0971447225313,0.0264285081939,-0.93522291978,-0.452029168606,-0.0749095976353,0.0316930413246,-2.1378497,1.01008495,15.89657965,0.0,-14.2610340118,12.1159095764,-2.71014904976,-0.452029168606,-0.0749095976353,0.0316930413246,35.25,-548.804077148,-240.53302002,5.5483474731000015,7.695319652559999,14.43683576584,4.004526138299999,14.365719795199997,-2.4923236370099984,16.0
2018-10-18 15:08:06.300,0.0971447225313,0.0264285081939,-0.93522291978,-0.452029168606,-0.0749095976353,0.0316930413246,-2.1378497,1.01008495,15.89657965,0.0,-14.2610340118,12.1159095764,-2.71014904976,-0.452029168606,-0.0749095976353,0.0316930413246,35.5200004578,-548.804077148,-239.121337891,5.5483474731000015,8.915319681167,14.43683576584,4.0740938187,14.425508499099996,-2.3993711471599983,16.0
