%time,field.orientation.x,field.orientation.y,field.orientation.z,field.angular_velocity.x,field.angular_velocity.y,field.angular_velocity.z,field.linear_acceleration.x,field.linear_acceleration.y,field.linear_acceleration.z,field.data,field.twist.linear.x,field.twist.linear.y,field.twist.linear.z,field.twist.angular.x,field.twist.angular.y,field.twist.angular.z,field.alt_error,field.aspd_error,field.xtrack_error,delta_yaw,delta_pitch,delta_roll,delta_x,delta_y,delta_z,delta_roll_airspeed
2018-10-05 19:58:19.400,,,,,,,,,,0.0,,,,,,,-0.42999997735,-1111.59814453,-32.1823654175,-177.2114086151,5.0031016617997,31.437422275590002,-26.4445590973,-8.21530437469,0.63579595089,15.0
2018-10-05 19:58:19.450,,,,,,,,,,0.0,8.00008583069,26.419128418,0.62713098526,1.0339499712,-0.250754445791,0.209360569715,-0.680000007153,-1117.02197266,-26.7448539734,-178.2114086151,4.9231017380997,32.08742237095,-10.3780555725,-7.641142368320003,0.753082811832002,15.0
2018-10-05 19:58:19.500,,,,,,,,,,0.0,8.00008583069,26.419128418,0.62713098526,1.0339499712,-0.250754445791,0.209360569715,-0.680000007153,-1117.02197266,-26.7448539734,-178.2114086151,4.9231017380997,32.08742237095,-10.3780555725,-7.641142368320003,0.753082811832002,15.0
2018-10-05 19:58:19.550,,,,,,,,,,0.0,8.00008583069,26.419128418,0.62713098526,1.0339499712,-0.250754445791,0.209360569715,-0.680000007153,-1117.02197266,-26.7448539734,-178.2114086151,4.4931019097597,32.41742229466,-10.302879333500002,-7.158433437350004,1.059683680530002,15.0
2018-10-05 19:58:19.600,,,,,,,,,,0.0,8.00008583069,26.419128418,0.62713098526,1.0339499712,-0.250754445791,0.209360569715,-0.8599999547,-1090.09118652,-512.739501953,-63.2114086151,4.0531018525397,34.0474224091,-10.2768592834,-7.036586761470003,1.163543939590002,16.0
2018-10-05 19:58:19.650,,,,,,,,,,0.0,6.6975684166,26.1901397705,1.42407345772,1.0339499712,-0.250754445791,0.209360569715,-1.10000002384,-990.091125488,-513.441162109,-57.376761436500004,-1.3392910957400002,-31.274480819700003,-10.124576568599998,-6.485812187190003,1.542603611950002,16.0
2018-10-05 19:58:19.700,0.0792044865188,0.0916099599575,-0.613231379277,0.323590964079,-0.134817332029,0.23276989162,-1.4317709,1.93191005,15.70044665,0.0,6.6975684166,26.1901397705,1.42407345772,1.0339499712,-0.250754445791,0.209360569715,-1.10000002384,-990.091125488,-513.441162109,-57.376761436500004,-4.49929106236,-31.274480819700003,-10.0285396576,-6.183157920840004,1.629644036290002,16.0
2018-10-05 19:58:19.750,0.0792044865188,0.0916099599575,-0.613231379277,0.323590964079,-0.134817332029,0.23276989162,-1.4317709,1.93191005,15.70044665,0.0,6.6975684166,26.1901397705,1.42407345772,1.0339499712,-0.250754445791,0.209360569715,-1.10000002384,-990.091125488,-513.441162109,-57.376761436500004,-4.49929106236,-31.274480819700003,-10.0285396576,-6.183157920840004,1.629644036290002,16.0
2018-10-05 19:58:19.800,0.0792044865188,0.0916099599575,-0.613231379277,0.323590964079,-0.134817332029,0.23276989162,-1.4317709,1.93191005,15.70044665,0.0,6.6975684166,26.1901397705,1.42407345772,1.0339499712,-0.250754445791,0.209360569715,-1.37000000477,-932.473022461,-514.09161377,-57.376761436500004,-10.4592909813,-31.284482955899996,-9.8902893066,-5.7848129272500035,1.677356600760002,16.0
2018-10-05 19:58:19.850,0.0792044865188,0.0916099599575,-0.613231379277,0.323590964079,-0.134817332029,0.23276989162,-1.4317709,1.93191005,15.70044665,0.0,6.6975684166,26.1901397705,1.42407345772,1.0339499712,-0.250754445791,0.209360569715,-1.37000000477,-932.473022461,-514.09161377,-57.376761436500004,-10.4592909813,-31.284482955899996,-9.857858657800001,-5.672475814820004,1.692674756050002,16.0
2018-10-05 19:58:19.900,0.0792044865188,0.0916099599575,-0.613231379277,0.323590964079,-0.134817332029,0.23276989162,-1.4317709,1.93191005,15.70044665,0.0,5.14916801453,25.7428894043,1.80823290348,0.323590964079,-0.134817332029,0.23276989162,-1.66999995708,-932.473022461,-514.700195312,-57.376761436500004,-14.48929071429,-31.294481277499997,-9.742889404300001,-5.149168014530003,1.808232903480002,16.0
2018-10-05 19:58:19.950,0.0792044865188,0.0916099599575,-0.613231379277,0.323590964079,-0.134817332029,0.23276989162,-1.4317709,1.93191005,15.70044665,0.0,5.14916801453,25.7428894043,1.80823290348,0.323590964079,-0.134817332029,0.23276989162,-1.66999995708,-932.473022461,-514.700195312,-57.376761436500004,-14.529290676090001,-31.304479598999997,-9.660451889,-4.796772480010003,1.745300531390002,16.0
2018-10-05 19:58:20.000,0.0792044865188,0.0916099599575,-0.613231379277,0.323590964079,-0.134817332029,0.23276989162,-1.4317709,1.93191005,15.70044665,0.0,5.14916801453,25.7428894043,1.80823290348,0.323590964079,-0.134817332029,0.23276989162,-1.66999995708,-932.473022461,-514.700195312,-57.376761436500004,-14.529290676090001,-31.304479598999997,-9.660451889,-4.796772480010003,1.745300531390002,16.0
2018-10-05 19:58:20.050,0.17053370568,0.156219319943,-0.6178157806,-0.66473031044,0.159172952175,-0.161098688841,-1.569064,1.87307015,10.198916,0.0,5.14916801453,25.7428894043,1.80823290348,0.323590964079,-0.134817332029,0.23276989162,-1.9699999094,-879.279724121,-515.241210938,-54.8275089264,-15.420638680509999,-18.2692260742,-9.5225391388,-4.221954345700004,1.620773673060002,16.0
2018-10-05 19:58:20.100,0.17053370568,0.156219319943,-0.6178157806,-0.66473031044,0.159172952175,-0.161098688841,-1.569064,1.87307015,10.198916,0.0,5.14916801453,25.7428894043,1.80823290348,0.323590964079,-0.134817332029,0.23276989162,-2.26999998093,-879.279724121,-515.722595215,-54.8275089264,-17.48063910011,-18.2692260742,-9.469882965099998,-4.007901668550003,1.553959012030002,16.0
2018-10-05 19:58:20.150,0.17053370568,0.156219319943,-0.6178157806,-0.66473031044,0.159172952175,-0.161098688841,-1.569064,1.87307015,10.198916,0.0,4.00790166855,25.4698829651,1.55395901203,-0.66473031044,0.159172952175,-0.161098688841,-2.26999998093,-879.279724121,-515.722595215,-54.8275089264,-17.47063887121,-18.2692260742,-9.4115848541,-3.8259310722400035,1.440656900410002,16.0
2018-10-05 19:58:20.200,0.17053370568,0.156219319943,-0.6178157806,-0.66473031044,0.159172952175,-0.161098688841,-1.569064,1.87307015,10.198916,0.0,4.00790166855,25.4698829651,1.55395901203,-0.66473031044,0.159172952175,-0.161098688841,-2.53999996185,-879.279724121,-516.153747559,-54.8275089264,-19.63063871861,-18.2692260742,-9.321784973100002,-3.5943968296100035,1.245073795320002,16.0
2018-10-05 19:58:20.250,0.17053370568,0.156219319943,-0.6178157806,-0.66473031044,0.159172952175,-0.161098688841,-1.569064,1.87307015,10.198916,0.0,4.00790166855,25.4698829651,1.55395901203,-0.66473031044,0.159172952175,-0.161098688841,-2.53999996185,-879.279724121,-516.153747559,-54.8275089264,-19.63063871861,-18.259223937999998,-9.230754852299999,-3.3711140155800035,1.061662316320002,16.0
2018-10-05 19:58:20.300,0.17053370568,0.156219319943,-0.6178157806,-0.66473031044,0.159172952175,-0.161098688841,-1.569064,1.87307015,10.198916,0.0,4.00790166855,25.4698829651,1.55395901203,-0.66473031044,0.159172952175,-0.161098688841,-2.53999996185,-879.279724121,-516.153747559,-54.8275089264,-19.63063871861,-18.259223937999998,-9.230754852299999,-3.3711140155800035,1.061662316320002,16.0
2018-10-05 19:58:20.350,0.17053370568,0.156219319943,-0.6178157806,-0.66473031044,0.159172952175,-0.161098688841,-1.569064,1.87307015,10.198916,0.0,3.08240175247,25.1152000427,0.821329593658,-0.66473031044,0.159172952175,-0.161098688841,-2.77999997139,-843.643737793,-516.542236328,-54.8275089264,-21.82063734531,-18.259223937999998,-9.1152000427,-3.0824017524700036,0.821329593658002,16.0
2018-10-05 19:58:20.400,0.17053370568,0.156219319943,-0.6178157806,-0.66473031044,0.159172952175,-0.161098688841,-1.569064,1.87307015,10.198916,0.0,3.08240175247,25.1152000427,0.821329593658,-0.66473031044,0.159172952175,-0.161098688841,-2.77999997139,-843.643737793,-516.542236328,-54.8275089264,-21.82063734531,-18.259223937999998,-9.1152000427,-3.0824017524700036,0.821329593658002,16.0
2018-10-05 19:58:20.450,0.2016855758,0.166918732089,-0.586154681829,0.00978172197938,0.112499639392,0.0607453733683,-1.69655045,-0.5099458,7.3549875,0.0,3.08240175247,25.1152000427,0.821329593658,-0.66473031044,0.159172952175,-0.161098688841,-2.98000001907,-799.785400391,-516.897338867,-58.9022464752,-22.69889938831,-14.6549415589,-8.971918106099999,-2.7874267101300036,0.46363347768800195,16.0
2018-10-05 19:58:20.500,0.2016855758,0.166918732089,-0.586154681829,0.00978172197938,0.112499639392,0.0607453733683,-1.69655045,-0.5099458,7.3549875,0.0,3.08240175247,25.1152000427,0.821329593658,-0.66473031044,0.159172952175,-0.161098688841,-3.13999986649,-799.785400391,-517.235046387,-58.9022464752,-22.71889984611,-14.6549415589,-8.971918106099999,-2.7874267101300036,0.46363347768800195,16.0
2018-10-05 19:58:20.550,0.2016855758,0.166918732089,-0.586154681829,0.00978172197938,0.112499639392,0.0607453733683,-1.69655045,-0.5099458,7.3549875,0.0,3.08240175247,25.1152000427,0.821329593658,-0.66473031044,0.159172952175,-0.161098688841,-3.13999986649,-799.785400391,-517.235046387,-58.9022464752,-22.71889984611,-14.6549415589,-8.791604995699998,-2.4629740715000037,-0.035859625786498046,16.0
2018-10-05 19:58:20.600,0.2016855758,0.166918732089,-0.586154681829,0.00978172197938,0.112499639392,0.0607453733683,-1.69655045,-0.5099458,7.3549875,0.0,2.38162183762,24.7400665283,-0.239840313792,0.00978172197938,0.112499639392,0.0607453733683,-3.26999998093,-799.785400391,-517.530700684,-58.9022464752,-22.71889984611,-14.6549415589,-8.7669448853,-2.4313004016900037,-0.14000038802599804,16.0
2018-10-05 19:58:20.650,0.2016855758,0.166918732089,-0.586154681829,0.00978172197938,0.112499639392,0.0607453733683,-1.69655045,-0.5099458,7.3549875,0.0,2.38162183762,24.7400665283,-0.239840313792,0.00978172197938,0.112499639392,0.0607453733683,-3.26999998093,-799.785400391,-517.530700684,-58.9022464752,-22.678898930509998,-14.644943237299998,-8.6496944427,-2.2410869598400036,-0.547129273414998,16.0
2018-10-05 19:58:20.700,0.2016855758,0.166918732089,-0.586154681829,0.00978172197938,0.112499639392,0.0607453733683,-1.69655045,-0.5099458,7.3549875,0.0,2.38162183762,24.7400665283,-0.239840313792,0.00978172197938,0.112499639392,0.0607453733683,-3.34999990463,-769.29699707,-517.826599121,-58.9022464752,-22.638899922409998,-14.624942779599998,-8.6496944427,-2.2410869598400036,-0.547129273414998,16.0
2018-10-05 19:58:20.750,0.217996937945,0.149187619435,-0.609532544736,-0.0852538198233,0.102041743696,0.316948622465,-1.79461695,-0.10787315,5.3740442,0.0,2.38162183762,24.7400665283,-0.239840313792,0.00978172197938,0.112499639392,0.0607453733683,-3.34999990463,-769.29699707,-517.826599121,-56.2759618759,-19.05100035667,-14.394672393800004,-8.540065765400001,-2.0354175567600037,-0.935955822467998,16.0
2018-10-05 19:58:20.800,0.217996937945,0.149187619435,-0.609532544736,-0.0852538198233,0.102041743696,0.316948622465,-1.79461695,-0.10787315,5.3740442,0.0,2.38162183762,24.7400665283,-0.239840313792,0.00978172197938,0.112499639392,0.0607453733683,-3.34999990463,-769.29699707,-517.826599121,-56.2759618759,-19.05100035667,-14.394672393800004,-8.540065765400001,-2.0354175567600037,-0.935955822467998,16.0
2018-10-05 19:58:20.850,0.217996937945,0.149187619435,-0.609532544736,-0.0852538198233,0.102041743696,0.316948622465,-1.79461695,-0.10787315,5.3740442,0.0,1.88765799999,24.424654007,-1.38388669491,-0.0852538198233,0.102041743696,0.316948622465,-3.37999987602,-769.29699707,-518.079833984,-56.2759618759,-19.08099913597,-14.314674377500001,-8.3907489777,-1.8408892154700036,-1.489718198779998,16.0
2018-10-05 19:58:20.900,0.217996937945,0.149187619435,-0.609532544736,-0.0852538198233,0.102041743696,0.316948622465,-1.79461695,-0.10787315,5.3740442,0.0,1.88765799999,24.424654007,-1.38388669491,-0.0852538198233,0.102041743696,0.316948622465,-3.3599998951,-742.128540039,-518.341918945,-56.2759618759,-19.00099921227,-14.264671325700004,-8.324270248400001,-1.6602243185000036,-1.740293622019998,16.0
2018-10-05 19:58:20.950,0.217996937945,0.149187619435,-0.609532544736,-0.0852538198233,0.102041743696,0.316948622465,-1.79461695,-0.10787315,5.3740442,0.0,1.88765799999,24.424654007,-1.38388669491,-0.0852538198233,0.102041743696,0.316948622465,-3.3599998951,-742.128540039,-518.341918945,-56.2759618759,-18.96100020407,-14.204673767100001,-8.258111953699999,-1.4713296890300036,-1.995775341989998,16.0
2018-10-05 19:58:21.000,0.217996937945,0.149187619435,-0.609532544736,-0.0852538198233,0.102041743696,0.316948622465,-1.79461695,-0.10787315,5.3740442,0.0,1.88765799999,24.424654007,-1.38388669491,-0.0852538198233,0.102041743696,0.316948622465,-3.28999996185,-742.128540039,-518.552856445,-56.2759618759,-18.92099928857,-14.134674072299998,-8.210569381700001,-1.3528515100500036,-2.155945777889998,16.0
2018-10-05 19:58:21.050,0.217996937945,0.149187619435,-0.609532544736,-0.0852538198233,0.102041743696,0.316948622465,-1.79461695,-0.10787315,5.3740442,0.0,1.18615245819,24.1368141174,-2.44363546371,-0.0852538198233,0.102041743696,0.316948622465,-3.28999996185,-742.128540039,-518.552856445,-56.2759618759,-18.92099928857,-14.134674072299998,-8.1827907562,-1.2934319973000035,-2.248162746429998,16.0
2018-10-05 19:58:21.100,0.248839946606,0.131580144352,-0.648101232552,-0.187297672033,0.0606782287359,0.248795539141,-1.89268345,0.02941995,5.79573015,0.0,1.18615245819,24.1368141174,-2.44363546371,-0.0852538198233,0.102041743696,0.316948622465,-3.16999983788,-715.020202637,-518.755737305,-56.2759618759,-18.80100035667,-14.074672699,-8.110250473,-1.1262258291200036,-2.532360076899998,16.0
2018-10-05 19:58:21.150,0.248839946606,0.131580144352,-0.648101232552,-0.187297672033,0.0606782287359,0.248795539141,-1.89268345,0.02941995,5.79573015,0.0,1.18615245819,24.1368141174,-2.44363546371,-0.0852538198233,0.102041743696,0.316948622465,-3.16999983788,-715.020202637,-518.755737305,-51.26645231247,-13.244540214530002,-12.683153152500001,-8.0247497559,-0.8809857964520036,-2.8863542079899984,16.0
2018-10-05 19:58:21.200,0.248839946606,0.131580144352,-0.648101232552,-0.187297672033,0.0606782287359,0.248795539141,-1.89268345,0.02941995,5.79573015,0.0,1.18615245819,24.1368141174,-2.44363546371,-0.0852538198233,0.102041743696,0.316948622465,-3.16999983788,-715.020202637,-518.755737305,-51.26645231247,-13.244540214530002,-12.683153152500001,-8.0247497559,-0.8809857964520036,-2.8863542079899984,16.0
2018-10-05 19:58:21.250,0.248839946606,0.131580144352,-0.648101232552,-0.187297672033,0.0606782287359,0.248795539141,-1.89268345,0.02941995,5.79573015,0.0,1.18615245819,24.1368141174,-2.44363546371,-0.0852538198233,0.102041743696,0.316948622465,-2.78999996185,-684.990478516,-519.051208496,-51.26645231247,-12.95453929903,-12.5731525421,-7.914396285999999,-0.5450923442840035,-3.321747303009998,16.0
2018-10-05 19:58:21.300,0.248839946606,0.131580144352,-0.648101232552,-0.187297672033,0.0606782287359,0.248795539141,-1.89268345,0.02941995,5.79573015,0.0,0.397179871798,23.8793697357,-3.48540639877,-0.187297672033,0.0606782287359,0.248795539141,-2.78999996185,-684.990478516,-519.051208496,-51.26645231247,-12.95453929903,-12.5731525421,-7.914396285999999,-0.5450923442840035,-3.321747303009998,16.0
2018-10-05 19:58:21.350,0.248839946606,0.131580144352,-0.648101232552,-0.187297672033,0.0606782287359,0.248795539141,-1.89268345,0.02941995,5.79573015,0.0,0.397179871798,23.8793697357,-3.48540639877,-0.187297672033,0.0606782287359,0.248795539141,-2.78999996185,-684.990478516,-519.051208496,-51.26645231247,-12.78453922273,-12.483152389599997,-7.8588104248000015,-0.3199512958530035,-3.5660364627799983,16.0
2018-10-05 19:58:21.400,0.248839946606,0.131580144352,-0.648101232552,-0.187297672033,0.0606782287359,0.248795539141,-1.89268345,0.02941995,5.79573015,0.0,0.397179871798,23.8793697357,-3.48540639877,-0.187297672033,0.0606782287359,0.248795539141,-2.78999996185,-684.990478516,-519.051208496,-51.26645231247,-12.78453922273,-12.483152389599997,-7.824457168599999,-0.16510951519000355,-3.708317518229998,16.0
2018-10-05 19:58:21.450,0.248839946606,0.131580144352,-0.648101232552,-0.187297672033,0.0606782287359,0.248795539141,-1.89268345,0.02941995,5.79573015,0.0,0.397179871798,23.8793697357,-3.48540639877,-0.187297672033,0.0606782287359,0.248795539141,-2.23000001907,-766.732971191,-519.194519043,-51.26645231247,-12.65454006193,-12.383153915399998,-7.755069732700001,0.14422799646899645,-4.015231609339998,16.0
2018-10-05 19:58:21.500,0.248839946606,0.131580144352,-0.648101232552,-0.187297672033,0.0606782287359,0.248795539141,-1.89268345,0.02941995,5.79573015,0.0,-0.374318897724,23.7037696838,-4.23284101486,-0.187297672033,0.0606782287359,0.248795539141,-2.23000001907,-766.732971191,-519.194519043,-51.26645231247,-12.614539146430001,-12.353155136099996,-7.703769683800001,0.37431889772399646,-4.232841014859998,16.0
2018-10-05 19:58:21.550,0.281515236947,0.138439714125,-0.672707166392,-0.0969771146774,0.00189857790247,0.157255604863,-1.96133,9.00726189964e-16,7.3549875,0.0,-0.374318897724,23.7037696838,-4.23284101486,-0.187297672033,0.0606782287359,0.248795539141,-2.23000001907,-766.732971191,-519.194519043,-51.26645231247,-12.614539146430001,-12.353155136099996,-7.703769683800001,0.37431889772399646,-4.232841014859998,16.0
2018-10-05 19:58:21.600,0.281515236947,0.138439714125,-0.672707166392,-0.0969771146774,0.00189857790247,0.157255604863,-1.96133,9.00726189964e-16,7.3549875,0.0,-0.374318897724,23.7037696838,-4.23284101486,-0.187297672033,0.0606782287359,0.248795539141,-1.90999996662,-766.732971191,-519.194519043,-47.30700206757,-9.2295484543,-9.0741310119,-7.645570755000001,0.6784727573389965,-4.468662261959998,16.0
2018-10-05 19:58:21.650,0.281515236947,0.138439714125,-0.672707166392,-0.0969771146774,0.00189857790247,0.157255604863,-1.96133,9.00726189964e-16,7.3549875,0.0,-0.374318897724,23.7037696838,-4.23284101486,-0.187297672033,0.0606782287359,0.248795539141,-1.54999995232,-747.445678711,-519.168823242,-47.30700206757,-9.169548988299999,-8.994132995600005,-7.5917034149,0.9894791245459964,-4.708654880519998,16.0
2018-10-05 19:58:21.700,0.281515236947,0.138439714125,-0.672707166392,-0.0969771146774,0.00189857790247,0.157255604863,-1.96133,9.00726189964e-16,7.3549875,0.0,-0.374318897724,23.7037696838,-4.23284101486,-0.187297672033,0.0606782287359,0.248795539141,-1.54999995232,-747.445678711,-519.168823242,-47.30700206757,-9.0395498276,-8.9341316223,-7.556997299199999,1.1347448825799964,-4.842565059659998,16.0
2018-10-05 19:58:21.750,0.281515236947,0.138439714125,-0.672707166392,-0.0969771146774,0.00189857790247,0.157255604863,-1.96133,9.00726189964e-16,7.3549875,0.0,-1.20274507999,23.543674469,-4.91335487366,-0.0969771146774,0.00189857790247,0.157255604863,-1.16999995708,-747.445678711,-519.092773438,-47.30700206757,-9.019549369800002,-8.844131469700002,-7.5067062378,1.3426003456099964,-5.081576824189998,16.0
2018-10-05 19:58:21.800,0.281515236947,0.138439714125,-0.672707166392,-0.0969771146774,0.00189857790247,0.157255604863,-1.96133,9.00726189964e-16,7.3549875,0.0,-1.20274507999,23.543674469,-4.91335487366,-0.0969771146774,0.00189857790247,0.157255604863,-1.16999995708,-747.445678711,-519.092773438,-47.30700206757,-7.7895498276,-8.754131317100004,-7.457519531199999,1.5446809530299965,-5.324273586269999,16.0
2018-10-05 19:58:21.850,0.281515236947,0.138439714125,-0.672707166392,-0.0969771146774,0.00189857790247,0.157255604863,-1.96133,9.00726189964e-16,7.3549875,0.0,-1.20274507999,23.543674469,-4.91335487366,-0.0969771146774,0.00189857790247,0.157255604863,-1.16999995708,-747.445678711,-519.092773438,-47.30700206757,-7.7895498276,-8.754131317100004,-7.457519531199999,1.5446809530299965,-5.324273586269999,16.0
2018-10-05 19:58:21.900,0.281515236947,0.138439714125,-0.672707166392,-0.0969771146774,0.00189857790247,0.157255604863,-1.96133,9.00726189964e-16,7.3549875,0.0,-1.20274507999,23.543674469,-4.91335487366,-0.0969771146774,0.00189857790247,0.157255604863,-0.719999969006,-737.958129883,-518.98248291,-47.30700206757,-6.3595495224,-8.624134063699998,-7.385074615499999,1.9217721223799964,-5.684992313389999,16.0
2018-10-05 19:58:21.950,0.302760548718,0.145250054059,-0.704314929075,-0.00262477248907,-0.0841840282083,0.320083081722,-1.89268345,-0.30400615,6.91368825,0.0,-1.20274507999,23.543674469,-4.91335487366,-0.0969771146774,0.00189857790247,0.157255604863,-0.719999969006,-737.958129883,-518.98248291,-47.30700206757,-6.3595495224,-8.624134063699998,-7.385074615499999,1.9217721223799964,-5.684992313389999,16.0
2018-10-05 19:58:22.000,0.302760548718,0.145250054059,-0.704314929075,-0.00262477248907,-0.0841840282083,0.320083081722,-1.89268345,-0.30400615,6.91368825,0.0,-2.23105669022,23.3538379669,-5.82048368454,-0.00262477248907,-0.0841840282083,0.320083081722,-0.229999989271,-729.569213867,-518.821838379,-41.97182774544,-1.9207954406999974,-6.603580474899999,-7.353837966899999,2.2310566902199964,-5.820483684539998,16.0
2018-10-05 19:58:22.050,0.302760548718,0.145250054059,-0.704314929075,-0.00262477248907,-0.0841840282083,0.320083081722,-1.89268345,-0.30400615,6.91368825,0.0,-2.23105669022,23.3538379669,-5.82048368454,-0.00262477248907,-0.0841840282083,0.320083081722,-0.229999989271,-729.569213867,-518.821838379,-41.97182774544,-1.9307956695999984,-6.553581237800003,-7.3412990570000005,2.4499766826599965,-5.880616664889998,16.0
2018-10-05 19:58:22.100,0.302760548718,0.145250054059,-0.704314929075,-0.00262477248907,-0.0841840282083,0.320083081722,-1.89268345,-0.30400615,6.91368825,0.0,-2.23105669022,23.3538379669,-5.82048368454,-0.00262477248907,-0.0841840282083,0.320083081722,0.280000001192,-729.569213867,-518.61895752,-41.97182774544,-0.5107946395999985,-6.463581085199998,-7.3139915466000005,2.8958466052999965,-5.996562957759998,16.0
2018-10-05 19:58:22.150,0.302760548718,0.145250054059,-0.704314929075,-0.00262477248907,-0.0841840282083,0.320083081722,-1.89268345,-0.30400615,6.91368825,0.0,-2.23105669022,23.3538379669,-5.82048368454,-0.00262477248907,-0.0841840282083,0.320083081722,0.280000001192,-729.569213867,-518.61895752,-41.97182774544,-0.5207948684999995,-6.413578033500002,-7.3139915466000005,2.8958466052999965,-5.996562957759998,16.0
2018-10-05 19:58:22.200,0.302760548718,0.145250054059,-0.704314929075,-0.00262477248907,-0.0841840282083,0.320083081722,-1.89268345,-0.30400615,6.91368825,0.0,-3.48963952065,23.2893981934,-6.09785509109,-0.00262477248907,-0.0841840282083,0.320083081722,0.810000002384,-728.288635254,-518.356567383,-41.97182774544,0.8992052078000015,-6.3935775757,-7.2893981934,3.4896395206499964,-6.097855091089998,16.0
2018-10-05 19:58:22.250,0.286723004975,0.132795593597,-0.745579910391,0.0519653595984,-0.154827237129,0.311191022396,-1.81423025,0.1372931,10.79712165,0.0,-3.48963952065,23.2893981934,-6.09785509109,-0.00262477248907,-0.0841840282083,0.320083081722,0.810000002384,-728.288635254,-518.356567383,-41.97182774544,0.8892049789000005,-6.373580932700001,-7.276277542100001,3.7273964881899966,-6.111853122709999,16.0
2018-10-05 19:58:22.300,0.286723004975,0.132795593597,-0.745579910391,0.0519653595984,-0.154827237129,0.311191022396,-1.81423025,0.1372931,10.79712165,0.0,-3.48963952065,23.2893981934,-6.09785509109,-0.00262477248907,-0.0841840282083,0.320083081722,1.35000002384,-728.288635254,-518.018493652,-35.21096229553,3.9164285660000004,-9.583179473900003,-7.237276077299999,4.040839195249997,-6.222489356989998,16.0
2018-10-05 19:58:22.350,0.286723004975,0.132795593597,-0.745579910391,0.0519653595984,-0.154827237129,0.311191022396,-1.81423025,0.1372931,10.79712165,0.0,-3.48963952065,23.2893981934,-6.09785509109,-0.00262477248907,-0.0841840282083,0.320083081722,1.35000002384,-728.288635254,-518.018493652,-35.21096229553,3.9164285660000004,-9.563179016200003,-7.218864440899999,4.258705615999997,-6.291956901549998,16.0
2018-10-05 19:58:22.400,0.286723004975,0.132795593597,-0.745579910391,0.0519653595984,-0.154827237129,0.311191022396,-1.81423025,0.1372931,10.79712165,0.0,-3.48963952065,23.2893981934,-6.09785509109,-0.00262477248907,-0.0841840282083,0.320083081722,1.35000002384,-728.288635254,-518.018493652,-35.21096229553,3.9164285660000004,-9.563179016200003,-7.218864440899999,4.258705615999997,-6.291956901549998,16.0
2018-10-05 19:58:22.450,0.286723004975,0.132795593597,-0.745579910391,0.0519653595984,-0.154827237129,0.311191022396,-1.81423025,0.1372931,10.79712165,0.0,-5.01753425598,23.1586360931,-6.33887815475,0.0519653595984,-0.154827237129,0.311191022396,1.88999998569,-741.428588867,-517.637695312,-35.21096229553,5.3964281082,-9.563179016200003,-7.1586360931,5.017534255979997,-6.338878154749998,16.0
2018-10-05 19:58:22.500,0.286723004975,0.132795593597,-0.745579910391,0.0519653595984,-0.154827237129,0.311191022396,-1.81423025,0.1372931,10.79712165,0.0,-5.01753425598,23.1586360931,-6.33887815475,0.0519653595984,-0.154827237129,0.311191022396,2.46000003815,-741.428588867,-517.181274414,-35.21096229553,6.846427917510001,-9.613178253199997,-7.1442070007,5.332254886629997,-6.264996051789998,16.0
2018-10-05 19:58:22.550,0.286723004975,0.132795593597,-0.745579910391,0.0519653595984,-0.154827237129,0.311191022396,-1.81423025,0.1372931,10.79712165,0.0,-5.01753425598,23.1586360931,-6.33887815475,0.0519653595984,-0.154827237129,0.311191022396,2.46000003815,-741.428588867,-517.181274414,-35.21096229553,6.846427917510001,-9.643177032499999,-7.123971939099999,5.665196895599997,-6.170013904569998,16.0
2018-10-05 19:58:22.600,0.286723004975,0.132795593597,-0.745579910391,0.0519653595984,-0.154827237129,0.311191022396,-1.81423025,0.1372931,10.79712165,0.0,-5.01753425598,23.1586360931,-6.33887815475,0.0519653595984,-0.154827237129,0.311191022396,2.46000003815,-741.428588867,-517.181274414,-35.21096229553,6.846427917510001,-9.643177032499999,-7.123971939099999,5.665196895599997,-6.170013904569998,16.0
2018-10-05 19:58:22.650,0.268781497368,0.145930318009,-0.781191614572,-0.0666548386216,-0.256952255964,0.196449786425,-1.38273765,-0.06864655,15.1806942,0.0,-5.01753425598,23.1586360931,-6.33887815475,0.0519653595984,-0.154827237129,0.311191022396,3.00999999046,-741.428588867,-516.648193359,-28.1829481125,7.44513940808,-10.886054992700004,-7.044275283800001,6.820530414579997,-5.8014760017399984,16.0
2018-10-05 19:58:22.700,0.268781497368,0.145930318009,-0.781191614572,-0.0666548386216,-0.256952255964,0.196449786425,-1.38273765,-0.06864655,15.1806942,0.0,-5.01753425598,23.1586360931,-6.33887815475,0.0519653595984,-0.154827237129,0.311191022396,3.53999996185,-743.596069336,-516.039550781,-28.1829481125,8.625139713260001,-10.926052093500005,-6.9983386993,7.169055938719996,-5.679938793179998,16.0
2018-10-05 19:58:22.750,0.268781497368,0.145930318009,-0.781191614572,-0.0666548386216,-0.256952255964,0.196449786425,-1.38273765,-0.06864655,15.1806942,0.0,-7.16905593872,22.9983386993,-5.67993879318,-0.0666548386216,-0.256952255964,0.196449786425,3.53999996185,-743.596069336,-516.039550781,-28.1829481125,8.625139713260001,-10.966053009,-6.979606628399999,7.3453621864299965,-5.623428821559998,16.0
2018-10-05 19:58:22.800,0.268781497368,0.145930318009,-0.781191614572,-0.0666548386216,-0.256952255964,0.196449786425,-1.38273765,-0.06864655,15.1806942,0.0,-7.16905593872,22.9983386993,-5.67993879318,-0.0666548386216,-0.256952255964,0.196449786425,4.05999994278,-743.596069336,-515.33795166,-28.1829481125,9.76513957974,-11.026054382300003,-6.895677566500002,7.852099418639996,-5.4905643463099985,16.0
2018-10-05 19:58:22.850,0.268781497368,0.145930318009,-0.781191614572,-0.0666548386216,-0.256952255964,0.196449786425,-1.38273765,-0.06864655,15.1806942,0.0,-7.16905593872,22.9983386993,-5.67993879318,-0.0666548386216,-0.256952255964,0.196449786425,4.05999994278,-743.596069336,-515.33795166,-28.1829481125,9.77513980862,-11.0960540771,-6.8049793243,8.307331085209997,-5.420639991759998,16.0
2018-10-05 19:58:22.900,0.268781497368,0.145930318009,-0.781191614572,-0.0666548386216,-0.256952255964,0.196449786425,-1.38273765,-0.06864655,15.1806942,0.0,-7.16905593872,22.9983386993,-5.67993879318,-0.0666548386216,-0.256952255964,0.196449786425,4.53999996185,-784.033203125,-514.551330566,-28.1829481125,10.91513967511,-11.116054534900002,-6.735330581700001,8.624098777769996,-5.351181507109998,16.0
2018-10-05 19:58:22.950,0.268781497368,0.145930318009,-0.781191614572,-0.0666548386216,-0.256952255964,0.196449786425,-1.38273765,-0.06864655,15.1806942,0.0,-9.08481407166,22.6255321503,-5.2295255661,-0.0666548386216,-0.256952255964,0.196449786425,4.53999996185,-784.033203125,-514.551330566,-28.1829481125,10.905139446229999,-11.186054229700005,-6.667301177999999,8.936388015749996,-5.266628742219998,16.0
2018-10-05 19:58:23.000,0.268781497368,0.145930318009,-0.781191614572,-0.0666548386216,-0.256952255964,0.196449786425,-1.38273765,-0.06864655,15.1806942,0.0,-9.08481407166,22.6255321503,-5.2295255661,-0.0666548386216,-0.256952255964,0.196449786425,5.01999998093,-784.033203125,-513.672180176,-28.1829481125,12.0251395702,-9.396053314200003,-6.516921997099999,9.511510848999997,-5.162556648249998,16.0
2018-10-05 19:58:23.050,0.268781497368,0.145930318009,-0.781191614572,-0.0666548386216,-0.256952255964,0.196449786425,-1.38273765,-0.06864655,15.1806942,0.0,-9.08481407166,22.6255321503,-5.2295255661,-0.0666548386216,-0.256952255964,0.196449786425,5.01999998093,-784.033203125,-513.672180176,-28.1829481125,12.0251395702,-9.4460525513,-6.429403305099999,9.799907684329996,-5.111867427829998,16.0
2018-10-05 19:58:23.100,0.268781497368,0.145930318009,-0.781191614572,-0.0666548386216,-0.256952255964,0.196449786425,-1.38273765,-0.06864655,15.1806942,0.0,-9.08481407166,22.6255321503,-5.2295255661,-0.0666548386216,-0.256952255964,0.196449786425,5.48000001907,-809.250427246,-512.725219727,-28.1829481125,13.1651395559,-7.566055297799998,-6.3370933532999985,10.110879898099997,-5.043251037599998,16.0
2018-10-05 19:58:23.150,0.241993264366,0.196088566408,-0.818201296015,-0.177282989025,-0.327559232712,0.222868278623,-1.1964113,-0.02941995,14.09215605,0.0,-9.08481407166,22.6255321503,-5.2295255661,-0.0666548386216,-0.256952255964,0.196449786425,5.48000001907,-809.250427246,-512.725219727,-18.8515167236,9.9459708929,-5.739658355700001,-6.1855850220000015,10.577120780899996,-4.918778896329998,16.0
2018-10-05 19:58:23.200,0.241993264366,0.196088566408,-0.818201296015,-0.177282989025,-0.327559232712,0.222868278623,-1.1964113,-0.02941995,14.09215605,0.0,-9.08481407166,22.6255321503,-5.2295255661,-0.0666548386216,-0.256952255964,0.196449786425,5.92999982834,-809.250427246,-511.702362061,-18.8515167236,11.015970826142,-3.5096588135000033,-6.017765045200001,11.047532081599996,-4.785936355589998,16.0
2018-10-05 19:58:23.250,0.241993264366,0.196088566408,-0.818201296015,-0.177282989025,-0.327559232712,0.222868278623,-1.1964113,-0.02941995,14.09215605,0.0,-11.2199230194,21.9522781372,-4.73232746124,-0.177282989025,-0.327559232712,0.222868278623,5.92999982834,-809.250427246,-511.702362061,-18.8515167236,11.015970826142,-3.5296592712000034,-5.9522781372,11.219923019399996,-4.732327461239998,16.0
2018-10-05 19:58:23.300,0.241993264366,0.196088566408,-0.818201296015,-0.177282989025,-0.327559232712,0.222868278623,-1.1964113,-0.02941995,14.09215605,0.0,-11.2199230194,21.9522781372,-4.73232746124,-0.177282989025,-0.327559232712,0.222868278623,6.35999965668,-794.827087402,-510.60345459,-18.8515167236,11.985970802598,-0.8796577453000012,-5.7470684052,11.725247383099996,-4.556804656979998,16.0
2018-10-05 19:58:23.350,0.241993264366,0.196088566408,-0.818201296015,-0.177282989025,-0.327559232712,0.222868278623,-1.1964113,-0.02941995,14.09215605,0.0,-11.2199230194,21.9522781372,-4.73232746124,-0.177282989025,-0.327559232712,0.222868278623,6.35999965668,-794.827087402,-510.60345459,-18.8515167236,11.985970802598,-0.9196586608999979,-5.607988357499998,12.047578811599996,-4.454589843749998,16.0
2018-10-05 19:58:23.400,0.241993264366,0.196088566408,-0.818201296015,-0.177282989025,-0.327559232712,0.222868278623,-1.1964113,-0.02941995,14.09215605,0.0,-11.2199230194,21.9522781372,-4.73232746124,-0.177282989025,-0.327559232712,0.222868278623,6.35999965668,-794.827087402,-510.60345459,-18.8515167236,11.985970802598,-0.9196586608999979,-5.607988357499998,12.047578811599996,-4.454589843749998,16.0
2018-10-05 19:58:23.450,0.241993264366,0.196088566408,-0.818201296015,-0.177282989025,-0.327559232712,0.222868278623,-1.1964113,-0.02941995,14.09215605,0.0,-11.2199230194,21.9522781372,-4.73232746124,-0.177282989025,-0.327559232712,0.222868278623,6.76999998093,-810.59777832,-509.411132812,-18.8515167236,12.9159708023,1.9703407287999966,-5.161523818999999,12.983640670799996,-4.178814887999998,16.0
2018-10-05 19:58:23.500,0.200891469514,0.229097217409,-0.853855264473,-0.0444021932781,-0.372756272554,0.238119646907,-0.73549875,0.18632635,15.38663385,0.0,-13.1403884888,21.0801620483,-4.12834835052,-0.177282989025,-0.327559232712,0.222868278623,7.15999984741,-810.59777832,-508.13470459,-18.8515167236,13.83597075938,5.120340347300001,-4.997133255000001,13.296047210699996,-4.076756000519998,16.0
2018-10-05 19:58:23.550,0.200891469514,0.229097217409,-0.853855264473,-0.0444021932781,-0.372756272554,0.238119646907,-0.73549875,0.18632635,15.38663385,0.0,-13.1403884888,21.0801620483,-4.12834835052,-0.177282989025,-0.327559232712,0.222868278623,7.15999984741,-810.59777832,-508.13470459,-9.282768249500002,10.52977931499,5.083658218299998,-4.721838951099999,13.812756542074899,-3.8633680343599983,16.0
2018-10-05 19:58:23.600,0.200891469514,0.229097217409,-0.853855264473,-0.0444021932781,-0.372756272554,0.238119646907,-0.73549875,0.18632635,15.38663385,0.0,-13.1403884888,21.0801620483,-4.12834835052,-0.177282989025,-0.327559232712,0.222868278623,7.15999984741,-810.59777832,-508.13470459,-9.282768249500002,10.52977931499,5.083658218299998,-4.721838951099999,13.812756542074899,-3.8633680343599983,16.0
2018-10-05 19:58:23.650,0.200891469514,0.229097217409,-0.853855264473,-0.0444021932781,-0.372756272554,0.238119646907,-0.73549875,0.18632635,15.38663385,0.0,-13.1403884888,21.0801620483,-4.12834835052,-0.177282989025,-0.327559232712,0.222868278623,7.53999996185,-810.59777832,-506.829467773,-9.282768249500002,11.35977935791,8.883657455399998,-4.2200841904,14.6540645770737,-3.480658292769998,16.0
2018-10-05 19:58:23.700,0.200891469514,0.229097217409,-0.853855264473,-0.0444021932781,-0.372756272554,0.238119646907,-0.73549875,0.18632635,15.38663385,0.0,-14.8750734329,20.0257663727,-3.36558222771,-0.0444021932781,-0.372756272554,0.238119646907,7.8799996376,-843.253723145,-505.450134277,-9.282768249500002,12.04977917671,13.223657607999996,-4.1219205856,14.7994970492737,-3.4222762584699984,15.9899997711
2018-10-05 19:58:23.750,0.200891469514,0.229097217409,-0.853855264473,-0.0444021932781,-0.372756272554,0.238119646907,-0.73549875,0.18632635,15.38663385,0.0,-14.8750734329,20.0257663727,-3.36558222771,-0.0444021932781,-0.372756272554,0.238119646907,7.8799996376,-843.253723145,-505.450134277,-9.282768249500002,12.029779195789999,13.193658828699999,-3.7277669906999993,15.342335145873701,-3.178893804549998,15.9899997711
2018-10-05 19:58:23.800,0.200891469514,0.229097217409,-0.853855264473,-0.0444021932781,-0.372756272554,0.238119646907,-0.73549875,0.18632635,15.38663385,0.0,-14.8750734329,20.0257663727,-3.36558222771,-0.0444021932781,-0.372756272554,0.238119646907,7.8799996376,-843.253723145,-505.450134277,-9.282768249500002,12.029779195789999,13.193658828699999,-3.7277669906999993,15.342335145873701,-3.178893804549998,15.9899997711
2018-10-05 19:58:23.850,0.200891469514,0.229097217409,-0.853855264473,-0.0444021932781,-0.372756272554,0.238119646907,-0.73549875,0.18632635,15.38663385,0.0,-14.8750734329,20.0257663727,-3.36558222771,-0.0444021932781,-0.372756272554,0.238119646907,8.18999958038,-844.253845215,-503.946258545,-9.282768249500002,12.72977924347,17.0836582183,-3.4265480042000007,15.801136009366,-2.9598867893199983,15.9899997711
2018-10-05 19:58:23.900,0.200891469514,0.229097217409,-0.853855264473,-0.0444021932781,-0.372756272554,0.238119646907,-0.73549875,0.18632635,15.38663385,0.0,-16.3421649933,18.8691158295,-2.50868058205,-0.0444021932781,-0.372756272554,0.238119646907,8.47000026703,-830.403625488,-502.445129395,-9.282768249500002,13.25977945328,21.623658180199996,-2.8695354462000005,16.458003990366,-2.5086805820499984,15.9899997711
2018-10-05 19:58:23.950,0.200891469514,0.229097217409,-0.853855264473,-0.0444021932781,-0.372756272554,0.238119646907,-0.73549875,0.18632635,15.38663385,0.0,-16.3421649933,18.8691158295,-2.50868058205,-0.0444021932781,-0.372756272554,0.238119646907,8.47000026703,-830.403625488,-502.445129395,-9.282768249500002,13.249779224400001,21.6136579513,-2.7495670319,16.593269340665998,-2.4096341133099983,15.9899997711
2018-10-05 19:58:24.000,0.200891469514,0.229097217409,-0.853855264473,-0.0444021932781,-0.372756272554,0.238119646907,-0.73549875,0.18632635,15.38663385,0.0,-16.3421649933,18.8691158295,-2.50868058205,-0.0444021932781,-0.372756272554,0.238119646907,8.47000026703,-830.403625488,-502.445129395,-9.282768249500002,13.249779224400001,21.6136579513,-2.7495670319,16.593269340665998,-2.4096341133099983,15.9899997711
2018-10-05 19:58:24.050,0.200891469514,0.229097217409,-0.853855264473,-0.0444021932781,-0.372756272554,0.238119646907,-0.73549875,0.18632635,15.38663385,0.0,-16.3421649933,18.8691158295,-2.50868058205,-0.0444021932781,-0.372756272554,0.238119646907,8.71000003815,-830.403625488,-500.791442871,-9.282768249500002,13.629779338839999,26.003657340969998,-2.0470705032000005,17.819072306157,-1.812579274179998,15.9899997711
2018-10-05 19:58:24.100,0.11014922095,0.218256698184,-0.90664874426,0.365407526493,-0.34439638257,0.239580094814,-0.4511059,0.1765197,17.7500365,0.0,-16.3421649933,18.8691158295,-2.50868058205,-0.0444021932781,-0.372756272554,0.238119646907,8.71000003815,-830.403625488,-500.791442871,-9.282768249500002,13.629779338839999,26.003657340969998,-2.0470705032000005,17.819072306157,-1.812579274179998,15.9899997711
2018-10-05 19:58:24.150,0.11014922095,0.218256698184,-0.90664874426,0.365407526493,-0.34439638257,0.239580094814,-0.4511059,0.1765197,17.7500365,0.0,-17.6857814789,17.4418430328,-1.32437121868,0.365407526493,-0.34439638257,0.239580094814,8.88999938965,-824.743530273,-499.569396973,5.749195098900003,8.11572241783,28.1301622017941,-1.5704069137000012,18.234813272957,-1.417425155639998,16.0
2018-10-05 19:58:24.200,0.11014922095,0.218256698184,-0.90664874426,0.365407526493,-0.34439638257,0.239580094814,-0.4511059,0.1765197,17.7500365,0.0,-17.6857814789,17.4418430328,-1.32437121868,0.365407526493,-0.34439638257,0.239580094814,8.88999938965,-824.743530273,-499.569396973,5.749195098900003,8.11572241783,28.1301622017941,-1.5704069137000012,18.234813272957,-1.417425155639998,16.0
2018-10-05 19:58:24.250,0.11014922095,0.218256698184,-0.90664874426,0.365407526493,-0.34439638257,0.239580094814,-0.4511059,0.1765197,17.7500365,0.0,-17.6857814789,17.4418430328,-1.32437121868,0.365407526493,-0.34439638257,0.239580094814,9.03999996185,-823.743408203,-497.758148193,5.749195098900003,8.245722532270001,32.1101620197,-1.0081682205,18.658917963457,-0.874967217444998,16.0
2018-10-05 19:58:24.300,0.11014922095,0.218256698184,-0.90664874426,0.365407526493,-0.34439638257,0.239580094814,-0.4511059,0.1765197,17.7500365,0.0,-17.6857814789,17.4418430328,-1.32437121868,0.365407526493,-0.34439638257,0.239580094814,9.11999988556,-830.454223633,-495.949310303,6.749195098900003,8.19572234153,37.32016181943,-0.7314453124999982,19.668672919269998,-0.533238708972998,15.9899997711
2018-10-05 19:58:24.350,0.0461637356254,0.156265963568,-0.935286867595,0.651044726372,-0.271966785192,0.170441195369,-0.24516625,0.18632635,17.13221755,0.0,-17.6857814789,17.4418430328,-1.32437121868,0.365407526493,-0.34439638257,0.239580094814,9.11999988556,-830.454223633,-495.949310303,6.749195098900003,8.18572211265,37.32016181943,-0.5372657776,19.78843343257,-0.30397993326199807,15.9899997711
2018-10-05 19:58:24.400,0.0461637356254,0.156265963568,-0.935286867595,0.651044726372,-0.271966785192,0.170441195369,-0.24516625,0.18632635,17.13221755,0.0,-18.540145874,16.083902359,0.162119820714,0.651044726372,-0.271966785192,0.170441195369,9.15999984741,-831.454345703,-493.731811523,13.979202270499997,4.482272744177,34.9736118316,-0.24105262760000024,19.93416249757,0.04148320853710195,16.0
2018-10-05 19:58:24.450,0.0461637356254,0.156265963568,-0.935286867595,0.651044726372,-0.271966785192,0.170441195369,-0.24516625,0.18632635,17.13221755,0.0,-18.540145874,16.083902359,0.162119820714,0.651044726372,-0.271966785192,0.170441195369,9.15999984741,-831.454345703,-493.731811523,13.979202270499997,4.472272992137,34.9736118316,-0.07139396669999876,20.010553717569998,0.27062547206900195,16.0
2018-10-05 19:58:24.500,0.0461637356254,0.156265963568,-0.935286867595,0.651044726372,-0.271966785192,0.170441195369,-0.24516625,0.18632635,17.13221755,0.0,-18.540145874,16.083902359,0.162119820714,0.651044726372,-0.271966785192,0.170441195369,9.15999984741,-831.454345703,-493.731811523,13.979202270499997,4.472272992137,34.9736118316,0.01858329770000111,20.043033957469998,0.39001348614700193,16.0
2018-10-05 19:58:24.550,0.0461637356254,0.156265963568,-0.935286867595,0.651044726372,-0.271966785192,0.170441195369,-0.24516625,0.18632635,17.13221755,0.0,-18.540145874,16.083902359,0.162119820714,0.651044726372,-0.271966785192,0.170441195369,9.11999988556,-827.732055664,-491.739196777,13.979202270499997,4.1022726297370005,36.993612289400005,0.24855518339999882,20.87221956256,0.8681014776230019,16.0
2018-10-05 19:58:24.600,0.0461637356254,0.156265963568,-0.935286867595,0.651044726372,-0.271966785192,0.170441195369,-0.24516625,0.18632635,17.13221755,0.0,-18.540145874,16.083902359,0.162119820714,0.651044726372,-0.271966785192,0.170441195369,9.02999973297,-827.732055664,-488.42376709,15.979202270499997,3.6222726106670002,43.243612289400005,0.5124902724999991,20.88753557206,1.362659573550002,16.0
2018-10-05 19:58:24.650,0.0461637356254,0.156265963568,-0.935286867595,0.651044726372,-0.271966785192,0.170441195369,-0.24516625,0.18632635,17.13221755,0.0,-18.6874904633,15.2239274979,1.59528017044,0.651044726372,-0.271966785192,0.170441195369,9.02999973297,-827.732055664,-488.42376709,15.979202270499997,3.6222726106670002,43.243612289400005,0.5124902724999991,20.88753557206,1.362659573550002,16.0
2018-10-05 19:58:24.700,0.0461637356254,0.156265963568,-0.935286867595,0.651044726372,-0.271966785192,0.170441195369,-0.24516625,0.18632635,17.13221755,0.0,-18.6874904633,15.2239274979,1.59528017044,0.651044726372,-0.271966785192,0.170441195369,8.88000011444,-799.795715332,-486.384033203,15.979202270499997,2.932272791867,43.943611145000006,0.7636833190999983,20.82859277726,1.916074633600002,16.0
2018-10-05 19:58:24.750,0.0461637356254,0.156265963568,-0.935286867595,0.651044726372,-0.271966785192,0.170441195369,-0.24516625,0.18632635,17.13221755,0.0,-18.6874904633,15.2239274979,1.59528017044,0.651044726372,-0.271966785192,0.170441195369,8.88000011444,-799.795715332,-486.384033203,15.979202270499997,2.932272791867,43.9336109161,0.5923366547000004,22.18976831437,2.108407020570002,16.0
2018-10-05 19:58:24.800,0.0461637356254,0.156265963568,-0.935286867595,0.651044726372,-0.271966785192,0.170441195369,-0.24516625,0.18632635,17.13221755,0.0,-18.6874904633,15.2239274979,1.59528017044,0.651044726372,-0.271966785192,0.170441195369,8.88000011444,-799.795715332,-486.384033203,15.979202270499997,2.932272791867,43.9336109161,0.5923366547000004,22.18976831437,2.108407020570002,16.0
2018-10-05 19:58:24.850,-0.0440614030992,0.00687494025013,-0.957099721744,0.788143157959,-0.10578918457,0.00817355699837,-0.4314926,0.4511059,14.77862155,0.0,-18.6874904633,15.2239274979,1.59528017044,0.651044726372,-0.271966785192,0.170441195369,8.6799993515,-799.795715332,-478.985626221,24.661266326899998,-2.1746068000699994,32.415705442477,0.6964693069999992,22.00311517717,2.513738870620002,16.0
2018-10-05 19:58:24.900,-0.0440614030992,0.00687494025013,-0.957099721744,0.788143157959,-0.10578918457,0.00817355699837,-0.4314926,0.4511059,14.77862155,0.0,-18.3312091827,14.8817129135,2.61200690269,0.788143157959,-0.10578918457,0.00817355699837,8.42000007629,-772.038452148,-476.884063721,24.661266326899998,-2.9746067523899997,32.035704374276996,0.7133359908999992,21.87133073807,2.656488180160002,16.0
2018-10-05 19:58:24.950,-0.0440614030992,0.00687494025013,-0.957099721744,0.788143157959,-0.10578918457,0.00817355699837,-0.4314926,0.4511059,14.77862155,0.0,-18.3312091827,14.8817129135,2.61200690269,0.788143157959,-0.10578918457,0.00817355699837,8.42000007629,-772.038452148,-476.884063721,24.661266326899998,-2.9746067523899997,32.045702695877,0.7147130965999988,21.77789926527,2.737659454350002,16.0
2018-10-05 19:58:25.000,-0.0440614030992,0.00687494025013,-0.957099721744,0.788143157959,-0.10578918457,0.00817355699837,-0.4314926,0.4511059,14.77862155,0.0,-18.3312091827,14.8817129135,2.61200690269,0.788143157959,-0.10578918457,0.00817355699837,8.14999961853,-772.038452148,-474.827941895,24.661266326899998,-3.6646066903999994,31.395704984677,0.7147130965999988,21.77789926527,2.737659454350002,16.0
2018-10-05 19:58:25.050,-0.0440614030992,0.00687494025013,-0.957099721744,0.788143157959,-0.10578918457,0.00817355699837,-0.4314926,0.4511059,14.77862155,0.0,-18.3312091827,14.8817129135,2.61200690269,0.788143157959,-0.10578918457,0.00817355699837,7.83999967575,-725.842102051,-466.157165527,28.661266326899998,-3.6546066999399995,31.385702848477,0.3718051911,22.53222417832,2.9353439807900017,15.9899997711
2018-10-05 19:58:25.100,-0.0440614030992,0.00687494025013,-0.957099721744,0.788143157959,-0.10578918457,0.00817355699837,-0.4314926,0.4511059,14.77862155,0.0,-18.3312091827,14.8817129135,2.61200690269,0.788143157959,-0.10578918457,0.00817355699837,7.83999967575,-725.842102051,-466.157165527,28.661266326899998,-4.444606661791999,35.425703763977,0.3191766738999995,22.34845495222,3.008635044100002,15.9899997711
2018-10-05 19:58:25.150,-0.0440614030992,0.00687494025013,-0.957099721744,0.788143157959,-0.10578918457,0.00817355699837,-0.4314926,0.4511059,14.77862155,0.0,-17.6454257965,15.0109357834,3.02587413788,0.788143157959,-0.10578918457,0.00817355699837,7.83999967575,-725.842102051,-466.157165527,28.661266326899998,-4.434606671328,35.415705442477,0.28025150300000057,22.22431135182,3.040360927580002,15.9899997711
2018-10-05 19:58:25.200,-0.0440614030992,0.00687494025013,-0.957099721744,0.788143157959,-0.10578918457,0.00817355699837,-0.4314926,0.4511059,14.77862155,0.0,-17.6454257965,15.0109357834,3.02587413788,0.788143157959,-0.10578918457,0.00817355699837,7.83999967575,-725.842102051,-466.157165527,28.661266326899998,-4.434606671328,35.415705442477,0.28025150300000057,22.22431135182,3.040360927580002,15.9899997711
2018-10-05 19:58:25.250,-0.0440614030992,0.00687494025013,-0.957099721744,0.788143157959,-0.10578918457,0.00817355699837,-0.4314926,0.4511059,14.77862155,0.0,-17.6454257965,15.0109357834,3.02587413788,0.788143157959,-0.10578918457,0.00817355699837,7.51999998093,-726.842224121,-464.061157227,28.661266326899998,-5.144606664771899,34.405703306176996,-1.205518722499999,24.99478578565,3.0733535289800016,15.9899997711
2018-10-05 19:58:25.300,-0.101639531748,-0.147728793647,-0.94055603122,0.51093518734,-0.0147468708456,-0.146878704429,-0.67665885,0.5099458,10.7088618,0.0,-17.6454257965,15.0109357834,3.02587413788,0.788143157959,-0.10578918457,0.00817355699837,7.19999980927,-697.775939941,-428.730926514,39.8395309448,-6.873191833493,22.898460388199997,-0.15253639220000004,11.88518142697,3.085392236710002,16.0
2018-10-05 19:58:25.350,-0.101639531748,-0.147728793647,-0.94055603122,0.51093518734,-0.0147468708456,-0.146878704429,-0.67665885,0.5099458,10.7088618,0.0,-17.6454257965,15.0109357834,3.02587413788,0.788143157959,-0.10578918457,0.00817355699837,7.19999980927,-697.775939941,-428.730926514,39.8395309448,-6.873191833493,22.898460388199997,-0.1937189102000012,11.811885833770003,3.081887483600002,16.0
2018-10-05 19:58:25.400,-0.101639531748,-0.147728793647,-0.94055603122,0.51093518734,-0.0147468708456,-0.146878704429,-0.67665885,0.5099458,10.7088618,0.0,-16.703250885,15.4935216904,3.04672217369,0.51093518734,-0.0147468708456,-0.146878704429,7.19999980927,-697.775939941,-428.730926514,39.8395309448,-6.873191833493,22.898460388199997,-0.1937189102000012,11.811885833770003,3.081887483600002,16.0
2018-10-05 19:58:25.450,-0.101639531748,-0.147728793647,-0.94055603122,0.51093518734,-0.0147468708456,-0.146878704429,-0.67665885,0.5099458,10.7088618,0.0,-16.703250885,15.4935216904,3.04672217369,0.51093518734,-0.0147468708456,-0.146878704429,6.58999967575,-675.35723877,-65.5664138794,-8.160469055199997,-7.51319181919,-51.5115394592,-0.6659841538000002,10.83447885515,2.952091932300002,16.0
2018-10-05 19:58:25.500,-0.101639531748,-0.147728793647,-0.94055603122,0.51093518734,-0.0147468708456,-0.146878704429,-0.67665885,0.5099458,10.7088618,0.0,-16.703250885,15.4935216904,3.04672217369,0.51093518734,-0.0147468708456,-0.146878704429,6.58999967575,-675.35723877,-65.5664138794,-8.160469055199997,-8.08319187164,-52.97153854370001,-0.7973155975000008,10.618027210250002,2.8591618537900017,16.0
2018-10-05 19:58:25.550,-0.101639531748,-0.147728793647,-0.94055603122,0.51093518734,-0.0147468708456,-0.146878704429,-0.67665885,0.5099458,10.7088618,0.0,-16.703250885,15.4935216904,3.04672217369,0.51093518734,-0.0147468708456,-0.146878704429,6.58999967575,-675.35723877,-65.5664138794,-8.160469055199997,-8.08319187164,-52.97153854370001,-0.7973155975000008,10.618027210250002,2.8591618537900017,16.0
2018-10-05 19:58:25.600,-0.10259028327,-0.155346063585,-0.934449076511,-1.13795888424,-0.00981942471117,-0.0140590015799,-0.67665885,1.04931155,9.14960445,0.0,-16.703250885,15.4935216904,3.04672217369,0.51093518734,-0.0147468708456,-0.146878704429,6.30999994278,-643.952575684,-62.9477348328,-10.160469055199997,-8.61319184303,-56.931537628200005,-0.9055137634000001,10.42270708085,2.770799160000002,15.9899997711
2018-10-05 19:58:25.650,-0.10259028327,-0.155346063585,-0.934449076511,-1.13795888424,-0.00981942471117,-0.0140590015799,-0.67665885,1.04931155,9.14960445,0.0,-15.9615306854,15.9238414764,2.73762345314,-1.13795888424,-0.00981942471117,-0.0140590015799,6.30999994278,-643.952575684,-62.9477348328,-12.017398834200002,-8.1404812336,-57.910270690900006,-0.9562501907000005,10.30722284315,2.7376234531400017,15.9899997711
2018-10-05 19:58:25.700,-0.10259028327,-0.155346063585,-0.934449076511,-1.13795888424,-0.00981942471117,-0.0140590015799,-0.67665885,1.04931155,9.14960445,0.0,-15.9615306854,15.9238414764,2.73762345314,-1.13795888424,-0.00981942471117,-0.0140590015799,6.0499997139,-644.952697754,-62.0985832214,-12.017398834200002,-8.7204811573,-58.700271606399994,-0.9955654144000015,10.088168621049999,2.777273178100002,15.9899997711
2018-10-05 19:58:25.750,-0.10259028327,-0.155346063585,-0.934449076511,-1.13795888424,-0.00981942471117,-0.0140590015799,-0.67665885,1.04931155,9.14960445,0.0,-15.9615306854,15.9238414764,2.73762345314,-1.13795888424,-0.00981942471117,-0.0140590015799,6.0499997139,-644.952697754,-62.0985832214,-12.017398834200002,-8.740481138229999,-58.720268249499995,-1.398601531999999,8.92773866652,2.9022092819200016,15.9899997711
2018-10-05 19:58:25.800,-0.10259028327,-0.155346063585,-0.934449076511,-1.13795888424,-0.00981942471117,-0.0140590015799,-0.67665885,1.04931155,9.14960445,0.0,-15.9615306854,15.9238414764,2.73762345314,-1.13795888424,-0.00981942471117,-0.0140590015799,6.0499997139,-644.952697754,-62.0985832214,-12.017398834200002,-8.740481138229999,-58.720268249499995,-1.398601531999999,8.92773866652,2.9022092819200016,15.9899997711
2018-10-05 19:58:25.850,-0.10259028327,-0.155346063585,-0.934449076511,-1.13795888424,-0.00981942471117,-0.0140590015799,-0.67665885,1.04931155,9.14960445,0.0,-15.9615306854,15.9238414764,2.73762345314,-1.13795888424,-0.00981942471117,-0.0140590015799,5.78999996185,-644.952697754,-57.8259544373,-16.0173988342,-9.46048116684,-63.5902709961,-1.2951431273999994,8.79826688762,2.9973232746100016,16.0
2018-10-05 19:58:25.900,-0.10259028327,-0.155346063585,-0.934449076511,-1.13795888424,-0.00981942471117,-0.0140590015799,-0.67665885,1.04931155,9.14960445,0.0,-15.4971837997,15.8252677917,2.99732327461,-1.13795888424,-0.00981942471117,-0.0140590015799,5.51999998093,-611.414550781,-57.1586303711,-16.0173988342,-10.15048122406,-63.450271606399994,-1.2082424163999992,8.75186491012,2.980940103530002,16.0
2018-10-05 19:58:25.950,-0.0149652442983,0.037426463077,-0.938545066133,-1.00892722607,0.168706133962,-0.268290698528,-0.7060788,1.176798,10.09104285,0.0,-15.4971837997,15.8252677917,2.99732327461,-1.13795888424,-0.00981942471117,-0.0140590015799,5.51999998093,-611.414550781,-57.1586303711,-16.0173988342,-10.15048122406,-63.450271606399994,-1.2082424163999992,8.75186491012,2.980940103530002,16.0
2018-10-05 19:58:26.000,-0.0149652442983,0.037426463077,-0.938545066133,-1.00892722607,0.168706133962,-0.268290698528,-0.7060788,1.176798,10.09104285,0.0,-15.4971837997,15.8252677917,2.99732327461,-1.13795888424,-0.00981942471117,-0.0140590015799,5.23999977112,-611.414550781,-50.8323287964,-21.035861969000003,-8.18115162849,-41.09561133382,-1.909554481499999,7.226937294020001,2.8657355308500017,16.0
2018-10-05 19:58:26.050,-0.0149652442983,0.037426463077,-0.938545066133,-1.00892722607,0.168706133962,-0.268290698528,-0.7060788,1.176798,10.09104285,0.0,-15.4971837997,15.8252677917,2.99732327461,-1.13795888424,-0.00981942471117,-0.0140590015799,5.23999977112,-611.414550781,-50.8323287964,-21.035861969000003,-8.17115139961,-41.115611791620005,-1.8215131759999998,7.21394824982,2.7104101181000018,16.0
2018-10-05 19:58:26.100,-0.0149652442983,0.037426463077,-0.938545066133,-1.00892722607,0.168706133962,-0.268290698528,-0.7060788,1.176798,10.09104285,0.0,-15.4031658173,15.4644918442,2.56110453606,-1.00892722607,0.168706133962,-0.268290698528,4.98000001907,-587.986206055,-50.3573913574,-22.035861969000003,-8.5911514759,-41.52561163902,-1.6951599120999994,7.195096015920001,2.5149898529100017,16.0
2018-10-05 19:58:26.150,-0.0149652442983,0.037426463077,-0.938545066133,-1.00892722607,0.168706133962,-0.268290698528,-0.7060788,1.176798,10.09104285,0.0,-15.4031658173,15.4644918442,2.56110453606,-1.00892722607,0.168706133962,-0.268290698528,4.98000001907,-587.986206055,-50.3573913574,-22.035861969000003,-8.58115172386,-41.52561163902,-1.6379489899,7.18344211582,2.3986339569100017,16.0
2018-10-05 19:58:26.200,-0.0149652442983,0.037426463077,-0.938545066133,-1.00892722607,0.168706133962,-0.268290698528,-0.7060788,1.176798,10.09104285,0.0,-15.4031658173,15.4644918442,2.56110453606,-1.00892722607,0.168706133962,-0.268290698528,4.98000001907,-587.986206055,-50.3573913574,-22.035861969000003,-8.58115172386,-41.52561163902,-1.6379489899,7.18344211582,2.3986339569100017,16.0
2018-10-05 19:58:26.250,-0.0149652442983,0.037426463077,-0.938545066133,-1.00892722607,0.168706133962,-0.268290698528,-0.7060788,1.176798,10.09104285,0.0,-15.4031658173,15.4644918442,2.56110453606,-1.00892722607,0.168706133962,-0.268290698528,4.5499997139,-559.588989258,-47.4851913452,-23.035861969000003,-8.91115164757,-41.53561377522,-1.8500776291000012,6.6604299545300005,1.9169933795900016,16.0
2018-10-05 19:58:26.300,-0.0149652442983,0.037426463077,-0.938545066133,-1.00892722607,0.168706133962,-0.268290698528,-0.7060788,1.176798,10.09104285,0.0,-15.4031658173,15.4644918442,2.56110453606,-1.00892722607,0.168706133962,-0.268290698528,4.5499997139,-559.588989258,-47.4851913452,-23.035861969000003,-8.99115157127,-41.54561209682,-1.7929277419999998,6.64832973483,1.5670824050900016,16.0
2018-10-05 19:58:26.350,0.0524969497009,0.155402001299,-0.920691060867,-0.53954076767,0.0217892918736,0.25970646739,-0.784532,-0.7649187,4.9229383,0.0,-15.3307104111,15.2322826385,1.56708240509,-1.00892722607,0.168706133962,-0.268290698528,4.5499997139,-559.588989258,-47.4851913452,-24.9515457153,-6.668033421042001,-26.1233215332,-1.7319326401000001,6.658728599529999,1.3790972232800016,16.0
2018-10-05 19:58:26.400,0.0524969497009,0.155402001299,-0.920691060867,-0.53954076767,0.0217892918736,0.25970646739,-0.784532,-0.7649187,4.9229383,0.0,-15.3307104111,15.2322826385,1.56708240509,-1.00892722607,0.168706133962,-0.268290698528,4.5499997139,-559.588989258,-47.4851913452,-24.9515457153,-6.668033421042001,-26.1233215332,-1.7319326401000001,6.658728599529999,1.3790972232800016,16.0
2018-10-05 19:58:26.450,0.0524969497009,0.155402001299,-0.920691060867,-0.53954076767,0.0217892918736,0.25970646739,-0.784532,-0.7649187,4.9229383,0.0,-15.3307104111,15.2322826385,1.56708240509,-1.00892722607,0.168706133962,-0.268290698528,4.42000007629,-559.588989258,-47.0528755188,-25.9515457153,-6.578033268452,-26.1233215332,-1.7806921004999996,6.29047679902,1.1239906549500016,16.0
2018-10-05 19:58:26.500,0.0524969497009,0.155402001299,-0.920691060867,-0.53954076767,0.0217892918736,0.25970646739,-0.784532,-0.7649187,4.9229383,0.0,-15.3307104111,15.2322826385,1.56708240509,-1.00892722607,0.168706133962,-0.268290698528,4.32999992371,-527.828796387,-44.7414932251,-25.9515457153,-6.578033268452,-26.0433235168,-1.525493621799999,6.43097209932,1.1416659355200016,16.0
2018-10-05 19:58:26.550,0.0524969497009,0.155402001299,-0.920691060867,-0.53954076767,0.0217892918736,0.25970646739,-0.784532,-0.7649187,4.9229383,0.0,-15.3307104111,15.2322826385,1.56708240509,-1.00892722607,0.168706133962,-0.268290698528,4.32999992371,-527.828796387,-44.7414932251,-25.9515457153,-6.568033039572001,-26.0433235168,-1.335105896,6.53525543212,1.1757332086600016,16.0
2018-10-05 19:58:26.600,0.0524969497009,0.155402001299,-0.920691060867,-0.53954076767,0.0217892918736,0.25970646739,-0.784532,-0.7649187,4.9229383,0.0,-15.7843408585,14.2771978378,1.1687554121,-0.53954076767,0.0217892918736,0.25970646739,4.23999977112,-527.828796387,-44.3190040588,-25.9515457153,-6.788033306601999,-24.823322296100002,-1.0661525726,6.6718540191199995,1.1482897996900014,16.0
2018-10-05 19:58:26.650,0.0524969497009,0.155402001299,-0.920691060867,-0.53954076767,0.0217892918736,0.25970646739,-0.784532,-0.7649187,4.9229383,0.0,-15.7843408585,14.2771978378,1.1687554121,-0.53954076767,0.0217892918736,0.25970646739,4.23999977112,-527.828796387,-44.3190040588,-25.9515457153,-6.778033077711999,-24.823322296100002,-0.903568267799999,6.753375053420001,1.0787937641100016,16.0
2018-10-05 19:58:26.700,0.0861953457981,0.219093398201,-0.924413422554,-0.269828498363,-0.0128736197948,0.207389995456,-0.89240515,0.4903325,9.5909037,0.0,-15.7843408585,14.2771978378,1.1687554121,-0.53954076767,0.0217892918736,0.25970646739,4.17000007629,-524.114807129,-43.8565940857,-20.3513526917,-4.512180686000001,-14.868318557700004,-1.6786746978,5.554924011199999,0.9996454119680015,16.0
2018-10-05 19:58:26.750,0.0861953457981,0.219093398201,-0.924413422554,-0.269828498363,-0.0128736197948,0.207389995456,-0.89240515,0.4903325,9.5909037,0.0,-15.7843408585,14.2771978378,1.1687554121,-0.53954076767,0.0217892918736,0.25970646739,4.17000007629,-524.114807129,-43.8565940857,-20.3513526917,-4.50218093395,-14.858320236200004,-1.501657485900001,5.644067764299999,0.9341284632680015,16.0
2018-10-05 19:58:26.800,0.0861953457981,0.219093398201,-0.924413422554,-0.269828498363,-0.0128736197948,0.207389995456,-0.89240515,0.4903325,9.5909037,0.0,-15.7843408585,14.2771978378,1.1687554121,-0.53954076767,0.0217892918736,0.25970646739,4.17000007629,-524.114807129,-43.8565940857,-20.3513526917,-4.50218093395,-14.858320236200004,-1.501657485900001,5.644067764299999,0.9341284632680015,16.0
2018-10-05 19:58:26.850,0.0861953457981,0.219093398201,-0.924413422554,-0.269828498363,-0.0128736197948,0.207389995456,-0.89240515,0.4903325,9.5909037,0.0,-16.3196716309,13.2246294022,0.745248019695,-0.269828498363,-0.0128736197948,0.207389995456,4.0499997139,-491.473022461,-37.421836853,-20.3513526917,-4.5421808958100005,-13.3183193206,-1.0562429428000009,5.8754577637,0.6882519721980015,16.0
