%time,field.orientation.x,field.orientation.y,field.orientation.z,field.angular_velocity.x,field.angular_velocity.y,field.angular_velocity.z,field.linear_acceleration.x,field.linear_acceleration.y,field.linear_acceleration.z,field.data,field.twist.linear.x,field.twist.linear.y,field.twist.linear.z,field.twist.angular.x,field.twist.angular.y,field.twist.angular.z,field.alt_error,field.aspd_error,field.xtrack_error,delta_yaw,delta_pitch,delta_roll,delta_x,delta_y,delta_z,delta_roll_airspeed
2018-09-11 18:24:29.500,0.0200975792466,0.0214761704897,-0.97532659563,0.249954342842,-0.0572784617543,0.0326794497669,0.36284605,0.81395195,11.50320045,0.0,,,,,,,-0.070000000298,-460.954467773,-42.3638648987,174.66856384279998,-1.41201817989,35.90670084953,-7.270988799632501,34.8968248367,0.741837084293,15.0
2018-09-11 18:24:29.550,0.0200975792466,0.0214761704897,-0.97532659563,0.249954342842,-0.0572784617543,0.0326794497669,0.36284605,0.81395195,11.50320045,0.0,-18.8969230652,7.32703113556,0.741837084293,0.249954342842,-0.0572784617543,0.0326794497669,-0.070000000298,-460.954467773,-42.3638648987,174.66856384279998,-1.41201817989,35.90670084953,-7.256672240792501,34.9038190841,0.772681236267,15.0
2018-09-11 18:24:29.600,0.0200975792466,0.0214761704897,-0.97532659563,0.249954342842,-0.0572784617543,0.0326794497669,0.36284605,0.81395195,11.50320045,0.0,-18.8969230652,7.32703113556,0.741837084293,0.249954342842,-0.0572784617543,0.0326794497669,-0.149999991059,-461.505310059,-40.3954353333,173.66856384279998,-1.7820183038700002,38.086701154729994,8.69015645981,18.895084381099995,0.9360571503640019,15.0
2018-09-11 18:24:29.650,0.0200975792466,0.0214761704897,-0.97532659563,0.249954342842,-0.0572784617543,0.0326794497669,0.36284605,0.81395195,11.50320045,0.0,-18.8969230652,7.32703113556,0.741837084293,0.249954342842,-0.0572784617543,0.0326794497669,-0.25,-461.505310059,-224.684967041,20.668563842799998,-4.0820182561800005,39.29670023913,8.691163539889999,18.870897293099997,0.968646764755002,16.0
2018-09-11 18:24:29.700,0.0200975792466,0.0214761704897,-0.97532659563,0.249954342842,-0.0572784617543,0.0326794497669,0.36284605,0.81395195,11.50320045,0.0,-18.8969230652,7.32703113556,0.741837084293,0.249954342842,-0.0572784617543,0.0326794497669,-0.25,-461.505310059,-224.684967041,20.668563842799998,-4.0820182561800005,39.29670023913,8.691163539889999,18.870897293099997,0.968646764755002,16.0
2018-09-11 18:24:29.750,0.0200975792466,0.0214761704897,-0.97532659563,0.249954342842,-0.0572784617543,0.0326794497669,0.36284605,0.81395195,11.50320045,0.0,-18.7873935699,7.36423254013,1.02322113514,0.249954342842,-0.0572784617543,0.0326794497669,-0.359999984503,-364.504241943,-222.816833496,20.668563842799998,-6.3220180272999995,39.02669978143,8.6257352829,18.765386581399998,1.016246438030002,16.0
2018-09-11 18:24:29.800,0.0200975792466,0.0214761704897,-0.97532659563,0.249954342842,-0.0572784617543,0.0326794497669,0.36284605,0.81395195,11.50320045,0.0,-18.7873935699,7.36423254013,1.02322113514,0.249954342842,-0.0572784617543,0.0326794497669,-0.359999984503,-364.504241943,-222.816833496,20.668563842799998,-6.302018523209999,39.01670145993,8.5687828064,18.703159332299997,0.982305824757002,16.0
2018-09-11 18:24:29.850,0.0200975792466,0.0214761704897,-0.97532659563,0.249954342842,-0.0572784617543,0.0326794497669,0.36284605,0.81395195,11.50320045,0.0,-18.7873935699,7.36423254013,1.02322113514,0.249954342842,-0.0572784617543,0.0326794497669,-0.469999998808,-364.504241943,-220.982498169,20.668563842799998,-8.462018370629998,38.53670191763,8.5331735611,18.640609741199995,0.924882769585002,16.0
2018-09-11 18:24:29.900,-0.00907000627609,-0.139905408309,-0.967517283242,0.672671198845,0.0553066581488,0.062943264842,-0.4511059,0.3726527,8.42391235,0.0,-18.7873935699,7.36423254013,1.02322113514,0.249954342842,-0.0572784617543,0.0326794497669,-0.469999998808,-364.504241943,-220.982498169,20.668563842799998,-8.462018370629998,38.53670191763,8.5331735611,18.640609741199995,0.924882769585002,16.0
2018-09-11 18:24:29.950,-0.00907000627609,-0.139905408309,-0.967517283242,0.672671198845,0.0553066581488,0.062943264842,-0.4511059,0.3726527,8.42391235,0.0,-18.7873935699,7.36423254013,1.02322113514,0.249954342842,-0.0572784617543,0.0326794497669,-0.579999983311,-360.250274658,-219.18196106,21.797904968300003,-9.8223025799,19.031545638999997,8.38667631149,18.487308502199998,0.830702602863002,16.0
2018-09-11 18:24:30.000,-0.00907000627609,-0.139905408309,-0.967517283242,0.672671198845,0.0553066581488,0.062943264842,-0.4511059,0.3726527,8.42391235,0.0,-18.4191493988,7.69158744812,0.806860029697,0.672671198845,0.0553066581488,0.062943264842,-0.579999983311,-360.250274658,-219.18196106,21.797904968300003,-9.7923028469,19.031545638999997,8.38667631149,18.487308502199998,0.830702602863002,16.0
2018-09-11 18:24:30.050,-0.00907000627609,-0.139905408309,-0.967517283242,0.672671198845,0.0553066581488,0.062943264842,-0.4511059,0.3726527,8.42391235,0.0,-18.4191493988,7.69158744812,0.806860029697,0.672671198845,0.0553066581488,0.062943264842,-0.680000007153,-360.250274658,-217.364532471,21.797904968300003,-11.852302312900001,18.141546249399997,8.196535587309999,18.303016662599997,0.752146303654002,16.0
2018-09-11 18:24:30.100,-0.00907000627609,-0.139905408309,-0.967517283242,0.672671198845,0.0553066581488,0.062943264842,-0.4511059,0.3726527,8.42391235,0.0,-18.4191493988,7.69158744812,0.806860029697,0.672671198845,0.0553066581488,0.062943264842,-0.680000007153,-360.250274658,-217.364532471,21.797904968300003,-11.852302312900001,18.141546249399997,8.196535587309999,18.303016662599997,0.752146303654002,16.0
2018-09-11 18:24:30.150,-0.00907000627609,-0.139905408309,-0.967517283242,0.672671198845,0.0553066581488,0.062943264842,-0.4511059,0.3726527,8.42391235,0.0,-18.4191493988,7.69158744812,0.806860029697,0.672671198845,0.0553066581488,0.062943264842,-0.759999990463,-348.025695801,-215.589248657,21.797904968300003,-13.7723023891,17.2115459442,8.063146114350001,18.151306152299995,0.624203145504002,16.0
2018-09-11 18:24:30.200,-0.00907000627609,-0.139905408309,-0.967517283242,0.672671198845,0.0553066581488,0.062943264842,-0.4511059,0.3726527,8.42391235,0.0,-18.4191493988,7.69158744812,0.806860029697,0.672671198845,0.0553066581488,0.062943264842,-0.759999990463,-348.025695801,-215.589248657,21.797904968300003,-13.7523019314,17.2115459442,7.9807252883899995,18.074789047199996,0.571453571320002,16.0
2018-09-11 18:24:30.250,-0.00907000627609,-0.139905408309,-0.967517283242,0.672671198845,0.0553066581488,0.062943264842,-0.4511059,0.3726527,8.42391235,0.0,-18.4191493988,7.69158744812,0.806860029697,0.672671198845,0.0553066581488,0.062943264842,-0.829999983311,-348.025695801,-213.814071655,21.797904968300003,-15.642303228400001,16.201543808,7.8335647583,17.915929794299995,0.42206802964200196,16.0
2018-09-11 18:24:30.300,-0.00907000627609,-0.139905408309,-0.967517283242,0.672671198845,0.0553066581488,0.062943264842,-0.4511059,0.3726527,8.42391235,0.0,-17.9159297943,8.1664352417,0.422068029642,0.672671198845,0.0553066581488,0.062943264842,-0.829999983311,-348.025695801,-213.814071655,21.797904968300003,-15.6323029995,16.1815471649,7.75272274017,17.800109863299998,0.24870172143000197,16.0
2018-09-11 18:24:30.350,-0.00907000627609,-0.139905408309,-0.967517283242,0.672671198845,0.0553066581488,0.062943264842,-0.4511059,0.3726527,8.42391235,0.0,-17.9159297943,8.1664352417,0.422068029642,0.672671198845,0.0553066581488,0.062943264842,-0.879999995232,-333.960723877,-212.081161499,21.797904968300003,-17.372302770599998,15.2515449524,7.71286869049,17.731674194299995,0.10730253905100195,16.0
2018-09-11 18:24:30.400,-0.00719869823582,-0.229657294211,-0.948387376082,0.0710596814752,0.260594397783,-0.244943395257,-1.1179581,1.22583125,5.9428299,0.0,-17.9159297943,8.1664352417,0.422068029642,0.672671198845,0.0553066581488,0.062943264842,-0.879999995232,-333.960723877,-212.081161499,21.2007522583,-14.75436830517,5.0196723938000005,7.71286869049,17.731674194299995,0.10730253905100195,16.0
2018-09-11 18:24:30.450,-0.00719869823582,-0.229657294211,-0.948387376082,0.0710596814752,0.260594397783,-0.244943395257,-1.1179581,1.22583125,5.9428299,0.0,-17.9159297943,8.1664352417,0.422068029642,0.672671198845,0.0553066581488,0.062943264842,-0.909999966621,-333.960723877,-210.348297119,21.2007522583,-16.30436754227,4.299671173099998,7.6473493576,17.570230483999996,-0.31629213690799807,16.0
2018-09-11 18:24:30.500,-0.00719869823582,-0.229657294211,-0.948387376082,0.0710596814752,0.260594397783,-0.244943395257,-1.1179581,1.22583125,5.9428299,0.0,-17.4984989166,8.39241790771,-0.498683542013,0.0710596814752,0.260594397783,-0.244943395257,-0.909999966621,-333.960723877,-210.348297119,21.2007522583,-16.30436754227,4.299671173099998,7.6473493576,17.570230483999996,-0.31629213690799807,16.0
2018-09-11 18:24:30.550,-0.00719869823582,-0.229657294211,-0.948387376082,0.0710596814752,0.260594397783,-0.244943395257,-1.1179581,1.22583125,5.9428299,0.0,-17.4984989166,8.39241790771,-0.498683542013,0.0710596814752,0.260594397783,-0.244943395257,-0.879999995232,-318.097869873,-208.649200439,21.2007522583,-17.43436861037,3.469671249400001,7.56267166138,17.404449462899997,-0.796769857406998,16.0
2018-09-11 18:24:30.600,-0.00719869823582,-0.229657294211,-0.948387376082,0.0710596814752,0.260594397783,-0.244943395257,-1.1179581,1.22583125,5.9428299,0.0,-17.4984989166,8.39241790771,-0.498683542013,0.0710596814752,0.260594397783,-0.244943395257,-0.879999995232,-318.097869873,-208.649200439,21.2007522583,-17.39436769487,3.359672546399999,7.56267166138,17.404449462899997,-0.796769857406998,16.0
2018-09-11 18:24:30.650,-0.00719869823582,-0.229657294211,-0.948387376082,0.0710596814752,0.260594397783,-0.244943395257,-1.1179581,1.22583125,5.9428299,0.0,-17.4984989166,8.39241790771,-0.498683542013,0.0710596814752,0.260594397783,-0.244943395257,-0.810000002384,-318.097869873,-206.950073242,21.2007522583,-17.334368228869998,2.5296726227000015,7.441689491269999,17.220693588299998,-1.296057224269998,16.0
2018-09-11 18:24:30.700,-0.00719869823582,-0.229657294211,-0.948387376082,0.0710596814752,0.260594397783,-0.244943395257,-1.1179581,1.22583125,5.9428299,0.0,-17.4984989166,8.39241790771,-0.498683542013,0.0710596814752,0.260594397783,-0.244943395257,-0.810000002384,-318.097869873,-206.950073242,21.2007522583,-17.334368228869998,2.5296726227000015,7.441689491269999,17.220693588299998,-1.296057224269998,16.0
2018-09-11 18:24:30.750,-0.00719869823582,-0.229657294211,-0.948387376082,0.0710596814752,0.260594397783,-0.244943395257,-1.1179581,1.22583125,5.9428299,0.0,-17.065656662,8.64409637451,-1.73994266987,0.0710596814752,0.260594397783,-0.244943395257,-0.680000007153,-296.143341064,-205.284820557,21.2007522583,-17.14436769487,1.5696716309000003,7.355903625490001,17.065656661999995,-1.739942669869998,16.0
2018-09-11 18:24:30.800,0.0459264748651,-0.264306012178,-0.923400787678,0.253307580948,0.20857656002,-0.271457493305,-1.5494507,0.10787315,3.530394,0.0,-17.065656662,8.64409637451,-1.73994266987,0.0710596814752,0.260594397783,-0.244943395257,-0.680000007153,-296.143341064,-205.284820557,21.2007522583,-17.03436899187,1.4896717071999994,7.3258733749400005,16.990547180199997,-2.0029797553999984,16.0
2018-09-11 18:24:30.850,0.0459264748651,-0.264306012178,-0.923400787678,0.253307580948,0.20857656002,-0.271457493305,-1.5494507,0.10787315,3.530394,0.0,-17.065656662,8.64409637451,-1.73994266987,0.0710596814752,0.260594397783,-0.244943395257,-0.5,-296.143341064,-203.619537354,16.2638778687,-8.526789665199999,-1.6816349029000008,7.2990474700900005,16.920867919899997,-2.2730729579899984,16.0
2018-09-11 18:24:30.900,0.0459264748651,-0.264306012178,-0.923400787678,0.253307580948,0.20857656002,-0.271457493305,-1.5494507,0.10787315,3.530394,0.0,-17.065656662,8.64409637451,-1.73994266987,0.0710596814752,0.260594397783,-0.244943395257,-0.5,-296.143341064,-203.619537354,16.2638778687,-8.526789665199999,-1.6816349029000008,7.28092861176,16.812370300299996,-2.683542728419998,16.0
2018-09-11 18:24:30.950,0.0459264748651,-0.264306012178,-0.923400787678,0.253307580948,0.20857656002,-0.271457493305,-1.5494507,0.10787315,3.530394,0.0,-17.065656662,8.64409637451,-1.73994266987,0.0710596814752,0.260594397783,-0.244943395257,-0.239999994636,-271.81930542,-201.99647522,16.2638778687,-8.4367895126,-2.4116344452000007,7.244632720949999,16.707456588699998,-3.0655515193899983,16.0
2018-09-11 18:24:31.000,0.0459264748651,-0.264306012178,-0.923400787678,0.253307580948,0.20857656002,-0.271457493305,-1.5494507,0.10787315,3.530394,0.0,-16.6364517212,8.79108333588,-3.3054792881,0.253307580948,0.20857656002,-0.271457493305,-0.239999994636,-271.81930542,-201.99647522,16.2638778687,-8.426789283799998,-2.4416351317999982,7.20891666412,16.636451721199997,-3.305479288099998,16.0
2018-09-11 18:24:31.050,0.0459264748651,-0.264306012178,-0.923400787678,0.253307580948,0.20857656002,-0.271457493305,-1.5494507,0.10787315,3.530394,0.0,-16.6364517212,8.79108333588,-3.3054792881,0.253307580948,0.20857656002,-0.271457493305,0.070000000298,-271.81930542,-200.373474121,16.2638778687,-8.3867902756,-3.3016338348000005,7.04543113708,16.435264587399995,-3.777112483979998,16.0
2018-09-11 18:24:31.100,0.0459264748651,-0.264306012178,-0.923400787678,0.253307580948,0.20857656002,-0.271457493305,-1.5494507,0.10787315,3.530394,0.0,-16.6364517212,8.79108333588,-3.3054792881,0.253307580948,0.20857656002,-0.271457493305,0.070000000298,-271.81930542,-200.373474121,16.2638778687,-8.3567895889,-3.3116340637000015,6.954126358030001,16.352466583299996,-3.9283983707399983,16.0
2018-09-11 18:24:31.150,0.0593693651018,-0.282747295497,-0.908297866252,0.0705620497465,-0.0191826876253,-0.152335956693,-1.85345685,-0.5687857,6.9431082,0.0,-16.6364517212,8.79108333588,-3.3054792881,0.253307580948,0.20857656002,-0.271457493305,0.449999988079,-210.717773438,-198.775787354,13.498157501199998,-5.443700790400001,-5.922019958499998,6.795085906980001,16.227750778199997,-4.116875648499998,16.0
2018-09-11 18:24:31.200,0.0593693651018,-0.282747295497,-0.908297866252,0.0705620497465,-0.0191826876253,-0.152335956693,-1.85345685,-0.5687857,6.9431082,0.0,-16.6364517212,8.79108333588,-3.3054792881,0.253307580948,0.20857656002,-0.271457493305,0.449999988079,-210.717773438,-198.775787354,13.498157501199998,-5.443700790400001,-5.922019958499998,6.795085906980001,16.227750778199997,-4.116875648499998,16.0
2018-09-11 18:24:31.250,0.0593693651018,-0.282747295497,-0.908297866252,0.0705620497465,-0.0191826876253,-0.152335956693,-1.85345685,-0.5687857,6.9431082,0.0,-16.6364517212,8.79108333588,-3.3054792881,0.253307580948,0.20857656002,-0.271457493305,0.449999988079,-210.717773438,-198.775787354,13.498157501199998,-5.443700790400001,-5.922019958499998,6.795085906980001,16.227750778199997,-4.116875648499998,16.0
2018-09-11 18:24:31.300,0.0593693651018,-0.282747295497,-0.908297866252,0.0705620497465,-0.0191826876253,-0.152335956693,-1.85345685,-0.5687857,6.9431082,0.0,-15.9864721298,9.53181934357,-4.4022064209,0.0705620497465,-0.0191826876253,-0.152335956693,0.849999964237,-210.717773438,-197.20350647,13.498157501199998,-5.503700256400002,-7.382020950299999,6.46818065643,15.986472129799996,-4.402206420899998,16.0
2018-09-11 18:24:31.350,0.0593693651018,-0.282747295497,-0.908297866252,0.0705620497465,-0.0191826876253,-0.152335956693,-1.85345685,-0.5687857,6.9431082,0.0,-15.9864721298,9.53181934357,-4.4022064209,0.0705620497465,-0.0191826876253,-0.152335956693,1.28999996185,-187.464523315,-195.656570435,13.498157501199998,-5.5237007142,-8.822019576999999,6.29903697968,15.867354392999996,-4.553558826449998,16.0
2018-09-11 18:24:31.400,0.0593693651018,-0.282747295497,-0.908297866252,0.0705620497465,-0.0191826876253,-0.152335956693,-1.85345685,-0.5687857,6.9431082,0.0,-15.9864721298,9.53181934357,-4.4022064209,0.0705620497465,-0.0191826876253,-0.152335956693,1.28999996185,-187.464523315,-195.656570435,13.498157501199998,-5.5237007142,-8.822019576999999,6.29903697968,15.867354392999996,-4.553558826449998,16.0
2018-09-11 18:24:31.450,0.0593693651018,-0.282747295497,-0.908297866252,0.0705620497465,-0.0191826876253,-0.152335956693,-1.85345685,-0.5687857,6.9431082,0.0,-15.9864721298,9.53181934357,-4.4022064209,0.0705620497465,-0.0191826876253,-0.152335956693,1.74000000954,-187.464523315,-194.109558105,13.498157501199998,-5.403701782300001,-10.372020721399998,6.08502864838,15.701478958099996,-4.802927970889998,16.0
2018-09-11 18:24:31.500,0.0593693651018,-0.282747295497,-0.908297866252,0.0705620497465,-0.0191826876253,-0.152335956693,-1.85345685,-0.5687857,6.9431082,0.0,-15.5567092896,10.0693178177,-5.08010292053,0.0705620497465,-0.0191826876253,-0.152335956693,1.74000000954,-187.464523315,-194.109558105,13.498157501199998,-5.343700409,-10.4020195007,6.00650215149,15.626409530599997,-4.9398794174199985,16.0
2018-09-11 18:24:31.550,0.0593693651018,-0.282747295497,-0.908297866252,0.0705620497465,-0.0191826876253,-0.152335956693,-1.85345685,-0.5687857,6.9431082,0.0,-15.5567092896,10.0693178177,-5.08010292053,0.0705620497465,-0.0191826876253,-0.152335956693,2.22000002861,-183.662231445,-192.596450806,13.498157501199998,-5.3237018586,-11.642019271799999,5.8371648787999995,15.481942176799997,-5.213571548459998,16.0
2018-09-11 18:24:31.600,0.0593693651018,-0.282747295497,-0.908297866252,0.0705620497465,-0.0191826876253,-0.152335956693,-1.85345685,-0.5687857,6.9431082,0.0,-15.5567092896,10.0693178177,-5.08010292053,0.0705620497465,-0.0191826876253,-0.152335956693,2.22000002861,-183.662231445,-192.596450806,13.498157501199998,-5.3237018586,-11.642019271799999,5.8371648787999995,15.481942176799997,-5.213571548459998,16.0
2018-09-11 18:24:31.650,0.0593693651018,-0.282747295497,-0.908297866252,0.0705620497465,-0.0191826876253,-0.152335956693,-1.85345685,-0.5687857,6.9431082,0.0,-15.5567092896,10.0693178177,-5.08010292053,0.0705620497465,-0.0191826876253,-0.152335956693,2.72000002861,-183.662231445,-191.083297729,13.498157501199998,-5.703701019300002,-13.072019576999999,5.6749429703,15.365910530099997,-5.382590293879998,16.0
2018-09-11 18:24:31.700,0.0756933679492,-0.277640575598,-0.896745832486,-0.329535245895,-0.0329675301909,-0.176964193583,-1.81423025,0.97085835,9.48303055,0.0,-15.5567092896,10.0693178177,-5.08010292053,0.0705620497465,-0.0191826876253,-0.152335956693,2.72000002861,-183.662231445,-191.083297729,9.658309936499997,-3.339258193900001,-11.442005157500002,5.3652667999000005,15.193489074699997,-5.503226280209998,16.0
2018-09-11 18:24:31.750,0.0756933679492,-0.277640575598,-0.896745832486,-0.329535245895,-0.0329675301909,-0.176964193583,-1.81423025,0.97085835,9.48303055,0.0,-15.1569547653,10.700422287,-5.5220952034,-0.329535245895,-0.0329675301909,-0.176964193583,2.72000002861,-183.662231445,-191.083297729,9.658309936499997,-3.339258193900001,-11.442005157500002,5.3652667999000005,15.193489074699997,-5.503226280209998,16.0
2018-09-11 18:24:31.800,0.0756933679492,-0.277640575598,-0.896745832486,-0.329535245895,-0.0329675301909,-0.176964193583,-1.81423025,0.97085835,9.48303055,0.0,-15.1569547653,10.700422287,-5.5220952034,-0.329535245895,-0.0329675301909,-0.176964193583,2.72000002861,-183.662231445,-191.083297729,9.658309936499997,-3.729257583599999,-13.012004852300002,5.3652667999000005,15.193489074699997,-5.503226280209998,16.0
2018-09-11 18:24:31.850,0.0756933679492,-0.277640575598,-0.896745832486,-0.329535245895,-0.0329675301909,-0.176964193583,-1.81423025,0.97085835,9.48303055,0.0,-15.1569547653,10.700422287,-5.5220952034,-0.329535245895,-0.0329675301909,-0.176964193583,3.25,-177.940551758,-189.612442017,9.658309936499997,-3.729257583599999,-13.012004852300002,5.064332008399999,15.036836624099996,-5.602421283719998,16.0
2018-09-11 18:24:31.900,0.0756933679492,-0.277640575598,-0.896745832486,-0.329535245895,-0.0329675301909,-0.176964193583,-1.81423025,0.97085835,9.48303055,0.0,-15.1569547653,10.700422287,-5.5220952034,-0.329535245895,-0.0329675301909,-0.176964193583,3.77999997139,-177.940551758,-188.133148193,9.658309936499997,-4.049257278399999,-14.492005348200001,4.8801689148000005,14.940208435099997,-5.627882003779998,16.0
2018-09-11 18:24:31.950,0.0756933679492,-0.277640575598,-0.896745832486,-0.329535245895,-0.0329675301909,-0.176964193583,-1.81423025,0.97085835,9.48303055,0.0,-15.1569547653,10.700422287,-5.5220952034,-0.329535245895,-0.0329675301909,-0.176964193583,4.31999969482,-181.334869385,-186.687576294,9.658309936499997,-4.449258804300001,-16.062005043,4.620002746600001,14.826910018899996,-5.605591773989998,16.0
2018-09-11 18:24:32.000,0.0756933679492,-0.277640575598,-0.896745832486,-0.329535245895,-0.0329675301909,-0.176964193583,-1.81423025,0.97085835,9.48303055,0.0,-14.8021812439,11.4496059418,-5.57923841476,-0.329535245895,-0.0329675301909,-0.176964193583,4.31999969482,-181.334869385,-186.687576294,9.658309936499997,-4.449258804300001,-16.062005043,4.620002746600001,14.826910018899996,-5.605591773989998,16.0
2018-09-11 18:24:32.050,0.0756933679492,-0.277640575598,-0.896745832486,-0.329535245895,-0.0329675301909,-0.176964193583,-1.81423025,0.97085835,9.48303055,0.0,-14.8021812439,11.4496059418,-5.57923841476,-0.329535245895,-0.0329675301909,-0.176964193583,4.84999990463,-181.334869385,-185.233642578,9.658309936499997,-4.769258499100001,-17.6420049667,4.328015327499999,14.721284866299996,-5.490001678469998,16.0
2018-09-11 18:24:32.100,0.10255890859,-0.208584055221,-0.895521133167,-0.304218262434,0.00724134873599,-0.265201896429,-1.97113665,0.51975245,11.24822755,0.0,-14.8021812439,11.4496059418,-5.57923841476,-0.329535245895,-0.0329675301909,-0.176964193583,4.84999990463,-181.334869385,-185.233642578,3.329833984399997,-3.8112010954999995,-7.8238744736,4.0827064514,14.636299133299996,-5.396238803859998,16.0
2018-09-11 18:24:32.150,0.10255890859,-0.208584055221,-0.895521133167,-0.304218262434,0.00724134873599,-0.265201896429,-1.97113665,0.51975245,11.24822755,0.0,-14.8021812439,11.4496059418,-5.57923841476,-0.329535245895,-0.0329675301909,-0.176964193583,4.84999990463,-181.334869385,-185.233642578,3.329833984399997,-3.8112010954999995,-7.8238744736,4.0827064514,14.636299133299996,-5.396238803859998,16.0
2018-09-11 18:24:32.200,0.10255890859,-0.208584055221,-0.895521133167,-0.304218262434,0.00724134873599,-0.265201896429,-1.97113665,0.51975245,11.24822755,0.0,-14.8021812439,11.4496059418,-5.57923841476,-0.329535245895,-0.0329675301909,-0.176964193583,5.35999965668,-192.508880615,-183.804977417,3.329833984399997,-3.9212017058999997,-9.29387378697,3.9174184799000002,14.563696861299997,-5.383272647859998,16.0
2018-09-11 18:24:32.250,0.10255890859,-0.208584055221,-0.895521133167,-0.304218262434,0.00724134873599,-0.265201896429,-1.97113665,0.51975245,11.24822755,0.0,-14.5188360214,12.1628446579,-5.42572450638,-0.304218262434,0.00724134873599,-0.265201896429,5.35999965668,-192.508880615,-183.804977417,3.329833984399997,-3.981201171800002,-9.32387447361,3.837155342100001,14.518836021399997,-5.425724506379998,16.0
2018-09-11 18:24:32.300,0.10255890859,-0.208584055221,-0.895521133167,-0.304218262434,0.00724134873599,-0.265201896429,-1.97113665,0.51975245,11.24822755,0.0,-14.5188360214,12.1628446579,-5.42572450638,-0.304218262434,0.00724134873599,-0.265201896429,5.8799996376,-192.508880615,-182.37638855,3.329833984399997,-4.091201782199999,-10.58387422566,3.6835384368999993,14.406134605399997,-5.6168990135199985,16.0
2018-09-11 18:24:32.350,0.10255890859,-0.208584055221,-0.895521133167,-0.304218262434,0.00724134873599,-0.265201896429,-1.97113665,0.51975245,11.24822755,0.0,-14.5188360214,12.1628446579,-5.42572450638,-0.304218262434,0.00724134873599,-0.265201896429,5.8799996376,-192.508880615,-182.37638855,3.329833984399997,-4.091201782199999,-10.58387422566,3.6835384368999993,14.406134605399997,-5.6168990135199985,16.0
2018-09-11 18:24:32.400,0.10255890859,-0.208584055221,-0.895521133167,-0.304218262434,0.00724134873599,-0.265201896429,-1.97113665,0.51975245,11.24822755,0.0,-14.5188360214,12.1628446579,-5.42572450638,-0.304218262434,0.00724134873599,-0.265201896429,6.38999986649,-231.69708252,-180.973144531,3.329833984399997,-4.1412010192,-11.49387407307,3.6053037643000003,14.344199180599997,-5.772037982939998,16.0
2018-09-11 18:24:32.450,0.12844926172,-0.191643432246,-0.88613456026,-0.0236367769539,0.0167736392468,-0.0693587213755,-2.14765635,0.36284605,7.18827445,0.0,-14.5188360214,12.1628446579,-5.42572450638,-0.304218262434,0.00724134873599,-0.265201896429,6.92999982834,-231.69708252,-179.561462402,0.16044235230000226,-1.7311592101999977,-8.72833490375,3.553095817599999,14.312404632599996,-5.871970653529998,16.0
2018-09-11 18:24:32.500,0.12844926172,-0.191643432246,-0.88613456026,-0.0236367769539,0.0167736392468,-0.0693587213755,-2.14765635,0.36284605,7.18827445,0.0,-14.2246446609,12.5660419464,-6.02412605286,-0.0236367769539,0.0167736392468,-0.0693587213755,6.92999982834,-231.69708252,-179.561462402,0.16044235230000226,-1.7311592101999977,-8.72833490375,3.4964637756000005,14.267681121799997,-5.947527885439999,16.0
2018-09-11 18:24:32.550,0.12844926172,-0.191643432246,-0.88613456026,-0.0236367769539,0.0167736392468,-0.0693587213755,-2.14765635,0.36284605,7.18827445,0.0,-14.2246446609,12.5660419464,-6.02412605286,-0.0236367769539,0.0167736392468,-0.0693587213755,7.5,-236.447143555,-178.166702271,0.16044235230000226,-1.7611579894999991,-8.72833490375,3.403506279,14.208924293499997,-6.051738739009998,16.0
2018-09-11 18:24:32.600,0.12844926172,-0.191643432246,-0.88613456026,-0.0236367769539,0.0167736392468,-0.0693587213755,-2.14765635,0.36284605,7.18827445,0.0,-14.2246446609,12.5660419464,-6.02412605286,-0.0236367769539,0.0167736392468,-0.0693587213755,7.5,-236.447143555,-178.166702271,0.16044235230000226,-1.8111591338999986,-9.5683345795,3.2176904678000007,14.161712646499996,-6.062123298649999,16.0
2018-09-11 18:24:32.650,0.12844926172,-0.191643432246,-0.88613456026,-0.0236367769539,0.0167736392468,-0.0693587213755,-2.14765635,0.36284605,7.18827445,0.0,-14.2246446609,12.5660419464,-6.02412605286,-0.0236367769539,0.0167736392468,-0.0693587213755,8.07999992371,-236.447143555,-176.780303955,0.16044235230000226,-1.8811588286999985,-10.5683345795,3.1196956635,14.134687423699997,-6.048795223239998,16.0
2018-09-11 18:24:32.700,0.12844926172,-0.191643432246,-0.88613456026,-0.0236367769539,0.0167736392468,-0.0693587213755,-2.14765635,0.36284605,7.18827445,0.0,-14.2246446609,12.5660419464,-6.02412605286,-0.0236367769539,0.0167736392468,-0.0693587213755,8.07999992371,-236.447143555,-176.780303955,0.16044235230000226,-1.8811588286999985,-10.5683345795,3.0788135529,14.124256133999996,-6.041127204899999,16.0
2018-09-11 18:24:32.750,0.12844926172,-0.191643432246,-0.88613456026,-0.0236367769539,0.0167736392468,-0.0693587213755,-2.14765635,0.36284605,7.18827445,0.0,-14.1082057953,13.0647144318,-6.02996063232,-0.0236367769539,0.0167736392468,-0.0693587213755,8.67000007629,-231.702041626,-175.402450562,0.16044235230000226,-2.011157989499999,-11.33833456043,2.9352855681999994,14.108205795299996,-6.029960632319998,16.0
2018-09-11 18:24:32.800,0.12844926172,-0.191643432246,-0.88613456026,-0.0236367769539,0.0167736392468,-0.0693587213755,-2.14765635,0.36284605,7.18827445,0.0,-14.1082057953,13.0647144318,-6.02996063232,-0.0236367769539,0.0167736392468,-0.0693587213755,8.67000007629,-231.702041626,-175.402450562,0.16044235230000226,-2.081157684299999,-11.33833456043,2.8561639785999997,14.097319602999997,-6.020390033719998,16.0
2018-09-11 18:24:32.850,0.12844926172,-0.191643432246,-0.88613456026,-0.0236367769539,0.0167736392468,-0.0693587213755,-2.14765635,0.36284605,7.18827445,0.0,-14.1082057953,13.0647144318,-6.02996063232,-0.0236367769539,0.0167736392468,-0.0693587213755,9.25,-231.702041626,-174.016143799,0.16044235230000226,-2.1811580657999983,-12.02833461765,2.7477798462000003,14.097723007199997,-6.038052082059998,16.0
2018-09-11 18:24:32.900,0.144887253,-0.146635563595,-0.891831270499,-0.35936614871,0.0348492749035,-0.0690854340792,-2.157463,0.9022118,9.4732239,0.0,-14.1082057953,13.0647144318,-6.02996063232,-0.0236367769539,0.0167736392468,-0.0693587213755,9.25,-231.702041626,-174.016143799,-0.8373107910000002,-2.591630935700003,-6.20642375946,2.6812143325999998,14.091086387599997,-6.069244861599998,16.0
2018-09-11 18:24:32.950,0.144887253,-0.146635563595,-0.891831270499,-0.35936614871,0.0348492749035,-0.0690854340792,-2.157463,0.9022118,9.4732239,0.0,-14.1082057953,13.0647144318,-6.02996063232,-0.0236367769539,0.0167736392468,-0.0693587213755,9.82999992371,-258.943756104,-172.638168335,-0.8373107910000002,-2.6416320801000026,-6.5864238739,2.6309328079000007,14.092643737799996,-6.086309909819998,16.0
2018-09-11 18:24:33.000,0.144887253,-0.146635563595,-0.891831270499,-0.35936614871,0.0348492749035,-0.0690854340792,-2.157463,0.9022118,9.4732239,0.0,-14.0998907089,13.391705513,-6.08803749084,-0.35936614871,0.0348492749035,-0.0690854340792,9.82999992371,-258.943756104,-172.638168335,-0.8373107910000002,-2.6416320801000026,-6.5864238739,2.6309328079000007,14.092643737799996,-6.086309909819998,16.0
2018-09-11 18:24:33.050,0.144887253,-0.146635563595,-0.891831270499,-0.35936614871,0.0348492749035,-0.0690854340792,-2.157463,0.9022118,9.4732239,0.0,-14.0998907089,13.391705513,-6.08803749084,-0.35936614871,0.0348492749035,-0.0690854340792,10.4200000763,-258.943756104,-171.243392944,-0.8373107910000002,-2.731632232700001,-6.886423826210001,2.5127277374000005,14.139899253799996,-6.050370216369998,16.0
2018-09-11 18:24:33.100,0.144887253,-0.146635563595,-0.891831270499,-0.35936614871,0.0348492749035,-0.0690854340792,-2.157463,0.9022118,9.4732239,0.0,-14.0998907089,13.391705513,-6.08803749084,-0.35936614871,0.0348492749035,-0.0690854340792,10.4200000763,-258.943756104,-171.243392944,-0.8373107910000002,-2.731632232700001,-6.886423826210001,2.5127277374000005,14.139899253799996,-6.050370216369998,16.0
2018-09-11 18:24:33.150,0.144887253,-0.146635563595,-0.891831270499,-0.35936614871,0.0348492749035,-0.0690854340792,-2.157463,0.9022118,9.4732239,0.0,-14.0998907089,13.391705513,-6.08803749084,-0.35936614871,0.0348492749035,-0.0690854340792,10.4200000763,-258.943756104,-171.243392944,-0.8373107910000002,-2.7716312408000014,-6.8964238166800005,2.4429092407000006,14.162547111499997,-6.025393486019998,16.0
2018-09-11 18:24:33.200,0.144887253,-0.146635563595,-0.891831270499,-0.35936614871,0.0348492749035,-0.0690854340792,-2.157463,0.9022118,9.4732239,0.0,-14.0998907089,13.391705513,-6.08803749084,-0.35936614871,0.0348492749035,-0.0690854340792,10.4200000763,-258.943756104,-171.243392944,-0.8373107910000002,-2.7716312408000014,-6.8964238166800005,2.4429092407000006,14.162547111499997,-6.025393486019998,16.0
2018-09-11 18:24:33.250,0.144887253,-0.146635563595,-0.891831270499,-0.35936614871,0.0348492749035,-0.0690854340792,-2.157463,0.9022118,9.4732239,0.0,-14.2487802505,13.6604042053,-6.03816127777,-0.35936614871,0.0348492749035,-0.0690854340792,11.0,-280.828094482,-169.865493774,-0.8373107910000002,-2.831630706800002,-7.1664237976,2.3504343033,14.237271308899997,-6.026571273799998,16.0
2018-09-11 18:24:33.300,0.144887253,-0.146635563595,-0.891831270499,-0.35936614871,0.0348492749035,-0.0690854340792,-2.157463,0.9022118,9.4732239,0.0,-14.2487802505,13.6604042053,-6.03816127777,-0.35936614871,0.0348492749035,-0.0690854340792,11.5799999237,-280.828094482,-168.462280273,-0.8373107910000002,-2.8516311646000005,-7.23642373085,2.3263711929,14.266301155099997,-6.0950984954799985,16.0
2018-09-11 18:24:33.350,0.144887253,-0.146635563595,-0.891831270499,-0.35936614871,0.0348492749035,-0.0690854340792,-2.157463,0.9022118,9.4732239,0.0,-14.2487802505,13.6604042053,-6.03816127777,-0.35936614871,0.0348492749035,-0.0690854340792,12.1700000763,-294.35824585,-167.059066772,-0.8373107910000002,-2.8616313934000033,-7.1364237070000005,2.3319787978999997,14.313887596099997,-6.273458003999998,16.0
2018-09-11 18:24:33.400,0.190999881357,-0.100032731006,-0.889473901541,-0.0872631892562,0.0585115402937,-0.0428916141391,-2.3732093,0.61781895,7.40402075,0.0,-14.2487802505,13.6604042053,-6.03816127777,-0.35936614871,0.0348492749035,-0.0690854340792,12.1700000763,-294.35824585,-167.059066772,-0.8373107910000002,-2.8616313934000033,-7.1364237070000005,2.3319787978999997,14.313887596099997,-6.273458003999998,16.0
2018-09-11 18:24:33.450,0.190999881357,-0.100032731006,-0.889473901541,-0.0872631892562,0.0585115402937,-0.0428916141391,-2.3732093,0.61781895,7.40402075,0.0,-14.2487802505,13.6604042053,-6.03816127777,-0.35936614871,0.0348492749035,-0.0690854340792,12.779999733,-294.35824585,-165.638824463,-2.4057693481000015,-0.13077354429999843,0.4620465040199999,2.3063783646000005,14.364859580999996,-6.4575777053799985,16.0
2018-09-11 18:24:33.500,0.190999881357,-0.100032731006,-0.889473901541,-0.0872631892562,0.0585115402937,-0.0428916141391,-2.3732093,0.61781895,7.40402075,0.0,-14.3766746521,13.6927232742,-6.49480247498,-0.0872631892562,0.0585115402937,-0.0428916141391,12.779999733,-294.35824585,-165.638824463,-2.4057693481000015,-0.13077354429999843,0.4620465040199999,2.3073740004999994,14.405881881699996,-6.579833984379998,16.0
2018-09-11 18:24:33.550,0.190999881357,-0.100032731006,-0.889473901541,-0.0872631892562,0.0585115402937,-0.0428916141391,-2.3732093,0.61781895,7.40402075,0.0,-14.3766746521,13.6927232742,-6.49480247498,-0.0872631892562,0.0585115402937,-0.0428916141391,13.4099998474,-312.300689697,-164.201812744,-2.4057693481000015,-0.13077354429999843,0.64204645157,2.3099393845,14.419851303099996,-6.626646041869998,16.0
2018-09-11 18:24:33.600,0.190999881357,-0.100032731006,-0.889473901541,-0.0872631892562,0.0585115402937,-0.0428916141391,-2.3732093,0.61781895,7.40402075,0.0,-14.3766746521,13.6927232742,-6.49480247498,-0.0872631892562,0.0585115402937,-0.0428916141391,13.4099998474,-312.300689697,-164.201812744,-2.4057693481000015,-0.13077354429999843,0.64204645157,2.2918243408,14.454799652099997,-6.744888782499999,16.0
2018-09-11 18:24:33.650,0.190999881357,-0.100032731006,-0.889473901541,-0.0872631892562,0.0585115402937,-0.0428916141391,-2.3732093,0.61781895,7.40402075,0.0,-14.3766746521,13.6927232742,-6.49480247498,-0.0872631892562,0.0585115402937,-0.0428916141391,14.0599994659,-312.300689697,-162.773193359,-2.4057693481000015,-0.13077354429999843,0.7520465850900002,2.2672843933000006,14.484919547999997,-6.846798896789998,16.0
2018-09-11 18:24:33.700,0.190999881357,-0.100032731006,-0.889473901541,-0.0872631892562,0.0585115402937,-0.0428916141391,-2.3732093,0.61781895,7.40402075,0.0,-14.5102157593,13.7401838303,-6.9106502533,-0.0872631892562,0.0585115402937,-0.0428916141391,14.0599994659,-312.300689697,-162.773193359,-2.4057693481000015,-0.13077354429999843,0.7420465946199999,2.2598161697000005,14.510215759299996,-6.910650253299998,16.0
2018-09-11 18:24:33.750,0.190999881357,-0.100032731006,-0.889473901541,-0.0872631892562,0.0585115402937,-0.0428916141391,-2.3732093,0.61781895,7.40402075,0.0,-14.5102157593,13.7401838303,-6.9106502533,-0.0872631892562,0.0585115402937,-0.0428916141391,14.7299995422,-323.227294922,-161.344604492,-2.4057693481000015,-0.13077354429999843,0.8720464706500002,2.2202110290999997,14.569582939099996,-6.961377620699999,16.0
2018-09-11 18:24:33.800,0.190999881357,-0.100032731006,-0.889473901541,-0.0872631892562,0.0585115402937,-0.0428916141391,-2.3732093,0.61781895,7.40402075,0.0,-14.5102157593,13.7401838303,-6.9106502533,-0.0872631892562,0.0585115402937,-0.0428916141391,14.7299995422,-323.227294922,-161.344604492,-2.4057693481000015,-0.13077354429999843,0.8720464706500002,2.2202110290999997,14.569582939099996,-6.961377620699999,16.0
2018-09-11 18:24:33.850,0.192728967526,-0.101472088114,-0.885832553875,0.0288819726557,-0.0980214774609,0.0050239325501,-2.353596,-0.1372931,10.1008495,0.0,-14.5102157593,13.7401838303,-6.9106502533,-0.0872631892562,0.0585115402937,-0.0428916141391,15.4200000763,-323.227294922,-159.890609741,-3.3338890076,0.1352710724000019,0.9971305131899999,2.1025123596000004,14.665971755999996,-6.932466506959998,16.0
2018-09-11 18:24:33.900,0.192728967526,-0.101472088114,-0.885832553875,0.0288819726557,-0.0980214774609,0.0050239325501,-2.353596,-0.1372931,10.1008495,0.0,-14.5102157593,13.7401838303,-6.9106502533,-0.0872631892562,0.0585115402937,-0.0428916141391,15.4200000763,-323.227294922,-159.890609741,-3.3338890076,0.14527130129999932,1.0071305036600002,2.0531358719000004,14.728230476399997,-6.924983501429998,16.0
2018-09-11 18:24:33.950,0.192728967526,-0.101472088114,-0.885832553875,0.0288819726557,-0.0980214774609,0.0050239325501,-2.353596,-0.1372931,10.1008495,0.0,-14.7732477188,13.9970064163,-6.89096403122,0.0288819726557,-0.0980214774609,0.0050239325501,16.109998703,-335.26763916,-158.436676025,-3.3338890076,0.14527130129999932,1.02713048458,2.0312643051000006,14.751075744599996,-6.912461757659998,16.0
2018-09-11 18:24:34.000,0.192728967526,-0.101472088114,-0.885832553875,0.0288819726557,-0.0980214774609,0.0050239325501,-2.353596,-0.1372931,10.1008495,0.0,-14.7732477188,13.9970064163,-6.89096403122,0.0288819726557,-0.0980214774609,0.0050239325501,16.109998703,-335.26763916,-158.436676025,-3.3338890076,0.14527130129999932,1.02713048458,1.9371242523000003,14.808136939999997,-6.841173171999999,16.0
2018-09-11 18:24:34.050,0.192728967526,-0.101472088114,-0.885832553875,0.0288819726557,-0.0980214774609,0.0050239325501,-2.353596,-0.1372931,10.1008495,0.0,-14.7732477188,13.9970064163,-6.89096403122,0.0288819726557,-0.0980214774609,0.0050239325501,16.7899990082,-335.26763916,-156.965835571,-3.3338890076,0.16527175899999946,0.8571306467100002,1.8764743804999995,14.834573745699997,-6.803421497339998,16.0
2018-09-11 18:24:34.100,0.192728967526,-0.101472088114,-0.885832553875,0.0288819726557,-0.0980214774609,0.0050239325501,-2.353596,-0.1372931,10.1008495,0.0,-14.7732477188,13.9970064163,-6.89096403122,0.0288819726557,-0.0980214774609,0.0050239325501,16.7899990082,-335.26763916,-156.965835571,-3.3338890076,0.21527099609999922,0.8571306467100002,1.7874011992999996,14.897928237899997,-6.755555152889999,16.0
2018-09-11 18:24:34.150,0.192728967526,-0.101472088114,-0.885832553875,0.0288819726557,-0.0980214774609,0.0050239325501,-2.353596,-0.1372931,10.1008495,0.0,-14.7732477188,13.9970064163,-6.89096403122,0.0288819726557,-0.0980214774609,0.0050239325501,17.4599990845,-368.203369141,-155.494888306,-3.3338890076,0.9452705383000009,0.7271305322700001,1.7418336867999997,14.936315536499997,-6.724296092989999,16.0
2018-09-11 18:24:34.200,0.192728967526,-0.101472088114,-0.885832553875,0.0288819726557,-0.0980214774609,0.0050239325501,-2.353596,-0.1372931,10.1008495,0.0,-14.7732477188,13.9970064163,-6.89096403122,0.0288819726557,-0.0980214774609,0.0050239325501,17.4599990845,-368.203369141,-155.494888306,-3.3338890076,0.9452705383000009,0.7271305322700001,1.7418336867999997,14.936315536499997,-6.724296092989999,16.0
2018-09-11 18:24:34.250,0.163518435616,-0.118115849539,-0.893054100999,-0.130899474025,-0.0745172053576,0.076701015234,-2.44185585,0.6472389,10.7677017,0.0,-14.9860582352,14.3362054825,-6.65759897232,0.0288819726557,-0.0980214774609,0.0050239325501,18.1199989319,-368.203369141,-154.007141113,-3.3338890076,3.1852722168000014,0.6071306467099999,1.6409835815000005,15.001300811799997,-6.628389835359998,16.0
2018-09-11 18:24:34.300,0.163518435616,-0.118115849539,-0.893054100999,-0.130899474025,-0.0745172053576,0.076701015234,-2.44185585,0.6472389,10.7677017,0.0,-14.9860582352,14.3362054825,-6.65759897232,0.0288819726557,-0.0980214774609,0.0050239325501,18.1199989319,-368.203369141,-154.007141113,-1.4943580627000017,0.8325576782000006,-2.9520957469899995,1.5674562454000007,15.078453063999996,-6.534110069269998,16.0
2018-09-11 18:24:34.350,0.163518435616,-0.118115849539,-0.893054100999,-0.130899474025,-0.0745172053576,0.076701015234,-2.44185585,0.6472389,10.7677017,0.0,-14.9860582352,14.3362054825,-6.65759897232,0.0288819726557,-0.0980214774609,0.0050239325501,18.7700004578,-397.657012939,-152.510955811,-1.4943580627000017,2.9725570678000004,-2.9620958566699995,1.5624628066999993,15.096909522999997,-6.543782234189998,16.0
2018-09-11 18:24:34.400,0.163518435616,-0.118115849539,-0.893054100999,-0.130899474025,-0.0745172053576,0.076701015234,-2.44185585,0.6472389,10.7677017,0.0,-14.9860582352,14.3362054825,-6.65759897232,0.0288819726557,-0.0980214774609,0.0050239325501,18.7700004578,-397.657012939,-152.510955811,-1.4943580627000017,2.9725570678000004,-2.9620958566699995,1.5624628066999993,15.096909522999997,-6.543782234189998,16.0
2018-09-11 18:24:34.450,0.163518435616,-0.118115849539,-0.893054100999,-0.130899474025,-0.0745172053576,0.076701015234,-2.44185585,0.6472389,10.7677017,0.0,-14.9860582352,14.3362054825,-6.65759897232,0.0288819726557,-0.0980214774609,0.0050239325501,19.4200000763,-397.657012939,-151.006256104,-1.4943580627000017,5.282556533800001,-2.8420958518999995,1.5435476303000009,15.151319503799996,-6.681054592129998,16.0
2018-09-11 18:24:34.500,0.163518435616,-0.118115849539,-0.893054100999,-0.130899474025,-0.0745172053576,0.076701015234,-2.44185585,0.6472389,10.7677017,0.0,-15.1555557251,14.4608516693,-6.70908212662,-0.130899474025,-0.0745172053576,0.076701015234,19.4200000763,-397.657012939,-151.006256104,-1.4943580627000017,5.282556533800001,-2.8420958518999995,1.5435476303000009,15.151319503799996,-6.681054592129998,16.0
2018-09-11 18:24:34.550,0.163518435616,-0.118115849539,-0.893054100999,-0.130899474025,-0.0745172053576,0.076701015234,-2.44185585,0.6472389,10.7677017,0.0,-15.1555557251,14.4608516693,-6.70908212662,-0.130899474025,-0.0745172053576,0.076701015234,20.0699996948,-426.604858398,-149.501602173,-1.4943580627000017,7.602556228600001,-2.8020958900399995,1.5361051558999996,15.169758796699996,-6.820986270899998,16.0
2018-09-11 18:24:34.600,0.171542498807,-0.109328324013,-0.89326531884,0.0486430712044,-0.0135128907859,-0.0584454350173,-2.4712758,0.53936575,6.97252815,0.0,-15.1555557251,14.4608516693,-6.70908212662,-0.130899474025,-0.0745172053576,0.076701015234,20.0699996948,-426.604858398,-149.501602173,-1.4943580627000017,7.602556228600001,-2.8020958900399995,1.5439710617000006,15.185270309399996,-6.963289260859998,16.0
2018-09-11 18:24:34.650,0.171542498807,-0.109328324013,-0.89326531884,0.0486430712044,-0.0135128907859,-0.0584454350173,-2.4712758,0.53936575,6.97252815,0.0,-15.1555557251,14.4608516693,-6.70908212662,-0.130899474025,-0.0745172053576,0.076701015234,20.75,-426.604858398,-147.988418579,-1.5976982116999991,10.4710426331,-1.35483217239,1.5331563950000007,15.208283424399996,-7.032184123989998,16.0
2018-09-11 18:24:34.700,0.171542498807,-0.109328324013,-0.89326531884,0.0486430712044,-0.0135128907859,-0.0584454350173,-2.4712758,0.53936575,6.97252815,0.0,-15.235915184,14.4969110489,-7.05789089203,0.0486430712044,-0.0135128907859,-0.0584454350173,20.75,-426.604858398,-147.988418579,-1.5976982116999991,10.4710426331,-1.3448321819300002,1.5331563950000007,15.208283424399996,-7.032184123989998,16.0
2018-09-11 18:24:34.750,0.171542498807,-0.109328324013,-0.89326531884,0.0486430712044,-0.0135128907859,-0.0584454350173,-2.4712758,0.53936575,6.97252815,0.0,-15.235915184,14.4969110489,-7.05789089203,0.0486430712044,-0.0135128907859,-0.0584454350173,21.4499988556,-431.945983887,-146.475311279,-1.5976982116999991,12.8210430146,-1.3048322200700002,1.4866943358999993,15.247019767799996,-7.056217193599998,16.0
2018-09-11 18:24:34.800,0.171542498807,-0.109328324013,-0.89326531884,0.0486430712044,-0.0135128907859,-0.0584454350173,-2.4712758,0.53936575,6.97252815,0.0,-15.235915184,14.4969110489,-7.05789089203,0.0486430712044,-0.0135128907859,-0.0584454350173,21.4499988556,-431.945983887,-146.475311279,-1.5976982116999991,12.8210430146,-1.3048322200700002,1.4382925033999996,15.275625228899996,-7.016559123989998,16.0
2018-09-11 18:24:34.850,0.171542498807,-0.109328324013,-0.89326531884,0.0486430712044,-0.0135128907859,-0.0584454350173,-2.4712758,0.53936575,6.97252815,0.0,-15.235915184,14.4969110489,-7.05789089203,0.0486430712044,-0.0135128907859,-0.0584454350173,22.1499996185,-431.945983887,-144.953720093,-1.5976982116999991,15.05104255679,-1.45483231544,1.3694200516000006,15.328821182299997,-6.917653560639998,16.0
2018-09-11 18:24:34.900,0.171542498807,-0.109328324013,-0.89326531884,0.0486430712044,-0.0135128907859,-0.0584454350173,-2.4712758,0.53936575,6.97252815,0.0,-15.235915184,14.4969110489,-7.05789089203,0.0486430712044,-0.0135128907859,-0.0584454350173,22.1499996185,-431.945983887,-144.953720093,-1.5976982116999991,15.05104255679,-1.45483231544,1.3508043289000007,15.356959342999996,-6.8687467575099985,16.0
2018-09-11 18:24:34.950,0.171542498807,-0.109328324013,-0.89326531884,0.0486430712044,-0.0135128907859,-0.0584454350173,-2.4712758,0.53936575,6.97252815,0.0,-15.4165697098,14.7387180328,-6.69687652588,0.0486430712044,-0.0135128907859,-0.0584454350173,22.8299999237,-435.436248779,-143.423706055,-1.5976982116999991,17.091042518640002,-1.4848322868300001,1.2278308867999996,15.434339523299997,-6.640431880949998,16.0
2018-09-11 18:24:35.000,0.171542498807,-0.109328324013,-0.89326531884,0.0486430712044,-0.0135128907859,-0.0584454350173,-2.4712758,0.53936575,6.97252815,0.0,-15.4165697098,14.7387180328,-6.69687652588,0.0486430712044,-0.0135128907859,-0.0584454350173,22.8299999237,-435.436248779,-143.423706055,-1.5976982116999991,17.091042518640002,-1.4848322868300001,1.2278308867999996,15.434339523299997,-6.640431880949998,16.0
2018-09-11 18:24:35.050,0.139878084603,-0.0909756427156,-0.896400083861,0.00669585028663,-0.229736238718,0.00649819243699,-2.0397832,0.0980665,13.8077632,0.0,-15.4165697098,14.7387180328,-6.69687652588,0.0486430712044,-0.0135128907859,-0.0584454350173,23.4899997711,-435.436248779,-141.885147095,-1.5976982116999991,19.01104259493,-1.7048321962300002,1.0281076431000002,15.561308860799997,-6.1967029571499985,16.0
2018-09-11 18:24:35.100,0.139878084603,-0.0909756427156,-0.896400083861,0.00669585028663,-0.229736238718,0.00649819243699,-2.0397832,0.0980665,13.8077632,0.0,-15.4165697098,14.7387180328,-6.69687652588,0.0486430712044,-0.0135128907859,-0.0584454350173,23.4899997711,-435.436248779,-141.885147095,-2.7356643676999965,14.795248985329998,-1.01332342625,0.9702205658,15.601799964899996,-6.0208673477199985,16.0
2018-09-11 18:24:35.150,0.139878084603,-0.0909756427156,-0.896400083861,0.00669585028663,-0.229736238718,0.00649819243699,-2.0397832,0.0980665,13.8077632,0.0,-15.6468391418,15.101099968,-5.83865308762,0.00669585028663,-0.229736238718,0.00649819243699,24.0799999237,-469.968597412,-140.346679688,-2.7356643676999965,16.505248785059997,-1.1933233738,0.8989000320000002,15.646839141799996,-5.838653087619998,16.0
2018-09-11 18:24:35.200,0.139878084603,-0.0909756427156,-0.896400083861,0.00669585028663,-0.229736238718,0.00649819243699,-2.0397832,0.0980665,13.8077632,0.0,-15.6468391418,15.101099968,-5.83865308762,0.00669585028663,-0.229736238718,0.00649819243699,24.0799999237,-469.968597412,-140.346679688,-2.7356643676999965,16.505248785059997,-1.1933233738,0.8989000320000002,15.646839141799996,-5.838653087619998,16.0
2018-09-11 18:24:35.250,0.139878084603,-0.0909756427156,-0.896400083861,0.00669585028663,-0.229736238718,0.00649819243699,-2.0397832,0.0980665,13.8077632,0.0,-15.6468391418,15.101099968,-5.83865308762,0.00669585028663,-0.229736238718,0.00649819243699,24.6599998474,-469.968597412,-138.765960693,-2.7356643676999965,18.065248787446997,-1.3333234787,0.7496652603000005,15.771072387699997,-5.307818889619998,16.0
2018-09-11 18:24:35.300,0.139878084603,-0.0909756427156,-0.896400083861,0.00669585028663,-0.229736238718,0.00649819243699,-2.0397832,0.0980665,13.8077632,0.0,-15.6468391418,15.101099968,-5.83865308762,0.00669585028663,-0.229736238718,0.00649819243699,24.6599998474,-469.968597412,-138.765960693,-2.7356643676999965,18.065248787446997,-1.3333234787,0.7496652603000005,15.771072387699997,-5.307818889619998,16.0
2018-09-11 18:24:35.350,0.139878084603,-0.0909756427156,-0.896400083861,0.00669585028663,-0.229736238718,0.00649819243699,-2.0397832,0.0980665,13.8077632,0.0,-15.6468391418,15.101099968,-5.83865308762,0.00669585028663,-0.229736238718,0.00649819243699,24.6599998474,-469.968597412,-138.765960693,-2.7356643676999965,18.065248787446997,-1.3333234787,0.6445598601999993,15.861286163299997,-4.887084484099998,16.0
2018-09-11 18:24:35.400,0.139878084603,-0.0909756427156,-0.896400083861,0.00669585028663,-0.229736238718,0.00649819243699,-2.0397832,0.0980665,13.8077632,0.0,-15.6468391418,15.101099968,-5.83865308762,0.00669585028663,-0.229736238718,0.00649819243699,25.1499996185,-509.102233887,-137.202072144,-2.7356643676999965,19.405248791023997,-1.34332346916,0.5301237105999999,15.951674461399996,-4.516141414639998,16.0
2018-09-11 18:24:35.450,0.139878084603,-0.0909756427156,-0.896400083861,0.00669585028663,-0.229736238718,0.00649819243699,-2.0397832,0.0980665,13.8077632,0.0,-15.9716768265,15.4898891449,-4.4198923111,0.00669585028663,-0.229736238718,0.00649819243699,25.609998703,-509.102233887,-135.612884521,-2.7356643676999965,20.72524881367,-1.42332339287,0.46231079100000017,16.021080017099997,-4.214780807499999,16.0
2018-09-11 18:24:35.500,0.103618075902,-0.0641590658976,-0.906080922057,-0.189142689109,-0.203169375658,0.00385993998498,-1.34351105,0.06864655,14.1608026,0.0,-15.9716768265,15.4898891449,-4.4198923111,0.00669585028663,-0.229736238718,0.00649819243699,25.609998703,-509.102233887,-135.612884521,-1.9535140990999977,15.60259008407,-0.40662896633,0.4229621886999997,16.080480575599996,-3.9716198444399984,16.0
2018-09-11 18:24:35.550,0.103618075902,-0.0641590658976,-0.906080922057,-0.189142689109,-0.203169375658,0.00385993998498,-1.34351105,0.06864655,14.1608026,0.0,-15.9716768265,15.4898891449,-4.4198923111,0.00669585028663,-0.229736238718,0.00649819243699,26.0100002289,-547.458068848,-133.989868164,-1.9535140990999977,16.652590036390002,-0.3566290140099999,0.36139678960000055,16.135000228899997,-3.689208745959998,16.0
2018-09-11 18:24:35.600,0.103618075902,-0.0641590658976,-0.906080922057,-0.189142689109,-0.203169375658,0.00385993998498,-1.34351105,0.06864655,14.1608026,0.0,-15.9716768265,15.4898891449,-4.4198923111,0.00669585028663,-0.229736238718,0.00649819243699,26.0100002289,-547.458068848,-133.989868164,-1.9535140990999977,16.652590036390002,-0.3566290140099999,0.36139678960000055,16.135000228899997,-3.689208745959998,16.0
2018-09-11 18:24:35.650,0.103618075902,-0.0641590658976,-0.906080922057,-0.189142689109,-0.203169375658,0.00385993998498,-1.34351105,0.06864655,14.1608026,0.0,-15.9716768265,15.4898891449,-4.4198923111,0.00669585028663,-0.229736238718,0.00649819243699,26.3499984741,-547.458068848,-132.366867065,-1.9535140990999977,17.49258995056,-0.28662896155999995,0.22957706450000082,16.321334838899997,-2.873956441879998,16.0
2018-09-11 18:24:35.700,0.103618075902,-0.0641590658976,-0.906080922057,-0.189142689109,-0.203169375658,0.00385993998498,-1.34351105,0.06864655,14.1608026,0.0,-16.343208313,15.7894363403,-2.7540473938,-0.189142689109,-0.203169375658,0.00385993998498,26.3499984741,-547.458068848,-132.366867065,-1.9535140990999977,17.49258995056,-0.28662896155999995,0.22957706450000082,16.321334838899997,-2.873956441879998,16.0
2018-09-11 18:24:35.750,0.103618075902,-0.0641590658976,-0.906080922057,-0.189142689109,-0.203169375658,0.00385993998498,-1.34351105,0.06864655,14.1608026,0.0,-16.343208313,15.7894363403,-2.7540473938,-0.189142689109,-0.203169375658,0.00385993998498,26.3499984741,-547.458068848,-132.366867065,-1.9535140990999977,17.49258995056,-0.28662896155999995,0.19397068019999963,16.401676177999995,-2.4992370605499983,16.0
2018-09-11 18:24:35.800,0.103618075902,-0.0641590658976,-0.906080922057,-0.189142689109,-0.203169375658,0.00385993998498,-1.34351105,0.06864655,14.1608026,0.0,-16.343208313,15.7894363403,-2.7540473938,-0.189142689109,-0.203169375658,0.00385993998498,26.609998703,-573.485961914,-130.743881226,-1.9535140990999977,18.16259002685,0.03337097167999992,0.13549137120000054,16.531532287599997,-1.946398258209998,16.0
2018-09-11 18:24:35.850,0.103618075902,-0.0641590658976,-0.906080922057,-0.189142689109,-0.203169375658,0.00385993998498,-1.34351105,0.06864655,14.1608026,0.0,-16.343208313,15.7894363403,-2.7540473938,-0.189142689109,-0.203169375658,0.00385993998498,26.609998703,-573.485961914,-130.743881226,-1.9535140990999977,18.16259002685,0.03337097167999992,0.13549137120000054,16.531532287599997,-1.946398258209998,16.0
2018-09-11 18:24:35.900,0.103618075902,-0.0641590658976,-0.906080922057,-0.189142689109,-0.203169375658,0.00385993998498,-1.34351105,0.06864655,14.1608026,0.0,-16.6848602295,15.8874292374,-1.14710247517,-0.189142689109,-0.203169375658,0.00385993998498,26.8299999237,-573.485961914,-129.086975098,-1.9535140990999977,18.6725897789,0.34337103367,0.1196336745999993,16.665811538699998,-1.275060296059998,16.0
2018-09-11 18:24:35.950,0.0517052357044,-0.0273898867463,-0.9128082594,0.102218359709,-0.35483455658,-0.0100348517299,-0.6080123,0.1372931,16.36729885,0.0,-16.6848602295,15.8874292374,-1.14710247517,-0.189142689109,-0.203169375658,0.00385993998498,26.9599990845,-618.064880371,-127.413269043,-1.9535140990999977,19.00259017944,0.7733708620100002,0.10268402099999996,16.701105117799997,-1.007308006289998,16.0
2018-09-11 18:24:36.000,0.0517052357044,-0.0273898867463,-0.9128082594,0.102218359709,-0.35483455658,-0.0100348517299,-0.6080123,0.1372931,16.36729885,0.0,-16.6848602295,15.8874292374,-1.14710247517,-0.189142689109,-0.203169375658,0.00385993998498,26.9599990845,-618.064880371,-127.413269043,-1.738113403299998,11.82214355469,2.2165135145179997,0.08982372280000028,16.764192581199996,-0.44324064254799805,16.0
2018-09-11 18:24:36.050,0.0517052357044,-0.0273898867463,-0.9128082594,0.102218359709,-0.35483455658,-0.0100348517299,-0.6080123,0.1372931,16.36729885,0.0,-16.6848602295,15.8874292374,-1.14710247517,-0.189142689109,-0.203169375658,0.00385993998498,27.0399990082,-618.064880371,-125.731079102,-1.738113403299998,11.99214315415,2.426513314248,0.13405132289999955,16.799716949499995,-0.17407642304899804,16.0
2018-09-11 18:24:36.100,0.0517052357044,-0.0273898867463,-0.9128082594,0.102218359709,-0.35483455658,-0.0100348517299,-0.6080123,0.1372931,16.36729885,0.0,-16.6848602295,15.8874292374,-1.14710247517,-0.189142689109,-0.203169375658,0.00385993998498,27.0399990082,-618.064880371,-125.731079102,-1.738113403299998,11.99214315415,2.426513314248,0.13405132289999955,16.799716949499995,-0.17407642304899804,16.0
2018-09-11 18:24:36.150,0.0517052357044,-0.0273898867463,-0.9128082594,0.102218359709,-0.35483455658,-0.0100348517299,-0.6080123,0.1372931,16.36729885,0.0,-16.8065242767,15.8418550491,0.0630681887269,0.102218359709,-0.35483455658,-0.0100348517299,27.0499992371,-625.52722168,-124.040458679,-1.738113403299998,12.17214345932,2.806513428688,0.15814495090000058,16.806524276699996,0.06306818872690195,16.0
2018-09-11 18:24:36.200,0.0517052357044,-0.0273898867463,-0.9128082594,0.102218359709,-0.35483455658,-0.0100348517299,-0.6080123,0.1372931,16.36729885,0.0,-16.8065242767,15.8418550491,0.0630681887269,0.102218359709,-0.35483455658,-0.0100348517299,27.0499992371,-625.52722168,-124.040458679,-1.738113403299998,12.17214345932,2.806513428688,0.17842197420000083,16.807218551599995,0.33129453659100194,16.0
2018-09-11 18:24:36.250,0.0517052357044,-0.0273898867463,-0.9128082594,0.102218359709,-0.35483455658,-0.0100348517299,-0.6080123,0.1372931,16.36729885,0.0,-16.8065242767,15.8418550491,0.0630681887269,0.102218359709,-0.35483455658,-0.0100348517299,27.0499992371,-625.52722168,-124.040458679,-1.738113403299998,12.17214345932,2.806513428688,0.1826620101999996,16.801378250099997,0.40448689460800197,16.0
2018-09-11 18:24:36.300,0.0517052357044,-0.0273898867463,-0.9128082594,0.102218359709,-0.35483455658,-0.0100348517299,-0.6080123,0.1372931,16.36729885,0.0,-16.8065242767,15.8418550491,0.0630681887269,0.102218359709,-0.35483455658,-0.0100348517299,27.0299987793,-625.52722168,-122.349838257,-1.738113403299998,12.30214309693,2.916513323788,0.24354839319999932,16.758642196699995,0.697092115879002,16.0
2018-09-11 18:24:36.350,0.0517052357044,-0.0273898867463,-0.9128082594,0.102218359709,-0.35483455658,-0.0100348517299,-0.6080123,0.1372931,16.36729885,0.0,-16.8065242767,15.8418550491,0.0630681887269,0.102218359709,-0.35483455658,-0.0100348517299,27.0299987793,-625.52722168,-122.349838257,-1.738113403299998,12.30214309693,2.916513323788,0.24354839319999932,16.758642196699995,0.697092115879002,16.0
2018-09-11 18:24:36.400,0.00129345433117,-0.0218489308756,-0.914059768784,-0.0850805416703,-0.324901819229,0.0377097465098,-0.59820565,-0.04903325,13.0820711,0.0,-16.8065242767,15.8418550491,0.0630681887269,0.102218359709,-0.35483455658,-0.0100348517299,26.9699993134,-632.615478516,-120.676055908,-1.738113403299998,12.32214307785,2.986513495448,0.27527904509999956,16.709266662599997,1.074607491490002,16.0
2018-09-11 18:24:36.450,0.00129345433117,-0.0218489308756,-0.914059768784,-0.0850805416703,-0.324901819229,0.0377097465098,-0.59820565,-0.04903325,13.0820711,0.0,-16.6725158691,15.7147369385,1.3207950592,-0.0850805416703,-0.324901819229,0.0377097465098,26.8899993896,-632.615478516,-119.002357483,-1.7706069946000014,6.599528908730001,1.0604815483099999,0.3045434952000008,16.653636932399998,1.443799853320002,16.0
2018-09-11 18:24:36.500,0.00129345433117,-0.0218489308756,-0.914059768784,-0.0850805416703,-0.324901819229,0.0377097465098,-0.59820565,-0.04903325,13.0820711,0.0,-16.6725158691,15.7147369385,1.3207950592,-0.0850805416703,-0.324901819229,0.0377097465098,26.8899993896,-632.615478516,-119.002357483,-1.7706069946000014,6.599528908730001,1.0604815483099999,0.3754138946999994,16.607473373399998,1.817345619200002,16.0
2018-09-11 18:24:36.550,0.00129345433117,-0.0218489308756,-0.914059768784,-0.0850805416703,-0.324901819229,0.0377097465098,-0.59820565,-0.04903325,13.0820711,0.0,-16.6725158691,15.7147369385,1.3207950592,-0.0850805416703,-0.324901819229,0.0377097465098,26.7399997711,-627.79486084,-117.337043762,-1.7706069946000014,6.17952883243,1.21048140526,0.43291091919999936,16.586801528899997,2.051928520200002,16.0
2018-09-11 18:24:36.600,0.00129345433117,-0.0218489308756,-0.914059768784,-0.0850805416703,-0.324901819229,0.0377097465098,-0.59820565,-0.04903325,13.0820711,0.0,-16.5411987305,15.4333438873,2.51083016396,-0.0850805416703,-0.324901819229,0.0377097465098,26.7399997711,-627.79486084,-117.337043762,-1.7706069946000014,6.17952883243,1.21048140526,0.5323982238999996,16.552543640099998,2.396079540250002,16.0
2018-09-11 18:24:36.650,0.00129345433117,-0.0218489308756,-0.914059768784,-0.0850805416703,-0.324901819229,0.0377097465098,-0.59820565,-0.04903325,13.0820711,0.0,-16.5411987305,15.4333438873,2.51083016396,-0.0850805416703,-0.324901819229,0.0377097465098,26.5499992371,-627.79486084,-115.688697815,-1.7706069946000014,5.699528813360001,1.6104815006299997,0.6148386002000006,16.527784347499995,2.624798059460002,16.0
2018-09-11 18:24:36.700,0.00129345433117,-0.0218489308756,-0.914059768784,-0.0850805416703,-0.324901819229,0.0377097465098,-0.59820565,-0.04903325,13.0820711,0.0,-16.5411987305,15.4333438873,2.51083016396,-0.0850805416703,-0.324901819229,0.0377097465098,26.5499992371,-627.79486084,-115.688697815,-1.7706069946000014,5.699528813360001,1.6004815101699998,0.7654943466000006,16.499074213899874,2.990862846370002,16.0
2018-09-11 18:24:36.750,0.00129345433117,-0.0218489308756,-0.914059768784,-0.0850805416703,-0.324901819229,0.0377097465098,-0.59820565,-0.04903325,13.0820711,0.0,-16.5411987305,15.4333438873,2.51083016396,-0.0850805416703,-0.324901819229,0.0377097465098,26.2799987793,-603.7265625,-114.048728943,-1.7706069946000014,4.9895290136299995,2.33048152924,0.9130563735999999,16.465705149499875,3.357517242430002,16.0
