%time,field.orientation.x,field.orientation.y,field.orientation.z,field.angular_velocity.x,field.angular_velocity.y,field.angular_velocity.z,field.linear_acceleration.x,field.linear_acceleration.y,field.linear_acceleration.z,field.data,field.twist.linear.x,field.twist.linear.y,field.twist.linear.z,field.twist.angular.x,field.twist.angular.y,field.twist.angular.z,field.alt_error,field.aspd_error,field.xtrack_error,delta_yaw,delta_pitch,delta_roll,delta_x,delta_y,delta_z,delta_roll_airspeed
2018-10-18 15:07:47.200,,,,,,,,,,0.0,,,,,,,-0.0899999961257,-8.14428329468,-41.6295089722,174.2873687744,-2.5637795180090004,-3.71729803085,0.300246208906,12.4787054062,0.45916596055,15.0
2018-10-18 15:07:47.250,,,,,,,,,,0.0,,,,,,,-0.140000000596,-0.766468048096,-40.3772125244,174.2873687744,-2.133779451249,-1.8672979474040001,0.310413300991,12.4795389175,0.384222596884,15.0
2018-10-18 15:07:47.300,0.00579436164264,-0.0106051381883,-0.999807751717,-0.00241747824475,0.029004631564,0.0607017427683,-0.0392266,0.392266,7.32556755,0.0,,,,,,,-0.140000000596,-0.766468048096,-40.3772125244,174.2873687744,-2.133779451249,-1.8672979474040001,0.310413300991,12.4795389175,0.384222596884,15.0
2018-10-18 15:07:47.350,0.00579436164264,-0.0106051381883,-0.999807751717,-0.00241747824475,0.029004631564,0.0607017427683,-0.0392266,0.392266,7.32556755,0.0,,,,,,,-0.149999991059,-0.766468048096,-39.1333465576,175.23760223390002,-1.447361946104,-0.08494758605999997,16.344367146492,12.481638908399997,0.23230917751800198,15.0
2018-10-18 15:07:47.400,0.00579436164264,-0.0106051381883,-0.999807751717,-0.00241747824475,0.029004631564,0.0607017427683,-0.0392266,0.392266,7.32556755,0.0,-12.4702682495,-0.363324135542,0.207519724965,-0.00241747824475,0.029004631564,0.0607017427683,-0.149999991059,-0.766468048096,-39.1333465576,175.23760223390002,-1.447361946104,-0.08494758605999997,16.366833865643,12.476751327499997,0.16976290941200198,15.0
2018-10-18 15:07:47.450,0.00579436164264,-0.0106051381883,-0.999807751717,-0.00241747824475,0.029004631564,0.0607017427683,-0.0392266,0.392266,7.32556755,0.0,-12.4702682495,-0.363324135542,0.207519724965,-0.00241747824475,0.029004631564,0.0607017427683,-0.149999991059,-0.766468048096,-39.1333465576,175.23760223390002,-1.447361946104,-0.08494758605999997,16.401919871569,12.475975036599996,0.08227900415660196,16.0
2018-10-18 15:07:47.500,0.00579436164264,-0.0106051381883,-0.999807751717,-0.00241747824475,0.029004631564,0.0607017427683,-0.0392266,0.392266,7.32556755,0.0,-12.4702682495,-0.363324135542,0.207519724965,-0.00241747824475,0.029004631564,0.0607017427683,-0.119999997318,98.6003875732,-445.440917969,44.237602233900006,-3.177361965184,37.245053172069994,16.4402089715,12.473299026499996,-0.02289747074249804,16.0
2018-10-18 15:07:47.550,0.00579436164264,-0.0106051381883,-0.999807751717,-0.00241747824475,0.029004631564,0.0607017427683,-0.0392266,0.392266,7.32556755,0.0,-12.4702682495,-0.363324135542,0.207519724965,-0.00241747824475,0.029004631564,0.0607017427683,-0.119999997318,98.6003875732,-445.440917969,44.237602233900006,-3.177361965184,37.245053172069994,16.4402089715,12.473299026499996,-0.02289747074249804,16.0
2018-10-18 15:07:47.600,0.00579436164264,-0.0106051381883,-0.999807751717,-0.00241747824475,0.029004631564,0.0607017427683,-0.0392266,0.392266,7.32556755,0.0,-12.4689531326,-0.465924322605,-0.055863276124,-0.00241747824475,0.029004631564,0.0607017427683,-0.119999997318,98.6003875732,-445.440917969,44.237602233900006,-4.6073620319340005,37.34505164627,16.465924322605,12.468953132599996,-0.055863276123998044,16.0
2018-10-18 15:07:47.650,0.00579436164264,-0.0106051381883,-0.999807751717,-0.00241747824475,0.029004631564,0.0607017427683,-0.0392266,0.392266,7.32556755,0.0,-12.4689531326,-0.465924322605,-0.055863276124,-0.00241747824475,0.029004631564,0.0607017427683,-0.0899999961257,97.5534439087,-444.189819336,44.237602233900006,-5.977361917494,37.385052561769996,16.422662675381,12.476855277999997,-0.11690032482099805,16.0
2018-10-18 15:07:47.700,0.00579436164264,-0.0106051381883,-0.999807751717,-0.00241747824475,0.029004631564,0.0607017427683,-0.0392266,0.392266,7.32556755,0.0,-12.4689531326,-0.465924322605,-0.055863276124,-0.00241747824475,0.029004631564,0.0607017427683,-0.0899999961257,97.5534439087,-444.189819336,44.237602233900006,-5.967361688614,37.385052561769996,16.408109456301,12.470496177699996,-0.15046980977099803,16.0
2018-10-18 15:07:47.750,0.0127366904673,-0.127202063226,-0.991668163294,1.06621074677,0.0651099532843,-0.0761066228151,-0.20593965,0.42168595,9.7085835,0.0,-12.4689531326,-0.465924322605,-0.055863276124,-0.00241747824475,0.029004631564,0.0607017427683,-0.0499999970198,97.5534439087,-442.938751221,44.237602233900006,-7.257362127304,37.21505057807,16.318632721901,12.469318389899996,-0.20005042850999802,16.0
2018-10-18 15:07:47.800,0.0127366904673,-0.127202063226,-0.991668163294,1.06621074677,0.0651099532843,-0.0761066228151,-0.20593965,0.42168595,9.7085835,0.0,-12.4509382248,-0.218730598688,-0.275109171867,1.06621074677,0.0651099532843,-0.0761066228151,-0.0499999970198,97.5534439087,-442.938751221,44.3820114136,-6.241164803509999,23.8147850036,16.218730598688,12.450938224799996,-0.27510917186699807,16.0
2018-10-18 15:07:47.850,0.0127366904673,-0.127202063226,-0.991668163294,1.06621074677,0.0651099532843,-0.0761066228151,-0.20593965,0.42168595,9.7085835,0.0,-12.4509382248,-0.218730598688,-0.275109171867,1.06621074677,0.0651099532843,-0.0761066228151,0.0,160.663314819,-441.687683105,44.3820114136,-7.501164555549999,23.4047851562,16.0790476202965,12.443879127499997,-0.35609629750299804,16.0
2018-10-18 15:07:47.900,0.0127366904673,-0.127202063226,-0.991668163294,1.06621074677,0.0651099532843,-0.0761066228151,-0.20593965,0.42168595,9.7085835,0.0,-12.4509382248,-0.218730598688,-0.275109171867,1.06621074677,0.0651099532843,-0.0761066228151,0.0,160.663314819,-441.687683105,44.3820114136,-7.49116528034,23.39478302,16.0366034135222,12.432987213099997,-0.38722670078299803,16.0
2018-10-18 15:07:47.950,0.0127366904673,-0.127202063226,-0.991668163294,1.06621074677,0.0651099532843,-0.0761066228151,-0.20593965,0.42168595,9.7085835,0.0,-12.4509382248,-0.218730598688,-0.275109171867,1.06621074677,0.0651099532843,-0.0761066228151,0.0,160.663314819,-441.687683105,44.3820114136,-7.49116528034,23.39478302,16.0366034135222,12.432987213099997,-0.38722670078299803,16.0
2018-10-18 15:07:48.000,0.0127366904673,-0.127202063226,-0.991668163294,1.06621074677,0.0651099532843,-0.0761066228151,-0.20593965,0.42168595,9.7085835,0.0,-12.4509382248,-0.218730598688,-0.275109171867,1.06621074677,0.0651099532843,-0.0761066228151,0.070000000298,160.663314819,-440.43661499,44.3820114136,-8.73116505145,22.8147850036,15.765996322035999,12.398976325999996,-0.541468083857998,16.0
2018-10-18 15:07:48.050,0.0127366904673,-0.127202063226,-0.991668163294,1.06621074677,0.0651099532843,-0.0761066228151,-0.20593965,0.42168595,9.7085835,0.0,-12.3784036636,0.420482426882,-0.662083029747,1.06621074677,0.0651099532843,-0.0761066228151,0.140000000596,171.747406006,-439.185546875,44.3820114136,-10.011164784450001,22.094783782900002,15.579517573118,12.378403663599997,-0.662083029746998,16.0
2018-10-18 15:07:48.100,0.0127366904673,-0.127202063226,-0.991668163294,1.06621074677,0.0651099532843,-0.0761066228151,-0.20593965,0.42168595,9.7085835,0.0,-12.3784036636,0.420482426882,-0.662083029747,1.06621074677,0.0651099532843,-0.0761066228151,0.140000000596,171.747406006,-439.185546875,44.3820114136,-10.00116455555,22.084785461399996,15.463662087917,12.356361389199996,-0.751496672629998,16.0
2018-10-18 15:07:48.150,0.0220185788654,-0.255590494348,-0.965946391465,0.40443149209,0.049613289535,-0.145996376872,-0.6472389,0.83356525,8.26700595,0.0,-12.3784036636,0.420482426882,-0.662083029747,1.06621074677,0.0651099532843,-0.0761066228151,0.140000000596,171.747406006,-439.185546875,42.9067153931,-9.523470163379999,6.2808036804999965,15.463662087917,12.356361389199996,-0.751496672629998,16.0
2018-10-18 15:07:48.200,0.0220185788654,-0.255590494348,-0.965946391465,0.40443149209,0.049613289535,-0.145996376872,-0.6472389,0.83356525,8.26700595,0.0,-12.3784036636,0.420482426882,-0.662083029747,1.06621074677,0.0651099532843,-0.0761066228151,0.359999984503,187.924865723,-436.717224121,42.9067153931,-9.51346993448,6.260803222700002,15.071421086788,12.294214248699996,-1.042223572729998,16.0
2018-10-18 15:07:48.250,0.0220185788654,-0.255590494348,-0.965946391465,0.40443149209,0.049613289535,-0.145996376872,-0.6472389,0.83356525,8.26700595,0.0,-12.3784036636,0.420482426882,-0.662083029747,1.06621074677,0.0651099532843,-0.0761066228151,0.359999984503,187.924865723,-436.717224121,42.9067153931,-10.78347039218,5.3508033753,15.071421086788,12.294214248699996,-1.042223572729998,16.0
2018-10-18 15:07:48.300,0.0220185788654,-0.255590494348,-0.965946391465,0.40443149209,0.049613289535,-0.145996376872,-0.6472389,0.83356525,8.26700595,0.0,-12.3784036636,0.420482426882,-0.662083029747,1.06621074677,0.0651099532843,-0.0761066228151,0.359999984503,187.924865723,-436.717224121,42.9067153931,-10.78347039218,5.340805053699999,14.82203090191,12.250794410699996,-1.287592530249998,16.0
2018-10-18 15:07:48.350,0.0220185788654,-0.255590494348,-0.965946391465,0.40443149209,0.049613289535,-0.145996376872,-0.6472389,0.83356525,8.26700595,0.0,-12.22311306,1.31147408485,-1.39789164066,0.40443149209,0.049613289535,-0.145996376872,0.5,187.924865723,-435.491485596,42.9067153931,-12.003469705579999,4.390804290800002,14.61686849594,12.214439392099996,-1.462230920789998,16.0
2018-10-18 15:07:48.400,0.0220185788654,-0.255590494348,-0.965946391465,0.40443149209,0.049613289535,-0.145996376872,-0.6472389,0.83356525,8.26700595,0.0,-12.22311306,1.31147408485,-1.39789164066,0.40443149209,0.049613289535,-0.145996376872,0.5,187.924865723,-435.491485596,42.9067153931,-11.993470430379999,4.360805511500001,14.415809512140001,12.174679756199996,-1.627675533289998,16.0
2018-10-18 15:07:48.450,0.0220185788654,-0.255590494348,-0.965946391465,0.40443149209,0.049613289535,-0.145996376872,-0.6472389,0.83356525,8.26700595,0.0,-12.22311306,1.31147408485,-1.39789164066,0.40443149209,0.049613289535,-0.145996376872,0.669999957085,202.674957275,-434.282684326,42.9067153931,-13.21346974368,3.3508033753,14.27360534668,12.143951415999997,-1.760102987289998,16.0
2018-10-18 15:07:48.500,0.0220185788654,-0.255590494348,-0.965946391465,0.40443149209,0.049613289535,-0.145996376872,-0.6472389,0.83356525,8.26700595,0.0,-12.22311306,1.31147408485,-1.39789164066,0.40443149209,0.049613289535,-0.145996376872,0.669999957085,202.674957275,-434.282684326,42.9067153931,-13.21346974368,3.3508033753,14.27360534668,12.143951415999997,-1.760102987289998,16.0
2018-10-18 15:07:48.550,0.04533970588,-0.293149548626,-0.951874661379,-0.00444015488029,0.0789425969124,-0.26655203104,-0.99047165,0.73549875,7.9433865,0.0,-12.22311306,1.31147408485,-1.39789164066,0.40443149209,0.049613289535,-0.145996376872,0.879999995232,202.674957275,-433.06539917,42.9067153931,-14.35346913338,2.200805664099999,13.98378109932,12.089025497399996,-1.987641096119998,16.0
2018-10-18 15:07:48.600,0.04533970588,-0.293149548626,-0.951874661379,-0.00444015488029,0.0789425969124,-0.26655203104,-0.99047165,0.73549875,7.9433865,0.0,-12.0647201538,2.15475416183,-2.09798622131,-0.00444015488029,0.0789425969124,-0.26655203104,0.879999995232,202.674957275,-433.06539917,39.037307739300005,-10.223082542420002,-2.0742092131999996,13.77303862572,12.049811363199996,-2.1685054302199984,16.0
2018-10-18 15:07:48.650,0.04533970588,-0.293149548626,-0.951874661379,-0.00444015488029,0.0789425969124,-0.26655203104,-0.99047165,0.73549875,7.9433865,0.0,-12.0647201538,2.15475416183,-2.09798622131,-0.00444015488029,0.0789425969124,-0.26655203104,1.10000002384,223.523712158,-431.865081787,39.037307739300005,-11.31308269502,-3.2542095183999997,13.51145815849,11.986352920499996,-2.4265165328999982,16.0
2018-10-18 15:07:48.700,0.04533970588,-0.293149548626,-0.951874661379,-0.00444015488029,0.0789425969124,-0.26655203104,-0.99047165,0.73549875,7.9433865,0.0,-12.0647201538,2.15475416183,-2.09798622131,-0.00444015488029,0.0789425969124,-0.26655203104,1.10000002384,223.523712158,-431.865081787,39.037307739300005,-11.31308269502,-3.2542095183999997,13.51145815849,11.986352920499996,-2.4265165328999982,16.0
2018-10-18 15:07:48.750,0.04533970588,-0.293149548626,-0.951874661379,-0.00444015488029,0.0789425969124,-0.26655203104,-0.99047165,0.73549875,7.9433865,0.0,-12.0647201538,2.15475416183,-2.09798622131,-0.00444015488029,0.0789425969124,-0.26655203104,1.36000001431,223.523712158,-430.673187256,39.037307739300005,-12.29308414462,-4.424209594699999,13.26148343086,11.920966148399996,-2.7149782180799984,16.0
2018-10-18 15:07:48.800,0.04533970588,-0.293149548626,-0.951874661379,-0.00444015488029,0.0789425969124,-0.26655203104,-0.99047165,0.73549875,7.9433865,0.0,-11.8909692764,2.85958266258,-2.84445500374,-0.00444015488029,0.0789425969124,-0.26655203104,1.36000001431,223.523712158,-430.673187256,39.037307739300005,-12.29308414462,-4.424209594699999,13.20338320732,11.907073020899997,-2.7817916870099983,16.0
2018-10-18 15:07:48.850,0.04533970588,-0.293149548626,-0.951874661379,-0.00444015488029,0.0789425969124,-0.26655203104,-0.99047165,0.73549875,7.9433865,0.0,-11.8909692764,2.85958266258,-2.84445500374,-0.00444015488029,0.0789425969124,-0.26655203104,1.64999997616,237.197296143,-429.489746094,39.037307739300005,-13.203083992020002,-5.5242080688,13.00732946396,11.857472419699997,-2.9825437068899983,16.0
2018-10-18 15:07:48.900,0.04533970588,-0.293149548626,-0.951874661379,-0.00444015488029,0.0789425969124,-0.26655203104,-0.99047165,0.73549875,7.9433865,0.0,-11.8909692764,2.85958266258,-2.84445500374,-0.00444015488029,0.0789425969124,-0.26655203104,1.64999997616,237.197296143,-429.489746094,39.037307739300005,-13.213084220919999,-5.614208221399998,12.814185619349999,11.802603721599997,-3.182083368299998,16.0
2018-10-18 15:07:48.950,0.0722268769522,-0.28880458919,-0.946484733135,-0.0412795469165,0.0626045316458,-0.294464528561,-1.2748645,0.6080123,7.4334407,0.0,-11.8909692764,2.85958266258,-2.84445500374,-0.00444015488029,0.0789425969124,-0.26655203104,1.9699999094,237.197296143,-428.339996338,34.5421295166,-8.971944808999998,-5.7343196868999975,12.62978935242,11.750731468199996,-3.376015424729998,16.0
2018-10-18 15:07:49.000,0.0722268769522,-0.28880458919,-0.946484733135,-0.0412795469165,0.0626045316458,-0.294464528561,-1.2748645,0.6080123,7.4334407,0.0,-11.8909692764,2.85958266258,-2.84445500374,-0.00444015488029,0.0789425969124,-0.26655203104,2.31999993324,253.799438477,-427.181945801,34.5421295166,-9.0719432831,-5.804319381699997,12.44055461884,11.696694374099996,-3.566047430039998,16.0
2018-10-18 15:07:49.050,0.0722268769522,-0.28880458919,-0.946484733135,-0.0412795469165,0.0626045316458,-0.294464528561,-1.2748645,0.6080123,7.4334407,0.0,-11.6781435013,3.6260137558,-3.6295003891,-0.0412795469165,0.0626045316458,-0.294464528561,2.31999993324,253.799438477,-427.181945801,34.5421295166,-9.1519432068,-6.964319229099996,12.30980753899,11.659833908099996,-3.6938562393199983,16.0
2018-10-18 15:07:49.100,0.0722268769522,-0.28880458919,-0.946484733135,-0.0412795469165,0.0626045316458,-0.294464528561,-1.2748645,0.6080123,7.4334407,0.0,-11.6781435013,3.6260137558,-3.6295003891,-0.0412795469165,0.0626045316458,-0.294464528561,2.31999993324,253.799438477,-427.181945801,34.5421295166,-9.241943359399999,-7.004320144599998,12.18894267082,11.622436523399996,-3.8267877101899983,16.0
2018-10-18 15:07:49.150,0.0722268769522,-0.28880458919,-0.946484733135,-0.0412795469165,0.0626045316458,-0.294464528561,-1.2748645,0.6080123,7.4334407,0.0,-11.6781435013,3.6260137558,-3.6295003891,-0.0412795469165,0.0626045316458,-0.294464528561,2.72000002861,253.799438477,-426.023864746,34.5421295166,-9.3819446564,-8.224319457999997,12.00871491432,11.571029663099996,-4.0204730033899985,16.0
2018-10-18 15:07:49.200,0.0722268769522,-0.28880458919,-0.946484733135,-0.0412795469165,0.0626045316458,-0.294464528561,-1.2748645,0.6080123,7.4334407,0.0,-11.6781435013,3.6260137558,-3.6295003891,-0.0412795469165,0.0626045316458,-0.294464528561,2.72000002861,253.799438477,-426.023864746,34.5421295166,-9.521944046,-8.284320831299997,12.00871491432,11.571029663099996,-4.0204730033899985,16.0
2018-10-18 15:07:49.250,0.0722268769522,-0.28880458919,-0.946484733135,-0.0412795469165,0.0626045316458,-0.294464528561,-1.2748645,0.6080123,7.4334407,0.0,-11.6781435013,3.6260137558,-3.6295003891,-0.0412795469165,0.0626045316458,-0.294464528561,2.72000002861,253.799438477,-426.023864746,34.5421295166,-9.521944046,-8.284320831299997,11.81991481781,11.519714355499996,-4.195790767669998,16.0
2018-10-18 15:07:49.300,0.0722268769522,-0.28880458919,-0.946484733135,-0.0412795469165,0.0626045316458,-0.294464528561,-1.2748645,0.6080123,7.4334407,0.0,-11.4261550903,4.49712467194,-4.48195028305,-0.0412795469165,0.0626045316458,-0.294464528561,3.12999987602,229.557510376,-424.891113281,34.5421295166,-9.741943359399999,-9.494319915799995,11.50287532806,11.426155090299996,-4.481950283049998,16.0
2018-10-18 15:07:49.350,0.098030322847,-0.263922636273,-0.944739862086,-0.128956913948,0.0714182406664,-0.214877694845,-1.8240369,-0.00980665,7.52170055,0.0,-11.4261550903,4.49712467194,-4.48195028305,-0.0412795469165,0.0626045316458,-0.294464528561,3.56999993324,229.557510376,-423.758392334,29.9713516235,-5.9753770828,-6.9744186402,11.38255977631,11.392547607399996,-4.594037055969999,16.0
2018-10-18 15:07:49.400,0.098030322847,-0.263922636273,-0.944739862086,-0.128956913948,0.0714182406664,-0.214877694845,-1.8240369,-0.00980665,7.52170055,0.0,-11.4261550903,4.49712467194,-4.48195028305,-0.0412795469165,0.0626045316458,-0.294464528561,3.56999993324,229.557510376,-423.758392334,29.9713516235,-6.0553770065000005,-7.014419555699998,11.20297002792,11.347345352199996,-4.730072498319998,16.0
2018-10-18 15:07:49.450,0.098030322847,-0.263922636273,-0.944739862086,-0.128956913948,0.0714182406664,-0.214877694845,-1.8240369,-0.00980665,7.52170055,0.0,-11.4261550903,4.49712467194,-4.48195028305,-0.0412795469165,0.0626045316458,-0.294464528561,3.56999993324,229.557510376,-423.758392334,29.9713516235,-6.0553770065000005,-7.014419555699998,11.20297002792,11.347345352199996,-4.730072498319998,16.0
2018-10-18 15:07:49.500,0.098030322847,-0.263922636273,-0.944739862086,-0.128956913948,0.0714182406664,-0.214877694845,-1.8240369,-0.00980665,7.52170055,0.0,-11.4261550903,4.49712467194,-4.48195028305,-0.0412795469165,0.0626045316458,-0.294464528561,4.03999996185,239.251419067,-422.642364502,29.9713516235,-6.255377769400001,-8.204418182399998,11.02703380585,11.308563232399996,-4.856575012209999,16.0
2018-10-18 15:07:49.550,0.098030322847,-0.263922636273,-0.944739862086,-0.128956913948,0.0714182406664,-0.214877694845,-1.8240369,-0.00980665,7.52170055,0.0,-11.2647399902,5.14323377609,-4.99148607254,-0.128956913948,0.0714182406664,-0.214877694845,4.53999996185,239.251419067,-421.53503418,29.9713516235,-6.415377616799999,-9.324419021699999,10.79961681366,11.247068405199997,-5.0473647117599985,16.0
2018-10-18 15:07:49.600,0.098030322847,-0.263922636273,-0.944739862086,-0.128956913948,0.0714182406664,-0.214877694845,-1.8240369,-0.00980665,7.52170055,0.0,-11.2647399902,5.14323377609,-4.99148607254,-0.128956913948,0.0714182406664,-0.214877694845,4.53999996185,239.251419067,-421.53503418,29.9713516235,-6.4953775405,-9.3644180298,10.68824529648,11.213043212899997,-5.158845424649998,16.0
2018-10-18 15:07:49.650,0.098030322847,-0.263922636273,-0.944739862086,-0.128956913948,0.0714182406664,-0.214877694845,-1.8240369,-0.00980665,7.52170055,0.0,-11.2647399902,5.14323377609,-4.99148607254,-0.128956913948,0.0714182406664,-0.214877694845,5.0499997139,243.911651611,-420.436126709,29.9713516235,-6.615378379800001,-10.4944190979,10.55265903473,11.171482086199996,-5.321955204009998,16.0
2018-10-18 15:07:49.700,0.098030322847,-0.263922636273,-0.944739862086,-0.128956913948,0.0714182406664,-0.214877694845,-1.8240369,-0.00980665,7.52170055,0.0,-11.2647399902,5.14323377609,-4.99148607254,-0.128956913948,0.0714182406664,-0.214877694845,5.0499997139,243.911651611,-420.436126709,29.9713516235,-6.705378532399999,-10.524417877199998,10.46278476715,11.143358230599997,-5.430682182309998,16.0
2018-10-18 15:07:49.750,0.098030322847,-0.263922636273,-0.944739862086,-0.128956913948,0.0714182406664,-0.214877694845,-1.8240369,-0.00980665,7.52170055,0.0,-11.1005334854,5.68235778809,-5.59557676315,-0.128956913948,0.0714182406664,-0.214877694845,5.59999990463,243.911651611,-419.337188721,29.9713516235,-6.825377464299999,-11.484418869099997,10.36172008514,11.112984657299997,-5.5470600128199985,16.0
2018-10-18 15:07:49.800,0.098030322847,-0.263922636273,-0.944739862086,-0.128956913948,0.0714182406664,-0.214877694845,-1.8240369,-0.00980665,7.52170055,0.0,-11.1005334854,5.68235778809,-5.59557676315,-0.128956913948,0.0714182406664,-0.214877694845,5.59999990463,243.911651611,-419.337188721,29.9713516235,-7.005377769400001,-11.524417877199998,10.18177366257,11.067710876499996,-5.735909938809998,16.0
2018-10-18 15:07:49.850,0.126985848827,-0.22422350009,-0.942647761878,-0.123098865151,0.0198955852538,-0.204147383571,-1.95152335,0.784532,7.85512665,0.0,-11.1005334854,5.68235778809,-5.59557676315,-0.128956913948,0.0714182406664,-0.214877694845,6.17000007629,248.155303955,-418.246734619,29.9713516235,-7.0453767776,-12.4444179535,10.1306552887,11.054401397699996,-5.781975269319998,16.0
2018-10-18 15:07:49.900,0.126985848827,-0.22422350009,-0.942647761878,-0.123098865151,0.0198955852538,-0.204147383571,-1.95152335,0.784532,7.85512665,0.0,-11.1005334854,5.68235778809,-5.59557676315,-0.128956913948,0.0714182406664,-0.214877694845,6.17000007629,248.155303955,-418.246734619,24.652633667000003,-3.4648113251000012,-6.541452407800001,10.02926301956,11.024329185499996,-5.892598152159998,16.0
2018-10-18 15:07:49.950,0.126985848827,-0.22422350009,-0.942647761878,-0.123098865151,0.0198955852538,-0.204147383571,-1.95152335,0.784532,7.85512665,0.0,-11.1005334854,5.68235778809,-5.59557676315,-0.128956913948,0.0714182406664,-0.214877694845,6.75999975204,248.155303955,-417.164733887,24.652633667000003,-3.564809799199999,-7.501452445900002,9.90613174438,10.992892265299997,-6.0384998321499985,16.0
2018-10-18 15:07:50.000,0.126985848827,-0.22422350009,-0.942647761878,-0.123098865151,0.0198955852538,-0.204147383571,-1.95152335,0.784532,7.85512665,0.0,-10.9546365738,6.28544330597,-6.18560791016,-0.123098865151,0.0198955852538,-0.204147383571,6.75999975204,248.155303955,-417.164733887,24.652633667000003,-3.744810104399999,-7.531453132600001,9.71455669403,10.954636573799997,-6.185607910159998,16.0
2018-10-18 15:07:50.050,0.126985848827,-0.22422350009,-0.942647761878,-0.123098865151,0.0198955852538,-0.204147383571,-1.95152335,0.784532,7.85512665,0.0,-10.9546365738,6.28544330597,-6.18560791016,-0.123098865151,0.0198955852538,-0.204147383571,7.3799996376,233.064086914,-416.091156006,24.652633667000003,-3.8948097229,-8.441452980000001,9.71455669403,10.954636573799997,-6.185607910159998,16.0
2018-10-18 15:07:50.100,0.126985848827,-0.22422350009,-0.942647761878,-0.123098865151,0.0198955852538,-0.204147383571,-1.95152335,0.784532,7.85512665,0.0,-10.9546365738,6.28544330597,-6.18560791016,-0.123098865151,0.0198955852538,-0.204147383571,7.3799996376,233.064086914,-416.091156006,24.652633667000003,-3.8948097229,-8.441452980000001,9.499459743500001,10.950198173499997,-6.229565620419998,16.0
2018-10-18 15:07:50.150,0.126985848827,-0.22422350009,-0.942647761878,-0.123098865151,0.0198955852538,-0.204147383571,-1.95152335,0.784532,7.85512665,0.0,-10.9546365738,6.28544330597,-6.18560791016,-0.123098865151,0.0198955852538,-0.204147383571,8.01000022888,233.064086914,-415.008972168,24.652633667000003,-4.114810943600002,-9.341452598500002,9.35504627228,10.948446273799997,-6.276552677149998,16.0
2018-10-18 15:07:50.200,0.140147762141,-0.190418481721,-0.943043370933,-0.29193392396,0.0110000269487,-0.166220605373,-2.0397832,0.59820565,9.9439431,0.0,-10.947845459,6.79486656189,-6.30342912674,-0.29193392396,0.0110000269487,-0.166220605373,8.01000022888,233.064086914,-415.008972168,21.493499755900004,-3.041095733599999,-4.588683128300001,9.25819063187,10.948272705099997,-6.2965536117599985,16.0
2018-10-18 15:07:50.250,0.140147762141,-0.190418481721,-0.943043370933,-0.29193392396,0.0110000269487,-0.166220605373,-2.0397832,0.59820565,9.9439431,0.0,-10.947845459,6.79486656189,-6.30342912674,-0.29193392396,0.0110000269487,-0.166220605373,8.64999961853,232.008651733,-413.935424805,21.493499755900004,-2.8510951995999996,-5.378683090200001,9.113746166230001,10.946228027299997,-6.329499244689998,16.0
2018-10-18 15:07:50.300,0.140147762141,-0.190418481721,-0.943043370933,-0.29193392396,0.0110000269487,-0.166220605373,-2.0397832,0.59820565,9.9439431,0.0,-10.947845459,6.79486656189,-6.30342912674,-0.29193392396,0.0110000269487,-0.166220605373,8.64999961853,232.008651733,-413.935424805,21.493499755900004,-2.8510951995999996,-5.398683548000001,9.03628396988,10.954257011399996,-6.349802494049999,16.0
2018-10-18 15:07:50.350,0.140147762141,-0.190418481721,-0.943043370933,-0.29193392396,0.0110000269487,-0.166220605373,-2.0397832,0.59820565,9.9439431,0.0,-10.947845459,6.79486656189,-6.30342912674,-0.29193392396,0.0110000269487,-0.166220605373,9.28999996185,232.008651733,-412.861846924,21.493499755900004,-2.641096115099998,-6.058683395400001,8.91365814209,10.958709716799996,-6.393726825709998,16.0
2018-10-18 15:07:50.400,0.140147762141,-0.190418481721,-0.943043370933,-0.29193392396,0.0110000269487,-0.166220605373,-2.0397832,0.59820565,9.9439431,0.0,-10.947845459,6.79486656189,-6.30342912674,-0.29193392396,0.0110000269487,-0.166220605373,9.28999996185,232.008651733,-412.861846924,21.493499755900004,-2.641096115099998,-6.0786828995,8.80946540833,10.978961944599996,-6.4251494407699985,16.0
2018-10-18 15:07:50.450,0.140147762141,-0.190418481721,-0.943043370933,-0.29193392396,0.0110000269487,-0.166220605373,-2.0397832,0.59820565,9.9439431,0.0,-10.9873390198,7.31023836136,-6.46182727814,-0.29193392396,0.0110000269487,-0.166220605373,9.93999958038,212.024978638,-411.779846191,21.493499755900004,-2.3810958862000007,-6.618682861300002,8.68976163864,10.987339019799997,-6.461827278139999,16.0
2018-10-18 15:07:50.500,0.140147762141,-0.190418481721,-0.943043370933,-0.29193392396,0.0110000269487,-0.166220605373,-2.0397832,0.59820565,9.9439431,0.0,-10.9873390198,7.31023836136,-6.46182727814,-0.29193392396,0.0110000269487,-0.166220605373,9.93999958038,212.024978638,-411.779846191,21.493499755900004,-2.391096115099998,-6.628683090200001,8.65517425537,10.990948677099997,-6.478635787959998,16.0
2018-10-18 15:07:50.550,0.140147762141,-0.190418481721,-0.943043370933,-0.29193392396,0.0110000269487,-0.166220605373,-2.0397832,0.59820565,9.9439431,0.0,-10.9873390198,7.31023836136,-6.46182727814,-0.29193392396,0.0110000269487,-0.166220605373,9.93999958038,212.024978638,-411.779846191,21.493499755900004,-2.391096115099998,-7.178683280900001,8.65517425537,10.990948677099997,-6.478635787959998,16.0
2018-10-18 15:07:50.600,0.15758750485,-0.15229990864,-0.940055414708,-0.0961305350065,0.0105521995574,-0.168176576495,-2.20649625,0.9218251,9.0417313,0.0,-10.9873390198,7.31023836136,-6.46182727814,-0.29193392396,0.0110000269487,-0.166220605373,10.5999994278,212.024978638,-410.697814941,21.493499755900004,-2.1010951995999996,-7.178683280900001,8.47705221176,11.014019966099996,-6.538944721219998,16.0
2018-10-18 15:07:50.650,0.15758750485,-0.15229990864,-0.940055414708,-0.0961305350065,0.0105521995574,-0.168176576495,-2.20649625,0.9218251,9.0417313,0.0,-10.9873390198,7.31023836136,-6.46182727814,-0.29193392396,0.0110000269487,-0.166220605373,11.25,194.876678467,-409.641113281,17.4252510071,-0.4420566559000001,-2.1268882751000007,8.37666702271,11.036796569799996,-6.5639843940699985,16.0
2018-10-18 15:07:50.700,0.15758750485,-0.15229990864,-0.940055414708,-0.0961305350065,0.0105521995574,-0.168176576495,-2.20649625,0.9218251,9.0417313,0.0,-10.9873390198,7.31023836136,-6.46182727814,-0.29193392396,0.0110000269487,-0.166220605373,11.25,194.876678467,-409.641113281,17.4252510071,-0.4420566559000001,-2.1268882751000007,8.37666702271,11.036796569799996,-6.5639843940699985,16.0
2018-10-18 15:07:50.750,0.15758750485,-0.15229990864,-0.940055414708,-0.0961305350065,0.0105521995574,-0.168176576495,-2.20649625,0.9218251,9.0417313,0.0,-11.0510950089,7.73510074615,-6.59614753723,-0.0961305350065,0.0105521995574,-0.168176576495,11.9200000763,194.876678467,-408.550689697,17.4252510071,-0.10205841069999977,-2.6268882751000007,8.19694232941,11.066321372999996,-6.617918491359998,16.0
2018-10-18 15:07:50.800,0.15758750485,-0.15229990864,-0.940055414708,-0.0961305350065,0.0105521995574,-0.168176576495,-2.20649625,0.9218251,9.0417313,0.0,-11.0510950089,7.73510074615,-6.59614753723,-0.0961305350065,0.0105521995574,-0.168176576495,11.9200000763,194.876678467,-408.550689697,17.4252510071,-0.10205841069999977,-2.6268882751000007,8.129829883580001,11.085105895999996,-6.628169536589998,16.0
2018-10-18 15:07:50.850,0.162353329531,-0.14239890961,-0.936229534169,0.000225169584155,-0.0124994572252,-0.117955900729,-2.2359162,0.22555295,9.52225715,0.0,-11.0510950089,7.73510074615,-6.59614753723,-0.0961305350065,0.0105521995574,-0.168176576495,12.5900001526,176.772018433,-407.460205078,17.4252510071,0.25794219970000043,-3.066888809170001,8.01594257355,11.095309257499997,-6.655973434449998,16.0
2018-10-18 15:07:50.900,0.162353329531,-0.14239890961,-0.936229534169,0.000225169584155,-0.0124994572252,-0.117955900729,-2.2359162,0.22555295,9.52225715,0.0,-11.0510950089,7.73510074615,-6.59614753723,-0.0961305350065,0.0105521995574,-0.168176576495,12.5900001526,176.772018433,-407.460205078,15.2150268555,0.6962280274000001,-1.3630361556899988,7.91763591766,11.113421440099996,-6.685560703279998,16.0
2018-10-18 15:07:50.950,0.162353329531,-0.14239890961,-0.936229534169,0.000225169584155,-0.0124994572252,-0.117955900729,-2.2359162,0.22555295,9.52225715,0.0,-11.1154279709,8.19666004181,-6.72426128387,0.000225169584155,-0.0124994572252,-0.117955900729,13.2699995041,176.772018433,-406.369537354,15.2150268555,1.086227417,-1.8630361556899988,7.841869354250001,11.116030693099997,-6.707124710079999,16.0
2018-10-18 15:07:51.000,0.162353329531,-0.14239890961,-0.936229534169,0.000225169584155,-0.0124994572252,-0.117955900729,-2.2359162,0.22555295,9.52225715,0.0,-11.1154279709,8.19666004181,-6.72426128387,0.000225169584155,-0.0124994572252,-0.117955900729,13.2699995041,176.772018433,-406.369537354,15.2150268555,1.086227417,-1.8530359268099996,7.767294883730001,11.115057945299997,-6.741634845729998,16.0
2018-10-18 15:07:51.050,0.162353329531,-0.14239890961,-0.936229534169,0.000225169584155,-0.0124994572252,-0.117955900729,-2.2359162,0.22555295,9.52225715,0.0,-11.1154279709,8.19666004181,-6.72426128387,0.000225169584155,-0.0124994572252,-0.117955900729,13.9600000381,176.701644897,-405.27911377,15.2150268555,1.5162277222,-2.4330358505100005,7.767294883730001,11.115057945299997,-6.741634845729998,16.0
2018-10-18 15:07:51.100,0.162353329531,-0.14239890961,-0.936229534169,0.000225169584155,-0.0124994572252,-0.117955900729,-2.2359162,0.22555295,9.52225715,0.0,-11.1154279709,8.19666004181,-6.72426128387,0.000225169584155,-0.0124994572252,-0.117955900729,13.9600000381,176.701644897,-405.27911377,15.2150268555,1.5162277222,-2.4230365752999994,7.59586238861,11.120985984799997,-6.817831993099999,16.0
2018-10-18 15:07:51.150,0.162353329531,-0.14239890961,-0.936229534169,0.000225169584155,-0.0124994572252,-0.117955900729,-2.2359162,0.22555295,9.52225715,0.0,-11.1154279709,8.19666004181,-6.72426128387,0.000225169584155,-0.0124994572252,-0.117955900729,14.6499996185,176.701644897,-404.180084229,15.2150268555,1.9762287140000012,-2.983036041249999,7.45963096619,11.140654563899997,-6.854351043699999,16.0
2018-10-18 15:07:51.200,0.162353329531,-0.14239890961,-0.936229534169,0.000225169584155,-0.0124994572252,-0.117955900729,-2.2359162,0.22555295,9.52225715,0.0,-11.1154279709,8.19666004181,-6.72426128387,0.000225169584155,-0.0124994572252,-0.117955900729,14.6499996185,176.701644897,-404.180084229,15.2150268555,1.9762287140000012,-2.983036041249999,7.45963096619,11.140654563899997,-6.854351043699999,16.0
2018-10-18 15:07:51.250,0.153735151968,-0.136037687708,-0.937131835704,-0.102218449116,-0.0628696829081,0.0273535586894,-2.2555295,0.51975245,9.7674234,0.0,-11.1519680023,8.60329532623,-6.86613941193,0.000225169584155,-0.0124994572252,-0.117955900729,15.3499994278,162.140838623,-403.081176758,15.2150268555,2.436227798499999,-3.4030361175399992,7.325695037839999,11.161540985099997,-6.863793373109998,16.0
2018-10-18 15:07:51.300,0.153735151968,-0.136037687708,-0.937131835704,-0.102218449116,-0.0628696829081,0.0273535586894,-2.2555295,0.51975245,9.7674234,0.0,-11.1519680023,8.60329532623,-6.86613941193,0.000225169584155,-0.0124994572252,-0.117955900729,15.3499994278,162.140838623,-403.081176758,14.4534492493,1.3228397369000007,-2.7780585289,7.22735786438,11.187649726899997,-6.852675914759998,16.0
2018-10-18 15:07:51.350,0.153735151968,-0.136037687708,-0.937131835704,-0.102218449116,-0.0628696829081,0.0273535586894,-2.2555295,0.51975245,9.7674234,0.0,-11.1519680023,8.60329532623,-6.86613941193,0.000225169584155,-0.0124994572252,-0.117955900729,16.0499992371,162.140838623,-401.982269287,14.4534492493,1.7628402710000017,-3.2180581092800002,7.17372226715,11.214786529499996,-6.832374095919998,16.0
2018-10-18 15:07:51.400,0.153735151968,-0.136037687708,-0.937131835704,-0.102218449116,-0.0628696829081,0.0273535586894,-2.2555295,0.51975245,9.7674234,0.0,-11.1519680023,8.60329532623,-6.86613941193,0.000225169584155,-0.0124994572252,-0.117955900729,16.0499992371,162.140838623,-401.982269287,14.4534492493,1.7628402710000017,-3.1980581283500005,7.089602470399999,11.255977630599997,-6.789824962619998,16.0
2018-10-18 15:07:51.450,0.153735151968,-0.136037687708,-0.937131835704,-0.102218449116,-0.0628696829081,0.0273535586894,-2.2555295,0.51975245,9.7674234,0.0,-11.2793464661,8.97214889526,-6.76032876968,-0.102218449116,-0.0628696829081,0.0273535586894,16.7600002289,141.298583984,-400.874816895,14.4534492493,2.1728401184,-3.42805814743,7.02785110474,11.279346466099996,-6.760328769679998,16.0
2018-10-18 15:07:51.500,0.153735151968,-0.136037687708,-0.937131835704,-0.102218449116,-0.0628696829081,0.0273535586894,-2.2555295,0.51975245,9.7674234,0.0,-11.2793464661,8.97214889526,-6.76032876968,-0.102218449116,-0.0628696829081,0.0273535586894,16.7600002289,141.298583984,-400.874816895,14.4534492493,2.1628398895000025,-3.41805839538,6.968802452089999,11.312293052699996,-6.711346149439998,16.0
2018-10-18 15:07:51.550,0.153925022427,-0.108622070745,-0.941279168283,-0.206506326795,-0.0460636839271,-0.0466124452651,-2.16726965,0.63743225,11.179581,0.0,-11.2793464661,8.97214889526,-6.76032876968,-0.102218449116,-0.0628696829081,0.0273535586894,17.4499988556,141.298583984,-399.759002686,14.4534492493,2.542840957600003,-3.6580581665,6.88780498505,11.391189575199997,-6.576733589169998,16.0
2018-10-18 15:07:51.600,0.153925022427,-0.108622070745,-0.941279168283,-0.206506326795,-0.0460636839271,-0.0466124452651,-2.16726965,0.63743225,11.179581,0.0,-11.2793464661,8.97214889526,-6.76032876968,-0.102218449116,-0.0628696829081,0.0273535586894,17.4499988556,141.298583984,-399.759002686,14.4534492493,2.542840957600003,-3.6580581665,6.88780498505,11.391189575199997,-6.576733589169998,16.0
2018-10-18 15:07:51.650,0.153925022427,-0.108622070745,-0.941279168283,-0.206506326795,-0.0460636839271,-0.0466124452651,-2.16726965,0.63743225,11.179581,0.0,-11.2793464661,8.97214889526,-6.76032876968,-0.102218449116,-0.0628696829081,0.0273535586894,17.4499988556,141.298583984,-399.759002686,14.162563323999997,1.6665096283000018,-0.49288606644000055,6.81169223785,11.469427108799996,-6.4455881118799985,16.0
2018-10-18 15:07:51.700,0.153925022427,-0.108622070745,-0.941279168283,-0.206506326795,-0.0460636839271,-0.0466124452651,-2.16726965,0.63743225,11.179581,0.0,-11.5314779282,9.285572052,-6.35778522491,-0.206506326795,-0.0460636839271,-0.0466124452651,18.7799987793,114.857574463,-397.493438721,14.162563323999997,2.2365093231000017,-0.6328859329199998,6.7393150329600005,11.518805503799996,-6.377009391779998,16.0
2018-10-18 15:07:51.750,0.153925022427,-0.108622070745,-0.941279168283,-0.206506326795,-0.0460636839271,-0.0466124452651,-2.16726965,0.63743225,11.179581,0.0,-11.5314779282,9.285572052,-6.35778522491,-0.206506326795,-0.0460636839271,-0.0466124452651,18.7799987793,114.857574463,-397.493438721,14.162563323999997,2.2365093231000017,-0.6328859329199998,6.627401351930001,11.590187072799996,-6.263075828549998,16.0
2018-10-18 15:07:51.800,0.153925022427,-0.108622070745,-0.941279168283,-0.206506326795,-0.0460636839271,-0.0466124452651,-2.16726965,0.63743225,11.179581,0.0,-11.5314779282,9.285572052,-6.35778522491,-0.206506326795,-0.0460636839271,-0.0466124452651,18.7799987793,114.857574463,-397.493438721,14.162563323999997,2.2365093231000017,-0.6228861808800001,6.627401351930001,11.590187072799996,-6.263075828549998,16.0
2018-10-18 15:07:51.850,0.153925022427,-0.108622070745,-0.941279168283,-0.206506326795,-0.0460636839271,-0.0466124452651,-2.16726965,0.63743225,11.179581,0.0,-11.5314779282,9.285572052,-6.35778522491,-0.206506326795,-0.0460636839271,-0.0466124452651,19.4300003052,78.971572876,-396.343658447,14.162563323999997,2.5265083313000005,-0.6728858947700003,6.56756305695,11.656387329099996,-6.213126182559998,16.0
2018-10-18 15:07:51.900,0.153925022427,-0.108622070745,-0.941279168283,-0.206506326795,-0.0460636839271,-0.0466124452651,-2.16726965,0.63743225,11.179581,0.0,-11.5314779282,9.285572052,-6.35778522491,-0.206506326795,-0.0460636839271,-0.0466124452651,19.4300003052,78.971572876,-396.343658447,14.162563323999997,2.5265083313000005,-0.6728858947700003,6.556377410890001,11.666318893399996,-6.252129554749998,16.0
2018-10-18 15:07:51.950,0.153925022427,-0.108622070745,-0.941279168283,-0.206506326795,-0.0460636839271,-0.0466124452651,-2.16726965,0.63743225,11.179581,0.0,-11.6717576981,9.45369720459,-6.25551462173,-0.206506326795,-0.0460636839271,-0.0466124452651,20.0699996948,78.971572876,-395.185546875,14.162563323999997,2.916509628300002,-0.6528859138500005,6.52608776093,11.682538032499997,-6.262721061709998,16.0
2018-10-18 15:07:52.000,0.153925022427,-0.108622070745,-0.941279168283,-0.206506326795,-0.0460636839271,-0.0466124452651,-2.16726965,0.63743225,11.179581,0.0,-11.6717576981,9.45369720459,-6.25551462173,-0.206506326795,-0.0460636839271,-0.0466124452651,20.0699996948,78.971572876,-395.185546875,14.162563323999997,2.916509628300002,-0.6428861617999999,6.50722789764,11.690155029299996,-6.277072429659998,16.0
2018-10-18 15:07:52.050,0.147871921783,-0.0953211647222,-0.938461713493,0.0999312475324,-0.0794302374125,-0.0959936305881,-2.3339827,0.63743225,9.5516771,0.0,-11.6717576981,9.45369720459,-6.25551462173,-0.206506326795,-0.0460636839271,-0.0466124452651,20.7099990845,60.75258255,-394.027435303,11.807529449500002,2.3342761992999996,0.9987082481400007,6.4708271026599995,11.700046539299997,-6.2864956855799985,16.0
2018-10-18 15:07:52.100,0.147871921783,-0.0953211647222,-0.938461713493,0.0999312475324,-0.0794302374125,-0.0959936305881,-2.3339827,0.63743225,9.5516771,0.0,-11.6717576981,9.45369720459,-6.25551462173,-0.206506326795,-0.0460636839271,-0.0466124452651,20.7099990845,60.75258255,-394.027435303,11.807529449500002,2.3342761992999996,0.9987082481400007,6.4708271026599995,11.700046539299997,-6.2864956855799985,16.0
2018-10-18 15:07:52.150,0.147871921783,-0.0953211647222,-0.938461713493,0.0999312475324,-0.0794302374125,-0.0959936305881,-2.3339827,0.63743225,9.5516771,0.0,-11.6717576981,9.45369720459,-6.25551462173,-0.206506326795,-0.0460636839271,-0.0466124452651,21.359998703,60.75258255,-392.860870361,11.807529449500002,2.7442779540999993,0.8587079048200001,6.433052062990001,11.717081069899997,-6.2621722221399985,16.0
2018-10-18 15:07:52.200,0.147871921783,-0.0953211647222,-0.938461713493,0.0999312475324,-0.0794302374125,-0.0959936305881,-2.3339827,0.63743225,9.5516771,0.0,-11.6717576981,9.45369720459,-6.25551462173,-0.206506326795,-0.0460636839271,-0.0466124452651,21.359998703,60.75258255,-392.860870361,11.807529449500002,2.7442779540999993,0.8787083625800003,6.433052062990001,11.717081069899997,-6.2621722221399985,16.0
2018-10-18 15:07:52.250,0.147871921783,-0.0953211647222,-0.938461713493,0.0999312475324,-0.0794302374125,-0.0959936305881,-2.3339827,0.63743225,9.5516771,0.0,-11.7621955872,9.61716651917,-6.15086317062,0.0999312475324,-0.0794302374125,-0.0959936305881,22.0100002289,60.7938766479,-391.694335938,11.807529449500002,3.064277648899999,0.8487081527800004,6.3526382446300005,11.780123710599996,-6.076904773709998,16.0
2018-10-18 15:07:52.300,0.147871921783,-0.0953211647222,-0.938461713493,0.0999312475324,-0.0794302374125,-0.0959936305881,-2.3339827,0.63743225,9.5516771,0.0,-11.7621955872,9.61716651917,-6.15086317062,0.0999312475324,-0.0794302374125,-0.0959936305881,22.0100002289,60.7938766479,-391.694335938,11.807529449500002,3.064277648899999,0.8587079048200001,6.315602302549999,11.788917541499996,-6.021837234499999,16.0
2018-10-18 15:07:52.350,0.147871921783,-0.0953211647222,-0.938461713493,0.0999312475324,-0.0794302374125,-0.0959936305881,-2.3339827,0.63743225,9.5516771,0.0,-11.7621955872,9.61716651917,-6.15086317062,0.0999312475324,-0.0794302374125,-0.0959936305881,22.0100002289,60.7938766479,-391.694335938,11.807529449500002,3.064277648899999,0.8587079048200001,6.315602302549999,11.788917541499996,-6.021837234499999,16.0
2018-10-18 15:07:52.400,0.147871921783,-0.0953211647222,-0.938461713493,0.0999312475324,-0.0794302374125,-0.0959936305881,-2.3339827,0.63743225,9.5516771,0.0,-11.7621955872,9.61716651917,-6.15086317062,0.0999312475324,-0.0794302374125,-0.0959936305881,22.6499996185,60.7938766479,-390.5362854,11.807529449500002,3.3542766571000016,0.6887083053600005,6.21959972382,11.781069755599997,-5.934284687039998,16.0
2018-10-18 15:07:52.450,0.147871921783,-0.0953211647222,-0.938461713493,0.0999312475324,-0.0794302374125,-0.0959936305881,-2.3339827,0.63743225,9.5516771,0.0,-11.7792768478,9.82432937622,-5.8724322319,0.0999312475324,-0.0794302374125,-0.0959936305881,23.2799987793,79.5225143433,-389.369506836,11.807529449500002,3.6842775345000014,0.30870819092,6.1576757431,11.781899452199996,-5.836447238919998,16.0
2018-10-18 15:07:52.500,0.122621111089,-0.104690313857,-0.935648710588,0.244140431285,-0.0957159474492,-0.0170803293586,-2.4124359,0.0784532,11.38552065,0.0,-11.7792768478,9.82432937622,-5.8724322319,0.0999312475324,-0.0794302374125,-0.0959936305881,23.2799987793,79.5225143433,-389.369506836,9.982921600300003,1.3292856217000022,-1.2995071411200003,6.11471843719,11.789000511199996,-5.744729995729998,16.0
2018-10-18 15:07:52.550,0.122621111089,-0.104690313857,-0.935648710588,0.244140431285,-0.0957159474492,-0.0170803293586,-2.4124359,0.0784532,11.38552065,0.0,-11.7792768478,9.82432937622,-5.8724322319,0.0999312475324,-0.0794302374125,-0.0959936305881,23.8899993896,79.5225143433,-388.202850342,9.982921600300003,1.5292854310000017,-1.6095070838999996,6.0235729217500005,11.769413948099997,-5.661630630489999,16.0
2018-10-18 15:07:52.600,0.122621111089,-0.104690313857,-0.935648710588,0.244140431285,-0.0957159474492,-0.0170803293586,-2.4124359,0.0784532,11.38552065,0.0,-11.7792768478,9.82432937622,-5.8724322319,0.0999312475324,-0.0794302374125,-0.0959936305881,23.8899993896,79.5225143433,-388.202850342,9.982921600300003,1.5292854310000017,-1.59950733185,6.004948616029999,11.754780769299996,-5.651533126829999,16.0
2018-10-18 15:07:52.650,0.122621111089,-0.104690313857,-0.935648710588,0.244140431285,-0.0957159474492,-0.0170803293586,-2.4124359,0.0784532,11.38552065,0.0,-11.7792768478,9.82432937622,-5.8724322319,0.0999312475324,-0.0794302374125,-0.0959936305881,24.4899997711,68.7294006348,-387.044769287,9.982921600300003,1.8392848969000006,-2.1195073127799997,5.957567214999999,11.715006828299996,-5.655838489529998,16.0
2018-10-18 15:07:52.700,0.122621111089,-0.104690313857,-0.935648710588,0.244140431285,-0.0957159474492,-0.0170803293586,-2.4124359,0.0784532,11.38552065,0.0,-11.7039375305,10.0558347702,-5.66748857498,0.244140431285,-0.0957159474492,-0.0170803293586,24.4899997711,68.7294006348,-387.044769287,9.982921600300003,1.8392848969000006,-2.1195073127799997,5.9276714325,11.690994262699997,-5.689114093779998,16.0
2018-10-18 15:07:52.750,0.122621111089,-0.104690313857,-0.935648710588,0.244140431285,-0.0957159474492,-0.0170803293586,-2.4124359,0.0784532,11.38552065,0.0,-11.7039375305,10.0558347702,-5.66748857498,0.244140431285,-0.0957159474492,-0.0170803293586,25.0900001526,68.7294006348,-385.886688232,9.982921600300003,2.219285011300002,-2.49950695038,5.9276714325,11.690994262699997,-5.689114093779998,16.0
2018-10-18 15:07:52.800,0.122621111089,-0.104690313857,-0.935648710588,0.244140431285,-0.0957159474492,-0.0170803293586,-2.4124359,0.0784532,11.38552065,0.0,-11.7039375305,10.0558347702,-5.66748857498,0.244140431285,-0.0957159474492,-0.0170803293586,25.0900001526,68.7294006348,-385.886688232,9.982921600300003,2.219285011300002,-2.48950719834,5.885006904600001,11.634347915599996,-5.750946998599998,16.0
2018-10-18 15:07:52.850,0.10811496085,-0.103997764325,-0.936312110433,0.0378667414188,-0.0764193236828,-0.00282262382098,-2.4320492,0.06864655,8.629852,0.0,-11.7039375305,10.0558347702,-5.66748857498,0.244140431285,-0.0957159474492,-0.0170803293586,25.6999988556,64.6248779297,-384.745391846,9.5653343201,1.0450410842999993,-3.28156518936,5.844052314800001,11.606702804599996,-5.712774753569998,16.0
2018-10-18 15:07:52.900,0.10811496085,-0.103997764325,-0.936312110433,0.0378667414188,-0.0764193236828,-0.00282262382098,-2.4320492,0.06864655,8.629852,0.0,-11.5837526321,10.2135705948,-5.60730981827,0.0378667414188,-0.0764193236828,-0.00282262382098,25.6999988556,64.6248779297,-384.745391846,9.5653343201,1.0450410842999993,-3.27156496048,5.804013252300001,11.586418151899997,-5.650869369509998,16.0
2018-10-18 15:07:52.950,0.10811496085,-0.103997764325,-0.936312110433,0.0378667414188,-0.0764193236828,-0.00282262382098,-2.4320492,0.06864655,8.629852,0.0,-11.5837526321,10.2135705948,-5.60730981827,0.0378667414188,-0.0764193236828,-0.00282262382098,26.2999992371,64.6248779297,-383.604217529,9.5653343201,1.3250408172999997,-3.7215650081600002,5.739834785499999,11.586534500099997,-5.4674282073999985,16.0
2018-10-18 15:07:53.000,0.10811496085,-0.103997764325,-0.936312110433,0.0378667414188,-0.0764193236828,-0.00282262382098,-2.4320492,0.06864655,8.629852,0.0,-11.5837526321,10.2135705948,-5.60730981827,0.0378667414188,-0.0764193236828,-0.00282262382098,26.8899993896,70.7300186157,-382.463012695,9.5653343201,1.4350414276999999,-4.2115650177,5.739834785499999,11.586534500099997,-5.4674282073999985,16.0
2018-10-18 15:07:53.050,0.10811496085,-0.103997764325,-0.936312110433,0.0378667414188,-0.0764193236828,-0.00282262382098,-2.4320492,0.06864655,8.629852,0.0,-11.5837526321,10.2135705948,-5.60730981827,0.0378667414188,-0.0764193236828,-0.00282262382098,26.8899993896,70.7300186157,-382.463012695,9.5653343201,1.4350414276999999,-4.2115650177,5.615174293500001,11.563472747799997,-5.167255878449998,16.0
2018-10-18 15:07:53.100,0.10811496085,-0.103997764325,-0.936312110433,0.0378667414188,-0.0764193236828,-0.00282262382098,-2.4320492,0.06864655,8.629852,0.0,-11.5837526321,10.2135705948,-5.60730981827,0.0378667414188,-0.0764193236828,-0.00282262382098,26.8899993896,70.7300186157,-382.463012695,9.5653343201,1.4350414276999999,-4.2115650177,5.5799627304,11.557296752899996,-5.064749717709998,16.0
2018-10-18 15:07:53.150,0.10811496085,-0.103997764325,-0.936312110433,0.0378667414188,-0.0764193236828,-0.00282262382098,-2.4320492,0.06864655,8.629852,0.0,-11.5232496262,10.4670591354,-4.98876476288,0.0378667414188,-0.0764193236828,-0.00282262382098,27.4399986267,70.7300186157,-381.330291748,9.5653343201,1.5350408554000001,-4.64156508446,5.5271921158,11.519523620599996,-4.963402271269998,16.0
2018-10-18 15:07:53.200,0.0912939005203,-0.0941354775417,-0.939026786358,-0.10171649605,-0.0592226870358,-0.0148396324366,-2.28494945,0.9218251,12.05237285,0.0,-11.5232496262,10.4670591354,-4.98876476288,0.0378667414188,-0.0764193236828,-0.00282262382098,27.4399986267,70.7300186157,-381.330291748,9.5653343201,1.5350408554000001,-4.64156508446,5.5271921158,11.519523620599996,-4.963402271269998,16.0
2018-10-18 15:07:53.250,0.0912939005203,-0.0941354775417,-0.939026786358,-0.10171649605,-0.0592226870358,-0.0148396324366,-2.28494945,0.9218251,12.05237285,0.0,-11.5232496262,10.4670591354,-4.98876476288,0.0378667414188,-0.0764193236828,-0.00282262382098,27.9799995422,54.7720909119,-380.197570801,9.421554565400001,-0.6665010453000004,-4.141284465789999,5.5015859604,11.506140708899997,-4.921405792239998,16.0
2018-10-18 15:07:53.300,0.0912939005203,-0.0941354775417,-0.939026786358,-0.10171649605,-0.0592226870358,-0.0148396324366,-2.28494945,0.9218251,12.05237285,0.0,-11.5232496262,10.4670591354,-4.98876476288,0.0378667414188,-0.0764193236828,-0.00282262382098,27.9799995422,54.7720909119,-380.197570801,9.421554565400001,-0.5265007019000016,-4.48128437996,5.432144165,11.467780113199996,-4.758862495419998,16.0
2018-10-18 15:07:53.350,0.0912939005203,-0.0941354775417,-0.939026786358,-0.10171649605,-0.0592226870358,-0.0148396324366,-2.28494945,0.9218251,12.05237285,0.0,-11.5232496262,10.4670591354,-4.98876476288,0.0378667414188,-0.0764193236828,-0.00282262382098,28.5,54.7720909119,-379.073181152,9.421554565400001,-0.4465007782000008,-4.8612844943999995,5.381061554,11.442502975499997,-4.623380184169998,16.0
2018-10-18 15:07:53.400,0.0912939005203,-0.0941354775417,-0.939026786358,-0.10171649605,-0.0592226870358,-0.0148396324366,-2.28494945,0.9218251,12.05237285,0.0,-11.4353122711,10.6370744705,-4.57386541367,-0.10171649605,-0.0592226870358,-0.0148396324366,28.5,54.7720909119,-379.073181152,9.421554565400001,-0.4465007782000008,-4.8612844943999995,5.3629255295,11.435312271099997,-4.573865413669998,16.0
2018-10-18 15:07:53.450,0.0912939005203,-0.0941354775417,-0.939026786358,-0.10171649605,-0.0592226870358,-0.0148396324366,-2.28494945,0.9218251,12.05237285,0.0,-11.4353122711,10.6370744705,-4.57386541367,-0.10171649605,-0.0592226870358,-0.0148396324366,29.0,44.9934959412,-377.940429688,9.421554565400001,-0.5365009308000008,-5.531284332279999,5.1679983139,11.401874542199996,-4.052514076229998,16.0
2018-10-18 15:07:53.500,0.0912939005203,-0.0941354775417,-0.939026786358,-0.10171649605,-0.0592226870358,-0.0148396324366,-2.28494945,0.9218251,12.05237285,0.0,-11.4353122711,10.6370744705,-4.57386541367,-0.10171649605,-0.0592226870358,-0.0148396324366,29.0,44.9934959412,-377.940429688,9.421554565400001,-0.5365009308000008,-5.531284332279999,5.1679983139,11.401874542199996,-4.052514076229998,16.0
2018-10-18 15:07:53.550,0.0769294378093,-0.105745719339,-0.937771843175,0.0460039898753,-0.0180860795081,0.0324501991272,-2.02997655,0.4118793,12.79767825,0.0,-11.4353122711,10.6370744705,-4.57386541367,-0.10171649605,-0.0592226870358,-0.0148396324366,29.4499988556,44.9934959412,-376.816040039,9.421554565400001,-0.8565006256000007,-6.371284365655,5.0747699738000005,11.356724739099997,-3.8900489807099983,16.0
2018-10-18 15:07:53.600,0.0769294378093,-0.105745719339,-0.937771843175,0.0460039898753,-0.0180860795081,0.0324501991272,-2.02997655,0.4118793,12.79767825,0.0,-11.4353122711,10.6370744705,-4.57386541367,-0.10171649605,-0.0592226870358,-0.0148396324366,29.4499988556,44.9934959412,-376.816040039,9.075027465799998,-1.9717168808000007,-8.120737433435,5.034253120400001,11.334527969399996,-3.793750762939998,16.0
2018-10-18 15:07:53.650,0.0769294378093,-0.105745719339,-0.937771843175,0.0460039898753,-0.0180860795081,0.0324501991272,-2.02997655,0.4118793,12.79767825,0.0,-11.2937068939,11.0740041733,-3.49338793755,0.0460039898753,-0.0180860795081,0.0324501991272,29.8699989319,40.4336929321,-375.70022583,9.075027465799998,-2.2317171097000017,-8.820737417788902,4.937354087799999,11.296092987099996,-3.5488028526299984,16.0
2018-10-18 15:07:53.700,0.0769294378093,-0.105745719339,-0.937771843175,0.0460039898753,-0.0180860795081,0.0324501991272,-2.02997655,0.4118793,12.79767825,0.0,-11.2937068939,11.0740041733,-3.49338793755,0.0460039898753,-0.0180860795081,0.0324501991272,29.8699989319,40.4336929321,-375.70022583,9.075027465799998,-2.2317171097000017,-8.820737417788902,4.9022073746,11.291030883799996,-3.426764488219998,16.0
2018-10-18 15:07:53.750,0.0769294378093,-0.105745719339,-0.937771843175,0.0460039898753,-0.0180860795081,0.0324501991272,-2.02997655,0.4118793,12.79767825,0.0,-11.2937068939,11.0740041733,-3.49338793755,0.0460039898753,-0.0180860795081,0.0324501991272,30.2399997711,40.4336929321,-374.584228516,9.075027465799998,-2.591716766400001,-9.380737423898001,4.8381214142,11.278059959399997,-3.251550912859998,16.0
2018-10-18 15:07:53.800,0.0769294378093,-0.105745719339,-0.937771843175,0.0460039898753,-0.0180860795081,0.0324501991272,-2.02997655,0.4118793,12.79767825,0.0,-11.2937068939,11.0740041733,-3.49338793755,0.0460039898753,-0.0180860795081,0.0324501991272,30.2399997711,40.4336929321,-374.584228516,9.075027465799998,-2.591716766400001,-9.380737423898001,4.8364696503,11.268427848799996,-3.178923130039998,16.0
2018-10-18 15:07:53.850,0.0778626683803,-0.103832022006,-0.940498283432,-0.413314461708,0.127992257476,-0.0628375634551,-2.02997655,1.8044236,9.4339973,0.0,-11.2937068939,11.0740041733,-3.49338793755,0.0460039898753,-0.0180860795081,0.0324501991272,30.5900001526,34.2877388,-373.468383789,9.995136260999999,-2.9395513534000006,-9.305250585076001,4.8568305969,11.253842353799996,-3.216058015819998,16.0
2018-10-18 15:07:53.900,0.0778626683803,-0.103832022006,-0.940498283432,-0.413314461708,0.127992257476,-0.0628375634551,-2.02997655,1.8044236,9.4339973,0.0,-11.2499752045,11.1349992752,-3.24619936943,-0.413314461708,0.127992257476,-0.0628375634551,30.5900001526,34.2877388,-373.468383789,9.995136260999999,-2.9395513534000006,-9.305250585076001,4.8568305969,11.253842353799996,-3.216058015819998,16.0
2018-10-18 15:07:53.950,0.0778626683803,-0.103832022006,-0.940498283432,-0.413314461708,0.127992257476,-0.0628375634551,-2.02997655,1.8044236,9.4339973,0.0,-11.2499752045,11.1349992752,-3.24619936943,-0.413314461708,0.127992257476,-0.0628375634551,30.9399986267,34.2877388,-372.361053467,9.995136260999999,-3.0795507431000004,-9.235250592228,4.954659462,11.249065399199996,-3.446312665939998,16.0
2018-10-18 15:07:54.000,0.0778626683803,-0.103832022006,-0.940498283432,-0.413314461708,0.127992257476,-0.0628375634551,-2.02997655,1.8044236,9.4339973,0.0,-11.2499752045,11.1349992752,-3.24619936943,-0.413314461708,0.127992257476,-0.0628375634551,30.9399986267,34.2877388,-372.361053467,9.995136260999999,-3.0795507431000004,-9.235250592228,4.954659462,11.249065399199996,-3.446312665939998,16.0
2018-10-18 15:07:54.050,0.0778626683803,-0.103832022006,-0.940498283432,-0.413314461708,0.127992257476,-0.0628375634551,-2.02997655,1.8044236,9.4339973,0.0,-11.2499752045,11.1349992752,-3.24619936943,-0.413314461708,0.127992257476,-0.0628375634551,31.3199996948,27.9780387878,-371.245178223,9.995136260999999,-3.0495510101,-8.86525058746,4.9910974503,11.236146926899997,-3.5568594932599984,16.0
2018-10-18 15:07:54.100,0.0778626683803,-0.103832022006,-0.940498283432,-0.413314461708,0.127992257476,-0.0628375634551,-2.02997655,1.8044236,9.4339973,0.0,-11.2499752045,11.1349992752,-3.24619936943,-0.413314461708,0.127992257476,-0.0628375634551,31.3199996948,27.9780387878,-371.245178223,9.995136260999999,-3.0495510101,-8.86525058746,5.028314590500001,11.240329742399997,-3.6146373748799983,16.0
2018-10-18 15:07:54.150,0.0778626683803,-0.103832022006,-0.940498283432,-0.413314461708,0.127992257476,-0.0628375634551,-2.02997655,1.8044236,9.4339973,0.0,-11.2347154617,10.9465045929,-3.68904614449,-0.413314461708,0.127992257476,-0.0628375634551,31.7199993134,27.9780387878,-370.129333496,9.995136260999999,-1.0795507431000004,-8.685250587758,5.067830085800001,11.239533424399996,-3.7046964168499983,16.0
2018-10-18 15:07:54.200,0.0778626683803,-0.103832022006,-0.940498283432,-0.413314461708,0.127992257476,-0.0628375634551,-2.02997655,1.8044236,9.4339973,0.0,-11.2347154617,10.9465045929,-3.68904614449,-0.413314461708,0.127992257476,-0.0628375634551,31.7199993134,27.9780387878,-370.129333496,9.995136260999999,-1.0795507431000004,-8.685250587758,5.0903644562,11.255767822299996,-3.7024776935599983,16.0
2018-10-18 15:07:54.250,0.0778626683803,-0.103832022006,-0.940498283432,-0.413314461708,0.127992257476,-0.0628375634551,-2.02997655,1.8044236,9.4339973,0.0,-11.2347154617,10.9465045929,-3.68904614449,-0.413314461708,0.127992257476,-0.0628375634551,32.1300010681,37.1129989624,-369.00491333,9.995136260999999,0.8804483413999993,-8.445250585672,5.1047096252,11.255062103299997,-3.701027393339998,16.0
2018-10-18 15:07:54.300,0.112110316063,-0.0394057191697,-0.934525178999,-0.31318962574,-0.0277979709208,-0.0973830968142,-2.1378497,-0.0392266,9.77723005,0.0,-11.2347154617,10.9465045929,-3.68904614449,-0.413314461708,0.127992257476,-0.0628375634551,32.1300010681,37.1129989624,-369.00491333,9.995136260999999,0.8804483413999993,-8.445250585672,5.1139793396,11.262391090399996,-3.6941707134199984,16.0
2018-10-18 15:07:54.350,0.112110316063,-0.0394057191697,-0.934525178999,-0.31318962574,-0.0277979709208,-0.0973830968142,-2.1378497,-0.0392266,9.77723005,0.0,-11.2347154617,10.9465045929,-3.68904614449,-0.413314461708,0.127992257476,-0.0628375634551,32.5599975586,37.1129989624,-367.889099121,6.495155334499998,4.19932842253,0.3924724757675,5.1041793823,11.265459060699996,-3.6461722850799982,16.0
2018-10-18 15:07:54.400,0.112110316063,-0.0394057191697,-0.934525178999,-0.31318962574,-0.0277979709208,-0.0973830968142,-2.1378497,-0.0392266,9.77723005,0.0,-11.274187088,10.8908882141,-3.63542032242,-0.31318962574,-0.0277979709208,-0.0973830968142,32.5599975586,37.1129989624,-367.889099121,6.495155334499998,4.19932842253,0.3924724757675,5.1041793823,11.265459060699996,-3.6461722850799982,16.0
2018-10-18 15:07:54.450,0.112110316063,-0.0394057191697,-0.934525178999,-0.31318962574,-0.0277979709208,-0.0973830968142,-2.1378497,-0.0392266,9.77723005,0.0,-11.274187088,10.8908882141,-3.63542032242,-0.31318962574,-0.0277979709208,-0.0973830968142,32.969997406,40.0884628296,-366.764831543,6.495155334499998,6.00932836531,0.43247249722450004,5.1282291412,11.261912345899997,-3.730228424069998,16.0
2018-10-18 15:07:54.500,0.112110316063,-0.0394057191697,-0.934525178999,-0.31318962574,-0.0277979709208,-0.0973830968142,-2.1378497,-0.0392266,9.77723005,0.0,-11.274187088,10.8908882141,-3.63542032242,-0.31318962574,-0.0277979709208,-0.0973830968142,32.969997406,40.0884628296,-366.764831543,6.495155334499998,6.00932836531,0.43247249722450004,5.14640522,11.268449783299996,-3.782352685929998,16.0
2018-10-18 15:07:54.550,0.112110316063,-0.0394057191697,-0.934525178999,-0.31318962574,-0.0277979709208,-0.0973830968142,-2.1378497,-0.0392266,9.77723005,0.0,-11.2628765106,10.8474216461,-3.79783725739,-0.31318962574,-0.0277979709208,-0.0973830968142,33.3899993896,40.0884628296,-365.640441895,6.495155334499998,7.90932846068,0.5024724900724999,5.152578353899999,11.262876510599996,-3.797837257389998,16.0
2018-10-18 15:07:54.600,0.112110316063,-0.0394057191697,-0.934525178999,-0.31318962574,-0.0277979709208,-0.0973830968142,-2.1378497,-0.0392266,9.77723005,0.0,-11.2628765106,10.8474216461,-3.79783725739,-0.31318962574,-0.0277979709208,-0.0973830968142,33.3899993896,40.0884628296,-365.640441895,6.495155334499998,7.90932846068,0.5024724900724999,5.164978981000001,11.270132064799997,-3.8025979995699983,16.0
