%time,field.orientation.x,field.orientation.y,field.orientation.z,field.angular_velocity.x,field.angular_velocity.y,field.angular_velocity.z,field.linear_acceleration.x,field.linear_acceleration.y,field.linear_acceleration.z,field.data,field.twist.linear.x,field.twist.linear.y,field.twist.linear.z,field.twist.angular.x,field.twist.angular.y,field.twist.angular.z,field.alt_error,field.aspd_error,field.xtrack_error,delta_yaw,delta_pitch,delta_roll,delta_x,delta_y,delta_z,delta_roll_airspeed
2018-10-05 20:06:15.650,,,,,,,,,,0.0,,,,,,,-0.489999979734,-836.163146973,-39.2540054321,-185.986785889,3.387855827808,22.043798446620002,26.780985832200003,-18.34854417941854,2.074354887010002,15.0
2018-10-05 20:06:15.700,0.139054739715,-0.0325601079502,0.260910395587,0.208903491497,-0.0428329072893,0.211037695408,-0.26477955,2.1182364,11.0619012,0.0,,,,,,,-0.489999979734,-836.163146973,-39.2540054321,-178.483222961,3.1147576570529996,28.3611516953,26.780985832200003,-18.34854417941854,2.074354887010002,15.0
2018-10-05 20:06:15.750,0.139054739715,-0.0325601079502,0.260910395587,0.208903491497,-0.0428329072893,0.211037695408,-0.26477955,2.1182364,11.0619012,0.0,,,,,,,-0.489999979734,-836.163146973,-39.2540054321,-178.483222961,3.1147576570529996,28.3611516953,26.3872566223,-18.49331194071854,2.0799443721800017,15.0
2018-10-05 20:06:15.800,0.139054739715,-0.0325601079502,0.260910395587,0.208903491497,-0.0428329072893,0.211037695408,-0.26477955,2.1182364,11.0619012,0.0,18.5461292267,-10.2124080658,1.99919462204,0.208903491497,-0.0428329072893,0.211037695408,-0.719999969006,-836.163146973,-37.1198043823,-179.483222961,2.5347577333429996,33.011152267499995,26.1294317245,-18.57682710791854,1.975610375400002,15.0
2018-10-05 20:06:15.850,0.139054739715,-0.0325601079502,0.260910395587,0.208903491497,-0.0428329072893,0.211037695408,-0.26477955,2.1182364,11.0619012,0.0,18.5461292267,-10.2124080658,1.99919462204,0.208903491497,-0.0428329072893,0.211037695408,-0.719999969006,-836.163146973,-37.1198043823,-179.483222961,2.434757828713,33.011152267499995,25.83408069611,-18.65818697121854,1.971662878990002,15.0
2018-10-05 20:06:15.900,0.139054739715,-0.0325601079502,0.260910395587,0.208903491497,-0.0428329072893,0.211037695408,-0.26477955,2.1182364,11.0619012,0.0,18.5461292267,-10.2124080658,1.99919462204,0.208903491497,-0.0428329072893,0.211037695408,-0.939999997616,-833.173339844,-34.9393577576,-179.483222961,1.9247578382530002,33.021150589,25.65961933136,-18.69219499731854,1.903817772870002,15.0
2018-10-05 20:06:15.950,0.139054739715,-0.0325601079502,0.260910395587,0.208903491497,-0.0428329072893,0.211037695408,-0.26477955,2.1182364,11.0619012,0.0,18.7175369263,-9.42930984497,1.74297678471,0.208903491497,-0.0428329072893,0.211037695408,-0.939999997616,-833.173339844,-34.9393577576,-179.483222961,1.9247578382530002,33.021150589,25.42930984497,-18.71974092631854,1.742976784710002,15.0
2018-10-05 20:06:16.000,0.139054739715,-0.0325601079502,0.260910395587,0.208903491497,-0.0428329072893,0.211037695408,-0.26477955,2.1182364,11.0619012,0.0,18.7175369263,-9.42930984497,1.74297678471,0.208903491497,-0.0428329072893,0.211037695408,-1.14999997616,-833.173339844,-32.820526123,-180.483222961,1.554757714273,34.4411506653,25.22608089447,-18.72651010661854,1.616061568260002,15.0
2018-10-05 20:06:16.050,0.0722721120025,-0.00950545281514,0.265686297362,0.454539299011,-0.0468041822314,-0.209929659963,-1.61809725,1.08853815,8.40429905,0.0,18.7175369263,-9.42930984497,1.74297678471,0.208903491497,-0.0428329072893,0.211037695408,-1.32999992371,-800.769592285,-30.7619132996,-181.81622314499998,0.9966586828200001,25.6711378097,25.11295223236,-18.71396738201854,1.545764207840002,15.0
2018-10-05 20:06:16.100,0.0722721120025,-0.00950545281514,0.265686297362,0.454539299011,-0.0468041822314,-0.209929659963,-1.61809725,1.08853815,8.40429905,0.0,18.7175369263,-9.42930984497,1.74297678471,0.208903491497,-0.0428329072893,0.211037695408,-1.32999992371,-800.769592285,-30.7619132996,-181.81622314499998,0.6466587781900002,24.071138382,24.95284843445,-18.682327270500004,1.488699436190002,15.0
2018-10-05 20:06:16.150,0.0722721120025,-0.00950545281514,0.265686297362,0.454539299011,-0.0468041822314,-0.209929659963,-1.61809725,1.08853815,8.40429905,0.0,18.7175369263,-9.42930984497,1.74297678471,0.208903491497,-0.0428329072893,0.211037695408,-1.51999998093,-800.769592285,-378.410400391,-164.81622314499998,0.6466587781900002,24.0611381531,24.84555053711,-18.651649475100005,1.489587187770002,16.0
2018-10-05 20:06:16.200,0.0722721120025,-0.00950545281514,0.265686297362,0.454539299011,-0.0468041822314,-0.209929659963,-1.61809725,1.08853815,8.40429905,0.0,18.7175369263,-9.42930984497,1.74297678471,0.208903491497,-0.0428329072893,0.211037695408,-1.51999998093,-800.769592285,-378.410400391,-164.81622314499998,2.2366586923600003,-36.6888589859,24.767988204959998,-18.609790802000003,1.485826969150002,16.0
2018-10-05 20:06:16.250,0.0722721120025,-0.00950545281514,0.265686297362,0.454539299011,-0.0468041822314,-0.209929659963,-1.61809725,1.08853815,8.40429905,0.0,18.5545940399,-8.69956016541,1.50670015812,0.454539299011,-0.0468041822314,-0.209929659963,-1.51999998093,-800.769592285,-378.410400391,-164.81622314499998,1.7966588735500002,-36.6888589859,24.62334156036,-18.495281219500004,1.542461991310002,16.0
2018-10-05 20:06:16.300,0.0722721120025,-0.00950545281514,0.265686297362,0.454539299011,-0.0468041822314,-0.209929659963,-1.61809725,1.08853815,8.40429905,0.0,18.5545940399,-8.69956016541,1.50670015812,0.454539299011,-0.0468041822314,-0.209929659963,-1.70999991894,-659.461608887,-380.303924561,-164.81622314499998,3.17665874958,-36.6788606644,24.58870029449,-18.469171524000004,1.548522591590002,16.0
2018-10-05 20:06:16.350,0.0722721120025,-0.00950545281514,0.265686297362,0.454539299011,-0.0468041822314,-0.209929659963,-1.61809725,1.08853815,8.40429905,0.0,18.5545940399,-8.69956016541,1.50670015812,0.454539299011,-0.0468041822314,-0.209929659963,-1.70999991894,-659.461608887,-380.303924561,-164.81622314499998,3.17665874958,-36.6788606644,24.58870029449,-18.469171524000004,1.548522591590002,16.0
2018-10-05 20:06:16.400,0.0722721120025,-0.00950545281514,0.265686297362,0.454539299011,-0.0468041822314,-0.209929659963,-1.61809725,1.08853815,8.40429905,0.0,18.5545940399,-8.69956016541,1.50670015812,0.454539299011,-0.0468041822314,-0.209929659963,-1.91999995708,-659.461608887,-382.180541992,-164.81622314499998,4.09665882587,-36.6688623428,24.58870029449,-18.469171524000004,1.548522591590002,16.0
2018-10-05 20:06:16.450,0.0953084808908,-0.00156181197136,0.264509696583,-1.17335617542,-0.0788113176823,0.298958688974,-1.57887065,0.44129925,10.4342756,0.0,18.3133068085,-8.09360694885,1.58008897305,-1.17335617542,-0.0788113176823,0.298958688974,-1.91999995708,-659.461608887,-382.180541992,-164.567222595,2.4818761348800003,-34.3394489288,24.16029453278,-18.317543029800003,1.601589202880002,16.0
2018-10-05 20:06:16.500,0.0953084808908,-0.00156181197136,0.264509696583,-1.17335617542,-0.0788113176823,0.298958688974,-1.57887065,0.44129925,10.4342756,0.0,18.3133068085,-8.09360694885,1.58008897305,-1.17335617542,-0.0788113176823,0.298958688974,-2.14999985695,-622.777587891,-384.031829834,-164.567222595,3.4618761539499996,-34.3394489288,24.01442813873,-18.312095642100005,1.577611923220002,16.0
2018-10-05 20:06:16.550,0.0953084808908,-0.00156181197136,0.264509696583,-1.17335617542,-0.0788113176823,0.298958688974,-1.57887065,0.44129925,10.4342756,0.0,18.3133068085,-8.09360694885,1.58008897305,-1.17335617542,-0.0788113176823,0.298958688974,-2.14999985695,-622.777587891,-384.031829834,-164.567222595,3.4618761539499996,-34.3394489288,24.01442813873,-18.312095642100005,1.577611923220002,16.0
2018-10-05 20:06:16.600,0.0953084808908,-0.00156181197136,0.264509696583,-1.17335617542,-0.0788113176823,0.298958688974,-1.57887065,0.44129925,10.4342756,0.0,18.3133068085,-8.09360694885,1.58008897305,-1.17335617542,-0.0788113176823,0.298958688974,-2.37999987602,-622.777587891,-385.874603271,-164.567222595,4.03187632561,-34.3394489288,23.64817380905,-18.327936172500003,1.575301051140002,16.0
2018-10-05 20:06:16.650,0.0953084808908,-0.00156181197136,0.264509696583,-1.17335617542,-0.0788113176823,0.298958688974,-1.57887065,0.44129925,10.4342756,0.0,18.3133068085,-8.09360694885,1.58008897305,-1.17335617542,-0.0788113176823,0.298958688974,-2.37999987602,-622.777587891,-385.874603271,-164.567222595,4.03187632561,-34.3394489288,23.31933879852,-18.374868392900005,1.597358345990002,16.0
2018-10-05 20:06:16.700,0.0953084808908,-0.00156181197136,0.264509696583,-1.17335617542,-0.0788113176823,0.298958688974,-1.57887065,0.44129925,10.4342756,0.0,18.3133068085,-8.09360694885,1.58008897305,-1.17335617542,-0.0788113176823,0.298958688974,-2.61999988556,-571.700866699,-387.734344482,-164.567222595,4.741876363759999,-34.3394489288,22.93150663376,-18.446809768700003,1.636484622960002,16.0
2018-10-05 20:06:16.750,0.0953084808908,-0.00156181197136,0.264509696583,-1.17335617542,-0.0788113176823,0.298958688974,-1.57887065,0.44129925,10.4342756,0.0,18.5389518738,-6.5118803978,1.66859769821,-1.17335617542,-0.0788113176823,0.298958688974,-2.61999988556,-571.700866699,-387.734344482,-164.567222595,4.741876363759999,-34.3394489288,22.93150663376,-18.446809768700003,1.636484622960002,16.0
2018-10-05 20:06:16.800,0.275446684068,-0.0387330076547,0.2219245082,-0.754648149014,-0.0756141617894,0.0507732927799,-1.0591182,1.16699135,12.7878716,0.0,18.5389518738,-6.5118803978,1.66859769821,-1.17335617542,-0.0788113176823,0.298958688974,-2.86999988556,-571.700866699,-389.585601807,-164.567222595,3.0618760585800002,-34.3294506073,22.22226953506,-18.609788894700003,1.677834272380002,16.0
2018-10-05 20:06:16.850,0.275446684068,-0.0387330076547,0.2219245082,-0.754648149014,-0.0756141617894,0.0507732927799,-1.0591182,1.16699135,12.7878716,0.0,18.5389518738,-6.5118803978,1.66859769821,-1.17335617542,-0.0788113176823,0.298958688974,-3.11999988556,-489.546966553,-391.470672607,-159.892166138,1.5619847774500002,-12.732608795099999,22.22226953506,-18.609788894700003,1.677834272380002,16.0
2018-10-05 20:06:16.900,0.275446684068,-0.0387330076547,0.2219245082,-0.754648149014,-0.0756141617894,0.0507732927799,-1.0591182,1.16699135,12.7878716,0.0,18.5389518738,-6.5118803978,1.66859769821,-1.17335617542,-0.0788113176823,0.298958688974,-3.11999988556,-489.546966553,-391.470672607,-159.892166138,1.5619847774500002,-12.7226104736,21.48012542725,-18.794778823900003,1.628518700600002,16.0
2018-10-05 20:06:16.950,0.275446684068,-0.0387330076547,0.2219245082,-0.754648149014,-0.0756141617894,0.0507732927799,-1.0591182,1.16699135,12.7878716,0.0,18.5389518738,-6.5118803978,1.66859769821,-1.17335617542,-0.0788113176823,0.298958688974,-3.11999988556,-489.546966553,-391.470672607,-159.892166138,1.5619847774500002,-12.7226104736,21.48012542725,-18.794778823900003,1.628518700600002,16.0
2018-10-05 20:06:17.000,0.275446684068,-0.0387330076547,0.2219245082,-0.754648149014,-0.0756141617894,0.0507732927799,-1.0591182,1.16699135,12.7878716,0.0,18.9269561768,-4.94004774094,1.53024458885,-0.754648149014,-0.0756141617894,0.0507732927799,-3.3599998951,-489.546966553,-393.372650146,-159.892166138,-0.5980153083799999,-12.672611236599998,20.81036281586,-18.960424423200003,1.505447268490002,16.0
2018-10-05 20:06:17.050,0.275446684068,-0.0387330076547,0.2219245082,-0.754648149014,-0.0756141617894,0.0507732927799,-1.0591182,1.16699135,12.7878716,0.0,18.9269561768,-4.94004774094,1.53024458885,-0.754648149014,-0.0756141617894,0.0507732927799,-3.3599998951,-489.546966553,-393.372650146,-159.892166138,-1.1280152797699998,-12.642608642599996,20.42594432831,-19.053377151500005,1.435993313790002,16.0
2018-10-05 20:06:17.100,0.275446684068,-0.0387330076547,0.2219245082,-0.754648149014,-0.0756141617894,0.0507732927799,-1.0591182,1.16699135,12.7878716,0.0,18.9269561768,-4.94004774094,1.53024458885,-0.754648149014,-0.0756141617894,0.0507732927799,-3.59999990463,-463.258361816,-395.299987793,-159.892166138,-1.9680153131449998,-12.6226081848,20.03320646286,-19.140096664400005,1.385051369670002,16.0
2018-10-05 20:06:17.150,0.275446684068,-0.0387330076547,0.2219245082,-0.754648149014,-0.0756141617894,0.0507732927799,-1.0591182,1.16699135,12.7878716,0.0,18.9269561768,-4.94004774094,1.53024458885,-0.754648149014,-0.0756141617894,0.0507732927799,-3.59999990463,-463.258361816,-395.299987793,-159.892166138,-1.9680153131449998,-12.6226081848,20.03320646286,-19.140096664400005,1.385051369670002,16.0
2018-10-05 20:06:17.200,0.275446684068,-0.0387330076547,0.2219245082,-0.754648149014,-0.0756141617894,0.0507732927799,-1.0591182,1.16699135,12.7878716,0.0,18.9269561768,-4.94004774094,1.53024458885,-0.754648149014,-0.0756141617894,0.0507732927799,-3.81999993324,-463.258361816,-397.244262695,-159.892166138,-3.668015301224,-12.5926094055,19.51571249962,-19.242509841900002,1.312070608140002,16.0
2018-10-05 20:06:17.250,0.275446684068,-0.0387330076547,0.2219245082,-0.754648149014,-0.0756141617894,0.0507732927799,-1.0591182,1.16699135,12.7878716,0.0,19.2944526672,-3.25164532661,1.28025770187,-0.754648149014,-0.0756141617894,0.0507732927799,-3.81999993324,-463.258361816,-397.244262695,-159.892166138,-3.668015301224,-12.5926094055,19.51571249962,-19.242509841900002,1.312070608140002,16.0
2018-10-05 20:06:17.300,0.275446684068,-0.0387330076547,0.2219245082,-0.754648149014,-0.0756141617894,0.0507732927799,-1.0591182,1.16699135,12.7878716,0.0,19.2944526672,-3.25164532661,1.28025770187,-0.754648149014,-0.0756141617894,0.0507732927799,-4.02999973297,-428.803649902,-399.205413818,-159.892166138,-4.32801520824,-12.612609863300001,18.72931647301,-19.386724472000004,1.195953369140002,16.0
2018-10-05 20:06:17.350,0.333301986901,-0.0257554450898,0.192745290641,0.0208502728492,-0.123678401113,0.343125462532,-0.71588545,-0.63743225,10.8265416,0.0,19.2944526672,-3.25164532661,1.28025770187,-0.754648149014,-0.0756141617894,0.0507732927799,-4.02999973297,-428.803649902,-399.205413818,-159.892166138,-4.32801520824,-12.642608642599996,18.46868395805,-19.427749633800005,1.149783015250002,16.0
2018-10-05 20:06:17.400,0.333301986901,-0.0257554450898,0.192745290641,0.0208502728492,-0.123678401113,0.343125462532,-0.71588545,-0.63743225,10.8265416,0.0,19.2944526672,-3.25164532661,1.28025770187,-0.754648149014,-0.0756141617894,0.0507732927799,-4.23000001907,-428.803649902,-401.166564941,-155.964393616,-6.733948946,-6.0237159729,18.21584558487,-19.471347808800004,1.093083143230002,16.0
2018-10-05 20:06:17.450,0.333301986901,-0.0257554450898,0.192745290641,0.0208502728492,-0.123678401113,0.343125462532,-0.71588545,-0.63743225,10.8265416,0.0,19.2944526672,-3.25164532661,1.28025770187,-0.754648149014,-0.0756141617894,0.0507732927799,-4.23000001907,-428.803649902,-401.166564941,-155.964393616,-6.733948946,-6.0237159729,18.21584558487,-19.471347808800004,1.093083143230002,16.0
2018-10-05 20:06:17.500,0.333301986901,-0.0257554450898,0.192745290641,0.0208502728492,-0.123678401113,0.343125462532,-0.71588545,-0.63743225,10.8265416,0.0,19.5521030426,-1.69281291962,0.979214191437,0.0208502728492,-0.123678401113,0.343125462532,-4.42000007629,-418.007080078,-403.153106689,-155.964393616,-7.28394889832,-6.083717346200004,17.43045127392,-19.588142395000002,0.914634704590002,16.0
2018-10-05 20:06:17.550,0.333301986901,-0.0257554450898,0.192745290641,0.0208502728492,-0.123678401113,0.343125462532,-0.71588545,-0.63743225,10.8265416,0.0,19.5521030426,-1.69281291962,0.979214191437,0.0208502728492,-0.123678401113,0.343125462532,-4.58999967575,-418.007080078,-405.13961792,-155.964393616,-7.78394889832,-6.113716125500005,17.04254341125,-19.640213012700002,0.793361425400002,16.0
2018-10-05 20:06:17.600,0.333301986901,-0.0257554450898,0.192745290641,0.0208502728492,-0.123678401113,0.343125462532,-0.71588545,-0.63743225,10.8265416,0.0,19.5521030426,-1.69281291962,0.979214191437,0.0208502728492,-0.123678401113,0.343125462532,-4.58999967575,-418.007080078,-405.13961792,-155.964393616,-7.78394889832,-6.123718261699999,16.794032633305,-19.673904418900005,0.684818387032002,16.0
2018-10-05 20:06:17.650,0.333301986901,-0.0257554450898,0.192745290641,0.0208502728492,-0.123678401113,0.343125462532,-0.71588545,-0.63743225,10.8265416,0.0,19.5521030426,-1.69281291962,0.979214191437,0.0208502728492,-0.123678401113,0.343125462532,-4.58999967575,-418.007080078,-405.13961792,-155.964393616,-7.78394889832,-6.1437149047999995,16.794032633305,-19.673904418900005,0.684818387032002,16.0
2018-10-05 20:06:17.700,0.333301986901,-0.0257554450898,0.192745290641,0.0208502728492,-0.123678401113,0.343125462532,-0.71588545,-0.63743225,10.8265416,0.0,19.7580013275,-0.0222254116088,0.355461329222,0.0208502728492,-0.123678401113,0.343125462532,-4.73999977112,-400.05569458,-407.143035889,-155.964393616,-8.15394902229,-6.153717041,16.285719275475,-19.730077743500004,0.45923939347300197,16.0
2018-10-05 20:06:17.750,0.333301986901,-0.0257554450898,0.192745290641,0.0208502728492,-0.123678401113,0.343125462532,-0.71588545,-0.63743225,10.8265416,0.0,19.7580013275,-0.0222254116088,0.355461329222,0.0208502728492,-0.123678401113,0.343125462532,-4.73999977112,-400.05569458,-407.143035889,-155.964393616,-8.15394902229,-6.153717041,16.285719275475,-19.730077743500004,0.45923939347300197,16.0
2018-10-05 20:06:17.800,0.333301986901,-0.0257554450898,0.192745290641,0.0208502728492,-0.123678401113,0.343125462532,-0.71588545,-0.63743225,10.8265416,0.0,19.7580013275,-0.0222254116088,0.355461329222,0.0208502728492,-0.123678401113,0.343125462532,-4.85999965668,-400.05569458,-409.146484375,-155.964393616,-8.47394895554,-6.163715362600001,15.469542980194,-19.818605423000005,0.17135483026500198,16.0
2018-10-05 20:06:17.850,0.342030815228,-0.0331233465449,0.1020618848,-0.0887029990554,-0.123960420489,0.246052101254,-0.77472535,0.38245935,11.2384209,0.0,19.7580013275,-0.0222254116088,0.355461329222,0.0208502728492,-0.123678401113,0.343125462532,-4.85999965668,-400.05569458,-409.146484375,-146.311317444,-4.276797235009,-4.795658111599998,15.171352922916,-19.846776962300005,0.10448831319800196,16.0
2018-10-05 20:06:17.900,0.342030815228,-0.0331233465449,0.1020618848,-0.0887029990554,-0.123960420489,0.246052101254,-0.77472535,0.38245935,11.2384209,0.0,19.7580013275,-0.0222254116088,0.355461329222,0.0208502728492,-0.123678401113,0.343125462532,-4.96000003815,-409.051330566,-411.158325195,-146.311317444,-4.546796977519,-4.795658111599998,14.74203455448,-19.874799728400003,-0.004432520363478041,16.0
2018-10-05 20:06:17.950,0.342030815228,-0.0331233465449,0.1020618848,-0.0887029990554,-0.123960420489,0.246052101254,-0.77472535,0.38245935,11.2384209,0.0,19.7580013275,-0.0222254116088,0.355461329222,0.0208502728492,-0.123678401113,0.343125462532,-4.96000003815,-409.051330566,-411.158325195,-146.311317444,-4.536797225479,-4.795658111599998,14.47565543652,-19.887395858800005,-0.09650072455409804,16.0
2018-10-05 20:06:18.000,0.342030815228,-0.0331233465449,0.1020618848,-0.0887029990554,-0.123960420489,0.246052101254,-0.77472535,0.38245935,11.2384209,0.0,19.8873958588,1.52434456348,-0.0965007245541,-0.0887029990554,-0.123960420489,0.246052101254,-5.03999996185,-409.051330566,-413.170227051,-146.311317444,-4.776796996589,-4.795658111599998,14.07290387154,-19.909027099600003,-0.22627533972299804,16.0
2018-10-05 20:06:18.050,0.342030815228,-0.0331233465449,0.1020618848,-0.0887029990554,-0.123960420489,0.246052101254,-0.77472535,0.38245935,11.2384209,0.0,19.8873958588,1.52434456348,-0.0965007245541,-0.0887029990554,-0.123960420489,0.246052101254,-5.03999996185,-409.051330566,-413.170227051,-146.311317444,-4.776796996589,-4.795658111599998,13.82575297356,-19.916913986200004,-0.31955796480199805,16.0
2018-10-05 20:06:18.100,0.342030815228,-0.0331233465449,0.1020618848,-0.0887029990554,-0.123960420489,0.246052101254,-0.77472535,0.38245935,11.2384209,0.0,19.8873958588,1.52434456348,-0.0965007245541,-0.0887029990554,-0.123960420489,0.246052101254,-5.08999967575,-413.833618164,-415.190551758,-146.311317444,-4.9167973399189995,-4.795658111599998,13.42557787895,-19.927284240700004,-0.4359623491759981,16.0
2018-10-05 20:06:18.150,0.351653221057,-0.0302307806545,0.066694864843,-0.0516172535717,-0.141959473491,0.260172843933,-0.9218251,-0.1176798,10.67944185,0.0,19.8873958588,1.52434456348,-0.0965007245541,-0.0887029990554,-0.123960420489,0.246052101254,-5.10999965668,-413.833618164,-417.210906982,-142.3810424805,-4.014561772347,-3.6572036743,13.42557787895,-19.927284240700004,-0.4359623491759981,16.0
2018-10-05 20:06:18.200,0.351653221057,-0.0302307806545,0.066694864843,-0.0516172535717,-0.141959473491,0.260172843933,-0.9218251,-0.1176798,10.67944185,0.0,19.8873958588,1.52434456348,-0.0965007245541,-0.0887029990554,-0.123960420489,0.246052101254,-5.10999965668,-413.833618164,-417.210906982,-142.3810424805,-4.014561772347,-3.6572036743,12.73961591721,-19.937854766800005,-0.644434988498998,16.0
2018-10-05 20:06:18.250,0.351653221057,-0.0302307806545,0.066694864843,-0.0516172535717,-0.141959473491,0.260172843933,-0.9218251,-0.1176798,10.67944185,0.0,19.9376182556,3.40547418594,-0.686184465885,-0.0516172535717,-0.141959473491,0.260172843933,-5.10999965668,-413.833618164,-417.210906982,-142.3810424805,-4.004561543467,-3.6572036743,12.45973587036,-19.937660217300003,-0.729801595210998,16.0
2018-10-05 20:06:18.300,0.351653221057,-0.0302307806545,0.066694864843,-0.0516172535717,-0.141959473491,0.260172843933,-0.9218251,-0.1176798,10.67944185,0.0,19.9376182556,3.40547418594,-0.686184465885,-0.0516172535717,-0.141959473491,0.260172843933,-5.10999965668,-408.5027771,-419.231231689,-142.3810424805,-4.034561753277,-3.6572036743,12.03205227852,-19.937297821000005,-0.844961106776998,16.0
2018-10-05 20:06:18.350,0.351653221057,-0.0302307806545,0.066694864843,-0.0516172535717,-0.141959473491,0.260172843933,-0.9218251,-0.1176798,10.67944185,0.0,19.9376182556,3.40547418594,-0.686184465885,-0.0516172535717,-0.141959473491,0.260172843933,-5.10999965668,-408.5027771,-419.231231689,-142.3810424805,-4.034561753277,-3.6472053526999986,11.753058910370001,-19.929170608500005,-0.935114204883998,16.0
2018-10-05 20:06:18.400,0.351653221057,-0.0302307806545,0.066694864843,-0.0516172535717,-0.141959473491,0.260172843933,-0.9218251,-0.1176798,10.67944185,0.0,19.9376182556,3.40547418594,-0.686184465885,-0.0516172535717,-0.141959473491,0.260172843933,-5.09999990463,-408.5027771,-421.251556396,-142.3810424805,-4.024561524387,-3.6472053526999986,11.4909529686,-19.918273925800005,-1.037994384769998,16.0
2018-10-05 20:06:18.450,0.351653221057,-0.0302307806545,0.066694864843,-0.0516172535717,-0.141959473491,0.260172843933,-0.9218251,-0.1176798,10.67944185,0.0,19.8939628601,4.90403223038,-1.19716978073,-0.0516172535717,-0.141959473491,0.260172843933,-5.09999990463,-408.5027771,-421.251556396,-142.3810424805,-4.014561772347,-3.637203216499998,11.09596776962,-19.893962860100004,-1.197169780729998,16.0
2018-10-05 20:06:18.500,0.366642812348,-0.0223945739007,0.00224758942831,-0.0383582562208,-0.193555131555,0.284994900227,-0.85317855,-0.00980665,10.65982855,0.0,19.8939628601,4.90403223038,-1.19716978073,-0.0516172535717,-0.141959473491,0.260172843933,-5.05999994278,-396.955688477,-423.263397217,-142.3810424805,-3.9045616388370004,-3.637203216499998,10.830932617190001,-19.876560211200005,-1.296657443049998,16.0
2018-10-05 20:06:18.550,0.366642812348,-0.0223945739007,0.00224758942831,-0.0383582562208,-0.193555131555,0.284994900227,-0.85317855,-0.00980665,10.65982855,0.0,19.8939628601,4.90403223038,-1.19716978073,-0.0516172535717,-0.141959473491,0.260172843933,-5.05999994278,-396.955688477,-423.263397217,-135.1814651489,-2.1569955349000005,-1.9174690246999972,10.830932617190001,-19.876560211200005,-1.296657443049998,16.0
2018-10-05 20:06:18.600,0.366642812348,-0.0223945739007,0.00224758942831,-0.0383582562208,-0.193555131555,0.284994900227,-0.85317855,-0.00980665,10.65982855,0.0,19.8939628601,4.90403223038,-1.19716978073,-0.0516172535717,-0.141959473491,0.260172843933,-4.98999977112,-396.955688477,-425.266815186,-135.1814651489,-1.9969956874800006,-1.9074707031999978,10.1521897316,-19.822111129800003,-1.514270544049998,16.0
2018-10-05 20:06:18.650,0.366642812348,-0.0223945739007,0.00224758942831,-0.0383582562208,-0.193555131555,0.284994900227,-0.85317855,-0.00980665,10.65982855,0.0,19.8939628601,4.90403223038,-1.19716978073,-0.0516172535717,-0.141959473491,0.260172843933,-4.98999977112,-396.955688477,-425.266815186,-135.1814651489,-1.9969956874800006,-1.9074707031999978,10.1521897316,-19.822111129800003,-1.514270544049998,16.0
2018-10-05 20:06:18.700,0.366642812348,-0.0223945739007,0.00224758942831,-0.0383582562208,-0.193555131555,0.284994900227,-0.85317855,-0.00980665,10.65982855,0.0,19.8939628601,4.90403223038,-1.19716978073,-0.0516172535717,-0.141959473491,0.260172843933,-4.90999984741,-425.585357666,-427.253356934,-135.1814651489,-1.81699585914,-1.8974723815999965,9.50454235077,-19.753978729200004,-1.749546170229998,16.0
2018-10-05 20:06:18.750,0.366642812348,-0.0223945739007,0.00224758942831,-0.0383582562208,-0.193555131555,0.284994900227,-0.85317855,-0.00980665,10.65982855,0.0,19.7383213043,6.62814950943,-1.78948259354,-0.0383582562208,-0.193555131555,0.284994900227,-4.90999984741,-425.585357666,-427.253356934,-135.1814651489,-1.81699585914,-1.887470245400003,9.0978603363,-19.701583862300005,-1.878977417949998,16.0
2018-10-05 20:06:18.800,0.366642812348,-0.0223945739007,0.00224758942831,-0.0383582562208,-0.193555131555,0.284994900227,-0.85317855,-0.00980665,10.65982855,0.0,19.7383213043,6.62814950943,-1.78948259354,-0.0383582562208,-0.193555131555,0.284994900227,-4.78999996185,-425.585357666,-429.265228271,-135.1814651489,-1.5169956684100003,-1.8774719238999964,8.67296123505,-19.644252777100004,-1.986080288889998,16.0
2018-10-05 20:06:18.850,0.360193907083,-0.0131645224833,-0.0496916791396,-0.119772747159,-0.191883787513,0.25935319066,-0.81395195,0.18632635,11.18938765,0.0,19.7383213043,6.62814950943,-1.78948259354,-0.0383582562208,-0.193555131555,0.284994900227,-4.78999996185,-425.585357666,-429.265228271,-135.1814651489,-1.5169956684100003,-2.7914352416999932,8.67296123505,-19.644252777100004,-1.986080288889998,16.0
2018-10-05 20:06:18.900,0.360193907083,-0.0131645224833,-0.0496916791396,-0.119772747159,-0.191883787513,0.25935319066,-0.81395195,0.18632635,11.18938765,0.0,19.7383213043,6.62814950943,-1.78948259354,-0.0383582562208,-0.193555131555,0.284994900227,-4.65999984741,-421.778106689,-431.226409912,-129.2251968384,-0.061719894410000364,-2.7914352416999932,8.045741558069999,-19.552715301500005,-2.088461399079998,16.0
2018-10-05 20:06:18.950,0.360193907083,-0.0131645224833,-0.0496916791396,-0.119772747159,-0.191883787513,0.25935319066,-0.81395195,0.18632635,11.18938765,0.0,19.501909256,8.28261089325,-2.12810540199,-0.119772747159,-0.191883787513,0.25935319066,-4.65999984741,-421.778106689,-431.226409912,-129.2251968384,-0.061719894410000364,-2.7914352416999932,8.045741558069999,-19.552715301500005,-2.088461399079998,16.0
2018-10-05 20:06:19.000,0.360193907083,-0.0131645224833,-0.0496916791396,-0.119772747159,-0.191883787513,0.25935319066,-0.81395195,0.18632635,11.18938765,0.0,19.501909256,8.28261089325,-2.12810540199,-0.119772747159,-0.191883787513,0.25935319066,-4.50999975204,-421.778106689,-433.187561035,-129.2251968384,0.23828005790999995,-2.781433105399998,7.25263595581,-19.417253494300002,-2.1919739246399983,16.0
2018-10-05 20:06:19.050,0.360193907083,-0.0131645224833,-0.0496916791396,-0.119772747159,-0.191883787513,0.25935319066,-0.81395195,0.18632635,11.18938765,0.0,19.501909256,8.28261089325,-2.12810540199,-0.119772747159,-0.191883787513,0.25935319066,-4.36000013351,-424.179840088,-435.140258789,-129.2251968384,0.5882802009599999,-2.781433105399998,6.685885429380001,-19.292453765900003,-2.336775064469998,16.0
2018-10-05 20:06:19.100,0.360193907083,-0.0131645224833,-0.0496916791396,-0.119772747159,-0.191883787513,0.25935319066,-0.81395195,0.18632635,11.18938765,0.0,19.501909256,8.28261089325,-2.12810540199,-0.119772747159,-0.191883787513,0.25935319066,-4.36000013351,-424.179840088,-435.140258789,-129.2251968384,0.5882802009599999,-2.781433105399998,6.564276695249999,-19.262609481800002,-2.3767874240899984,16.0
2018-10-05 20:06:19.150,0.360193907083,-0.0131645224833,-0.0496916791396,-0.119772747159,-0.191883787513,0.25935319066,-0.81395195,0.18632635,11.18938765,0.0,19.1672458649,9.82222938538,-2.50004315376,-0.119772747159,-0.191883787513,0.25935319066,-4.36000013351,-424.179840088,-435.140258789,-129.2251968384,0.5782802105,-2.7714347838999984,6.3143901825,-19.199819564800002,-2.4615929126699982,16.0
2018-10-05 20:06:19.200,0.360193907083,-0.0131645224833,-0.0496916791396,-0.119772747159,-0.191883787513,0.25935319066,-0.81395195,0.18632635,11.18938765,0.0,19.1672458649,9.82222938538,-2.50004315376,-0.119772747159,-0.191883787513,0.25935319066,-4.17999982834,-424.179840088,-437.076049805,-129.2251968384,1.0182800293,-2.7714347838999984,6.046795845029999,-19.133539199800005,-2.542073488239998,16.0
2018-10-05 20:06:19.250,0.356758447352,0.00619519188625,-0.117442829161,0.0581145510077,-0.228778287768,0.297296077013,-0.75511205,-0.06864655,10.77750835,0.0,19.1672458649,9.82222938538,-2.50004315376,-0.119772747159,-0.191883787513,0.25935319066,-4.17999982834,-424.179840088,-437.076049805,-129.2251968384,1.0082800388399997,-2.7614326476999977,5.639333725,-19.023168563800002,-2.638443469999998,16.0
2018-10-05 20:06:19.300,0.356758447352,0.00619519188625,-0.117442829161,0.0581145510077,-0.228778287768,0.297296077013,-0.75511205,-0.06864655,10.77750835,0.0,19.1672458649,9.82222938538,-2.50004315376,-0.119772747159,-0.191883787513,0.25935319066,-3.99000000954,-449.825866699,-438.986480713,-121.1330947876,2.14693403244,-3.2493324279000007,5.0911989212,-18.862960815400005,-2.734655380249998,16.0
2018-10-05 20:06:19.350,0.356758447352,0.00619519188625,-0.117442829161,0.0581145510077,-0.228778287768,0.297296077013,-0.75511205,-0.06864655,10.77750835,0.0,19.1672458649,9.82222938538,-2.50004315376,-0.119772747159,-0.191883787513,0.25935319066,-3.77999997139,-456.828491211,-440.888458252,-121.1330947876,2.60693407059,-3.2293319702000005,4.6656961441,-18.729812622100003,-2.787305831909998,16.0
2018-10-05 20:06:19.400,0.356758447352,0.00619519188625,-0.117442829161,0.0581145510077,-0.228778287768,0.297296077013,-0.75511205,-0.06864655,10.77750835,0.0,18.684425354,11.4723558426,-2.80075240135,0.0581145510077,-0.228778287768,0.297296077013,-3.77999997139,-456.828491211,-440.888458252,-121.1330947876,2.60693407059,-3.2293319702000005,4.6656961441,-18.729812622100003,-2.787305831909998,16.0
2018-10-05 20:06:19.450,0.356758447352,0.00619519188625,-0.117442829161,0.0581145510077,-0.228778287768,0.297296077013,-0.75511205,-0.06864655,10.77750835,0.0,18.684425354,11.4723558426,-2.80075240135,0.0581145510077,-0.228778287768,0.297296077013,-3.56999993324,-456.828491211,-442.765106201,-121.1330947876,2.60693407059,-3.2093315123999986,3.9999723433999996,-18.495941162100003,-2.884027481079998,16.0
2018-10-05 20:06:19.500,0.356758447352,0.00619519188625,-0.117442829161,0.0581145510077,-0.228778287768,0.297296077013,-0.75511205,-0.06864655,10.77750835,0.0,18.684425354,11.4723558426,-2.80075240135,0.0581145510077,-0.228778287768,0.297296077013,-3.56999993324,-456.828491211,-442.765106201,-121.1330947876,3.0869340896599997,-3.199333190899999,3.9999723433999996,-18.495941162100003,-2.884027481079998,16.0
2018-10-05 20:06:19.550,0.356758447352,0.00619519188625,-0.117442829161,0.0581145510077,-0.228778287768,0.297296077013,-0.75511205,-0.06864655,10.77750835,0.0,18.684425354,11.4723558426,-2.80075240135,0.0581145510077,-0.228778287768,0.297296077013,-3.56999993324,-456.828491211,-442.765106201,-121.1330947876,3.0869340896599997,-3.1893310546999984,3.5715875625999995,-18.334718704200004,-2.942639350889998,16.0
2018-10-05 20:06:19.600,0.356758447352,0.00619519188625,-0.117442829161,0.0581145510077,-0.228778287768,0.297296077013,-0.75511205,-0.06864655,10.77750835,0.0,18.684425354,11.4723558426,-2.80075240135,0.0581145510077,-0.228778287768,0.297296077013,-3.33999991417,-456.828491211,-444.624847412,-121.1330947876,3.61693406105,-3.1893310546999984,3.2574596405000005,-18.213624954200004,-2.948340177539998,16.0
2018-10-05 20:06:19.650,0.356758447352,0.00619519188625,-0.117442829161,0.0581145510077,-0.228778287768,0.297296077013,-0.75511205,-0.06864655,10.77750835,0.0,17.9329986572,13.4388523102,-2.88623094559,0.0581145510077,-0.228778287768,0.297296077013,-3.1099998951,-502.858917236,-446.442260742,-121.1330947876,4.026934035122,-3.1793327331000043,2.7436084747000002,-18.008441925000003,-2.906239032749998,16.0
2018-10-05 20:06:19.700,0.361812718218,0.0350566109821,-0.21976975378,-0.198816239834,-0.343045026064,0.368571221828,-0.6276256,0.0392266,13.46453045,0.0,17.9329986572,13.4388523102,-2.88623094559,0.0581145510077,-0.228778287768,0.297296077013,-3.1099998951,-502.858917236,-446.442260742,-121.1330947876,4.026934035122,-3.1793327331000043,2.1913003922000005,-17.776182174700004,-2.836051702499998,16.0
2018-10-05 20:06:19.750,0.361812718218,0.0350566109821,-0.21976975378,-0.198816239834,-0.343045026064,0.368571221828,-0.6276256,0.0392266,13.46453045,0.0,17.9329986572,13.4388523102,-2.88623094559,0.0581145510077,-0.228778287768,0.297296077013,-3.1099998951,-502.858917236,-446.442260742,-108.8349151611,5.373416557906,-2.4654350281000035,1.8174247741999991,-17.609823226900005,-2.777041673659998,16.0
2018-10-05 20:06:19.800,0.361812718218,0.0350566109821,-0.21976975378,-0.198816239834,-0.343045026064,0.368571221828,-0.6276256,0.0392266,13.46453045,0.0,17.9329986572,13.4388523102,-2.88623094559,0.0581145510077,-0.228778287768,0.297296077013,-2.88999986649,-502.858917236,-448.217163086,-108.8349151611,5.73341655731,-2.4654350281000035,1.4346923827999998,-17.430809021000005,-2.706277132029998,16.0
2018-10-05 20:06:19.850,0.361812718218,0.0350566109821,-0.21976975378,-0.198816239834,-0.343045026064,0.368571221828,-0.6276256,0.0392266,13.46453045,0.0,17.9329986572,13.4388523102,-2.88623094559,0.0581145510077,-0.228778287768,0.297296077013,-2.88999986649,-502.858917236,-448.217163086,-108.8349151611,5.73341655731,-2.4654350281000035,1.4346923827999998,-17.430809021000005,-2.706277132029998,16.0
2018-10-05 20:06:19.900,0.361812718218,0.0350566109821,-0.21976975378,-0.198816239834,-0.343045026064,0.368571221828,-0.6276256,0.0392266,13.46453045,0.0,16.837305069,15.7204341888,-2.49527287483,-0.198816239834,-0.343045026064,0.368571221828,-2.70000004768,-514.531311035,-449.95010376,-108.8349151611,6.0134165287,-2.4654350281000035,0.46956825260000024,-16.940181732200003,-2.525038242339998,16.0
2018-10-05 20:06:19.950,0.361812718218,0.0350566109821,-0.21976975378,-0.198816239834,-0.343045026064,0.368571221828,-0.6276256,0.0392266,13.46453045,0.0,16.837305069,15.7204341888,-2.49527287483,-0.198816239834,-0.343045026064,0.368571221828,-2.70000004768,-514.531311035,-449.95010376,-108.8349151611,6.023416519163,-2.4654350281000035,-0.2796306609999988,-16.519294738800003,-2.4149339199099984,16.0
2018-10-05 20:06:20.000,0.361812718218,0.0350566109821,-0.21976975378,-0.198816239834,-0.343045026064,0.368571221828,-0.6276256,0.0392266,13.46453045,0.0,16.837305069,15.7204341888,-2.49527287483,-0.198816239834,-0.343045026064,0.368571221828,-2.70000004768,-514.531311035,-449.95010376,-108.8349151611,6.023416519163,-2.4654350281000035,-0.2796306609999988,-16.519294738800003,-2.4149339199099984,16.0
2018-10-05 20:06:20.050,0.361812718218,0.0350566109821,-0.21976975378,-0.198816239834,-0.343045026064,0.368571221828,-0.6276256,0.0392266,13.46453045,0.0,16.837305069,15.7204341888,-2.49527287483,-0.198816239834,-0.343045026064,0.368571221828,-2.32999992371,-489.339630127,-453.238311768,-108.8349151611,6.353416562078,-2.455436706600004,-1.1675052643000008,-15.962237358100003,-2.3366632461499983,16.0
2018-10-05 20:06:20.100,0.378407852332,0.0761308422485,-0.304864538165,-0.0443988032639,-0.353049695492,0.320816397667,-0.44129925,0.0980665,14.36674225,0.0,16.837305069,15.7204341888,-2.49527287483,-0.198816239834,-0.343045026064,0.368571221828,-2.32999992371,-489.339630127,-453.238311768,-108.8349151611,6.353416562078,-2.455436706600004,-1.1675052643000008,-15.962237358100003,-2.3366632461499983,16.0
2018-10-05 20:06:20.150,0.378407852332,0.0761308422485,-0.304864538165,-0.0443988032639,-0.353049695492,0.320816397667,-0.44129925,0.0980665,14.36674225,0.0,15.6276597977,17.6534175873,-2.3313498497,-0.0443988032639,-0.353049695492,0.320816397667,-2.14999985695,-489.339630127,-454.793670654,-97.7473831177,7.163013696669999,0.3157310486,-2.1818428039999986,-15.243103027300004,-2.2591760158499983,16.0
2018-10-05 20:06:20.200,0.378407852332,0.0761308422485,-0.304864538165,-0.0443988032639,-0.353049695492,0.320816397667,-0.44129925,0.0980665,14.36674225,0.0,15.6276597977,17.6534175873,-2.3313498497,-0.0443988032639,-0.353049695492,0.320816397667,-2.14999985695,-489.339630127,-454.793670654,-97.7473831177,7.163013696669999,0.3157310486,-2.3481769561999997,-15.114316940300004,-2.2374165058099984,16.0
2018-10-05 20:06:20.250,0.378407852332,0.0761308422485,-0.304864538165,-0.0443988032639,-0.353049695492,0.320816397667,-0.44129925,0.0980665,14.36674225,0.0,15.6276597977,17.6534175873,-2.3313498497,-0.0443988032639,-0.353049695492,0.320816397667,-2.14999985695,-489.339630127,-454.793670654,-97.7473831177,7.42301368713,0.2957305908000052,-2.3481769561999997,-15.114316940300004,-2.2374165058099984,16.0
2018-10-05 20:06:20.300,0.378407852332,0.0761308422485,-0.304864538165,-0.0443988032639,-0.353049695492,0.320816397667,-0.44129925,0.0980665,14.36674225,0.0,15.6276597977,17.6534175873,-2.3313498497,-0.0443988032639,-0.353049695492,0.320816397667,-1.99000000954,-513.401428223,-456.264373779,-97.7473831177,7.42301368713,0.2957305908000052,-3.006563186600001,-14.587365150500004,-2.1287381648999983,16.0
2018-10-05 20:06:20.350,0.378407852332,0.0761308422485,-0.304864538165,-0.0443988032639,-0.353049695492,0.320816397667,-0.44129925,0.0980665,14.36674225,0.0,15.6276597977,17.6534175873,-2.3313498497,-0.0443988032639,-0.353049695492,0.320816397667,-1.99000000954,-513.401428223,-456.264373779,-97.7473831177,7.42301368713,0.2957305908000052,-3.006563186600001,-14.587365150500004,-2.1287381648999983,16.0
2018-10-05 20:06:20.400,0.378407852332,0.0761308422485,-0.304864538165,-0.0443988032639,-0.353049695492,0.320816397667,-0.44129925,0.0980665,14.36674225,0.0,15.6276597977,17.6534175873,-2.3313498497,-0.0443988032639,-0.353049695492,0.320816397667,-1.82999992371,-513.401428223,-457.692962646,-97.7473831177,7.6830136776,0.27573013300000326,-4.110334396399999,-13.598055839500004,-1.926864385599998,16.0
2018-10-05 20:06:20.450,0.358348212938,0.107978872243,-0.374136282307,-0.0298405829817,-0.388777196407,0.326998442411,-0.2157463,0.06864655,15.5925735,0.0,13.5980558395,20.1103343964,-1.9268643856,-0.0443988032639,-0.353049695492,0.320816397667,-1.82999992371,-513.401428223,-457.692962646,-88.36686325069999,6.920411348349999,-1.1181945801000026,-4.405221939099999,-13.306793212900004,-1.874758839609998,16.0
2018-10-05 20:06:20.500,0.358348212938,0.107978872243,-0.374136282307,-0.0298405829817,-0.388777196407,0.326998442411,-0.2157463,0.06864655,15.5925735,0.0,13.5980558395,20.1103343964,-1.9268643856,-0.0443988032639,-0.353049695492,0.320816397667,-1.68999993801,-541.292358398,-459.037078857,-88.36686325069999,7.13041138649,-1.1181945801000026,-4.548463821399999,-13.155887603800004,-1.853499531749998,16.0
2018-10-05 20:06:20.550,0.358348212938,0.107978872243,-0.374136282307,-0.0298405829817,-0.388777196407,0.326998442411,-0.2157463,0.06864655,15.5925735,0.0,13.5980558395,20.1103343964,-1.9268643856,-0.0443988032639,-0.353049695492,0.320816397667,-1.68999993801,-541.292358398,-459.037078857,-88.36686325069999,7.13041138649,-1.128192901600002,-4.984924316400001,-12.686360359200004,-1.759384870529998,16.0
2018-10-05 20:06:20.600,0.358348212938,0.107978872243,-0.374136282307,-0.0298405829817,-0.388777196407,0.326998442411,-0.2157463,0.06864655,15.5925735,0.0,12.0226488113,21.5410842896,-1.63713645935,-0.0298405829817,-0.388777196407,0.326998442411,-1.54999995232,-541.292358398,-460.313110352,-88.36686325069999,7.3504114151,-1.1381912231000015,-5.407175064099999,-12.192470550500003,-1.665546894069998,16.0
2018-10-05 20:06:20.650,0.358348212938,0.107978872243,-0.374136282307,-0.0298405829817,-0.388777196407,0.326998442411,-0.2157463,0.06864655,15.5925735,0.0,12.0226488113,21.5410842896,-1.63713645935,-0.0298405829817,-0.388777196407,0.326998442411,-1.43999993801,-555.257019043,-461.479644775,-88.36686325069999,7.490411281589999,-1.1381912231000015,-5.9523811339999995,-11.494342804000004,-1.534196019169998,16.0
2018-10-05 20:06:20.700,0.358348212938,0.107978872243,-0.374136282307,-0.0298405829817,-0.388777196407,0.326998442411,-0.2157463,0.06864655,15.5925735,0.0,12.0226488113,21.5410842896,-1.63713645935,-0.0298405829817,-0.388777196407,0.326998442411,-1.43999993801,-555.257019043,-461.479644775,-88.36686325069999,7.490411281589999,-1.1381912231000015,-5.9523811339999995,-11.494342804000004,-1.534196019169998,16.0
2018-10-05 20:06:20.750,0.345065364764,0.140232319054,-0.442204681961,0.0153472255915,-0.384832710028,0.374951303005,-0.2549729,0.2941995,15.68083335,0.0,12.0226488113,21.5410842896,-1.63713645935,-0.0298405829817,-0.388777196407,0.326998442411,-1.43999993801,-555.257019043,-461.479644775,-78.8372268677,6.9984087943999995,-1.3292732238000013,-6.5761699677,-10.594474792500003,-1.410871505739998,16.0
2018-10-05 20:06:20.800,0.345065364764,0.140232319054,-0.442204681961,0.0153472255915,-0.384832710028,0.374951303005,-0.2549729,0.2941995,15.68083335,0.0,12.0226488113,21.5410842896,-1.63713645935,-0.0298405829817,-0.388777196407,0.326998442411,-1.33999991417,-577.981750488,-462.578277588,-78.8372268677,7.1584088802300005,-1.3292732238000013,-6.6875953674,-10.420685768100004,-1.386196136469998,16.0
2018-10-05 20:06:20.850,0.345065364764,0.140232319054,-0.442204681961,0.0153472255915,-0.384832710028,0.374951303005,-0.2549729,0.2941995,15.68083335,0.0,10.0574092865,22.9172649384,-1.34754323959,0.0153472255915,-0.384832710028,0.374951303005,-1.33999991417,-577.981750488,-462.578277588,-78.8372268677,7.1584088802300005,-1.3292732238000013,-6.6875953674,-10.420685768100004,-1.386196136469998,16.0
2018-10-05 20:06:20.900,0.345065364764,0.140232319054,-0.442204681961,0.0153472255915,-0.384832710028,0.374951303005,-0.2549729,0.2941995,15.68083335,0.0,10.0574092865,22.9172649384,-1.34754323959,0.0153472255915,-0.384832710028,0.374951303005,-1.25999999046,-577.981750488,-463.575744629,-78.8372268677,7.29840874672,-1.3392715454000026,-7.243740081799999,-9.498592376710004,-1.285332441329998,16.0
2018-10-05 20:06:20.950,0.345065364764,0.140232319054,-0.442204681961,0.0153472255915,-0.384832710028,0.374951303005,-0.2549729,0.2941995,15.68083335,0.0,10.0574092865,22.9172649384,-1.34754323959,0.0153472255915,-0.384832710028,0.374951303005,-1.16999995708,-577.981750488,-464.48840332,-78.8372268677,7.28840875625,-1.3492736816000033,-7.647539138799999,-8.758971214290003,-1.216768264769998,16.0
2018-10-05 20:06:21.000,0.345065364764,0.140232319054,-0.442204681961,0.0153472255915,-0.384832710028,0.374951303005,-0.2549729,0.2941995,15.68083335,0.0,10.0574092865,22.9172649384,-1.34754323959,0.0153472255915,-0.384832710028,0.374951303005,-1.16999995708,-577.981750488,-464.48840332,-78.8372268677,7.28840875625,-1.3492736816000033,-7.647539138799999,-8.758971214290003,-1.216768264769998,16.0
2018-10-05 20:06:21.050,0.345065364764,0.140232319054,-0.442204681961,0.0153472255915,-0.384832710028,0.374951303005,-0.2549729,0.2941995,15.68083335,0.0,8.01353740692,24.0011062622,-1.13299095631,0.0153472255915,-0.384832710028,0.374951303005,-1.16999995708,-577.981750488,-464.48840332,-78.8372268677,7.44840884208,-1.3792724609000047,-8.0011062622,-8.013537406920003,-1.132990956309998,16.0
2018-10-05 20:06:21.100,0.345065364764,0.140232319054,-0.442204681961,0.0153472255915,-0.384832710028,0.374951303005,-0.2549729,0.2941995,15.68083335,0.0,8.01353740692,24.0011062622,-1.13299095631,0.0153472255915,-0.384832710028,0.374951303005,-1.10000002384,-590.128723145,-465.29989624,-78.8372268677,7.558408737180001,-1.3792724609000047,-8.1511573792,-7.660189628600004,-1.101852536199998,16.0
2018-10-05 20:06:21.150,0.316360271198,0.185644411453,-0.5248143066,-0.00475925952196,-0.397604376078,0.262102127075,-0.12748645,1.7594184910599999e-15,14.36674225,0.0,8.01353740692,24.0011062622,-1.13299095631,0.0153472255915,-0.384832710028,0.374951303005,-1.10000002384,-590.128723145,-465.29989624,-78.8372268677,7.558408737180001,-1.3992729186999995,-8.392137527500001,-7.092217445370004,-1.048135042189998,16.0
2018-10-05 20:06:21.200,0.316360271198,0.185644411453,-0.5248143066,-0.00475925952196,-0.397604376078,0.262102127075,-0.12748645,1.7594184910599999e-15,14.36674225,0.0,8.01353740692,24.0011062622,-1.13299095631,0.0153472255915,-0.384832710028,0.374951303005,-1.02999997139,-590.128723145,-466.026611328,-66.3727359772,5.9960389137300005,-1.989822387699995,-8.535348892199998,-6.688127994540004,-0.985488235949998,16.0
2018-10-05 20:06:21.250,0.316360271198,0.185644411453,-0.5248143066,-0.00475925952196,-0.397604376078,0.262102127075,-0.12748645,1.7594184910599999e-15,14.36674225,0.0,8.01353740692,24.0011062622,-1.13299095631,0.0153472255915,-0.384832710028,0.374951303005,-0.979999959469,-600.885009766,-466.643707275,-66.3727359772,5.9960389137300005,-1.9998207091999944,-8.736698150599999,-6.099930286410004,-0.898630857467998,16.0
2018-10-05 20:06:21.300,0.316360271198,0.185644411453,-0.5248143066,-0.00475925952196,-0.397604376078,0.262102127075,-0.12748645,1.7594184910599999e-15,14.36674225,0.0,8.01353740692,24.0011062622,-1.13299095631,0.0153472255915,-0.384832710028,0.374951303005,-0.979999959469,-600.885009766,-466.643707275,-66.3727359772,6.03603887558,-2.009822845399995,-8.736698150599999,-6.099930286410004,-0.898630857467998,16.0
2018-10-05 20:06:21.350,0.316360271198,0.185644411453,-0.5248143066,-0.00475925952196,-0.397604376078,0.262102127075,-0.12748645,1.7594184910599999e-15,14.36674225,0.0,5.55121946335,24.896818161,-0.840017437935,-0.00475925952196,-0.397604376078,0.262102127075,-0.979999959469,-600.885009766,-466.643707275,-66.3727359772,6.02603888512,-2.009822845399995,-8.9506797791,-5.3727726936300035,-0.825883328914998,16.0
2018-10-05 20:06:21.400,0.316360271198,0.185644411453,-0.5248143066,-0.00475925952196,-0.397604376078,0.262102127075,-0.12748645,1.7594184910599999e-15,14.36674225,0.0,5.55121946335,24.896818161,-0.840017437935,-0.00475925952196,-0.397604376078,0.262102127075,-0.930000007153,-600.885009766,-467.176239014,-66.3727359772,6.0860388278999995,-2.0198211669999964,-9.083408355700001,-4.8238573074300035,-0.770888745784998,16.0
2018-10-05 20:06:21.450,0.316360271198,0.185644411453,-0.5248143066,-0.00475925952196,-0.397604376078,0.262102127075,-0.12748645,1.7594184910599999e-15,14.36674225,0.0,5.55121946335,24.896818161,-0.840017437935,-0.00475925952196,-0.397604376078,0.262102127075,-0.930000007153,-600.885009766,-467.176239014,-66.3727359772,6.0860388278999995,-2.0198211669999964,-9.1639003754,-4.474741935730004,-0.739752054213998,16.0
2018-10-05 20:06:21.500,0.316360271198,0.185644411453,-0.5248143066,-0.00475925952196,-0.397604376078,0.262102127075,-0.12748645,1.7594184910599999e-15,14.36674225,0.0,5.55121946335,24.896818161,-0.840017437935,-0.00475925952196,-0.397604376078,0.262102127075,-0.909999966621,-617.749755859,-467.615356445,-66.3727359772,6.11603879929,-2.0198211669999964,-9.3275909424,-3.6798336505900036,-0.566909909247998,16.0
2018-10-05 20:06:21.550,0.316360271198,0.185644411453,-0.5248143066,-0.00475925952196,-0.397604376078,0.262102127075,-0.12748645,1.7594184910599999e-15,14.36674225,0.0,5.55121946335,24.896818161,-0.840017437935,-0.00475925952196,-0.397604376078,0.262102127075,-0.909999966621,-617.749755859,-467.615356445,-66.3727359772,6.11603879929,-2.0198211669999964,-9.4074516296,-3.2707726955400034,-0.45467233657799805,16.0
2018-10-05 20:06:21.600,0.316360271198,0.185644411453,-0.5248143066,-0.00475925952196,-0.397604376078,0.262102127075,-0.12748645,1.7594184910599999e-15,14.36674225,0.0,3.27077269554,25.4074516296,-0.454672336578,-0.00475925952196,-0.397604376078,0.262102127075,-0.879999995232,-617.749755859,-467.978881836,-66.3727359772,6.016038894659999,-2.0198211669999964,-9.4530658722,-2.8879616260500036,-0.36075529456099803,16.0
2018-10-05 20:06:21.650,0.316360271198,0.185644411453,-0.5248143066,-0.00475925952196,-0.397604376078,0.262102127075,-0.12748645,1.7594184910599999e-15,14.36674225,0.0,3.27077269554,25.4074516296,-0.454672336578,-0.00475925952196,-0.397604376078,0.262102127075,-0.889999985695,-619.813903809,-468.224029541,-66.3727359772,5.88603878022,-2.0198211669999964,-9.496112823499999,-2.4902653694200034,-0.27246475219699806,16.0
2018-10-05 20:06:21.700,0.270497528227,0.230177919716,-0.621363045999,-0.0336165353656,-0.338017076254,0.428253799677,0.0392266,-0.3334261,15.6121868,0.0,3.27077269554,25.4074516296,-0.454672336578,-0.00475925952196,-0.397604376078,0.262102127075,-0.889999985695,-619.813903809,-468.224029541,-66.3727359772,5.88603878022,-2.0198211669999964,-9.532169342,-1.9231364727000035,-0.21196755766899802,16.0
2018-10-05 20:06:21.750,0.270497528227,0.230177919716,-0.621363045999,-0.0336165353656,-0.338017076254,0.428253799677,0.0392266,-0.3334261,15.6121868,0.0,3.27077269554,25.4074516296,-0.454672336578,-0.00475925952196,-0.397604376078,0.262102127075,-0.899999976158,-619.813903809,-468.392791748,-50.99976348877,4.009045839314,-3.388317108199999,-9.5558700562,-1.1949499845500036,-0.19105871021699802,16.0
2018-10-05 20:06:21.800,0.270497528227,0.230177919716,-0.621363045999,-0.0336165353656,-0.338017076254,0.428253799677,0.0392266,-0.3334261,15.6121868,0.0,1.01215577126,25.5520324707,-0.183522701263,-0.0336165353656,-0.338017076254,0.428253799677,-0.899999976158,-619.813903809,-468.392791748,-50.99976348877,4.009045839314,-3.388317108199999,-9.5558700562,-1.1949499845500036,-0.19105871021699802,16.0
2018-10-05 20:06:21.850,0.270497528227,0.230177919716,-0.621363045999,-0.0336165353656,-0.338017076254,0.428253799677,0.0392266,-0.3334261,15.6121868,0.0,1.01215577126,25.5520324707,-0.183522701263,-0.0336165353656,-0.338017076254,0.428253799677,-0.899999976158,-619.813903809,-468.392791748,-50.99976348877,4.009045839314,-3.388317108199999,-9.5481185913,-0.5896509289740035,-0.13991044461699803,16.0
2018-10-05 20:06:21.900,0.270497528227,0.230177919716,-0.621363045999,-0.0336165353656,-0.338017076254,0.428253799677,0.0392266,-0.3334261,15.6121868,0.0,1.01215577126,25.5520324707,-0.183522701263,-0.0336165353656,-0.338017076254,0.428253799677,-0.930000007153,-621.133056641,-468.460418701,-50.99976348877,3.949045896534,-3.388317108199999,-9.5147075653,0.25710517167999647,-0.09216772019859805,16.0
2018-10-05 20:06:21.950,0.270497528227,0.230177919716,-0.621363045999,-0.0336165353656,-0.338017076254,0.428253799677,0.0392266,-0.3334261,15.6121868,0.0,1.01215577126,25.5520324707,-0.183522701263,-0.0336165353656,-0.338017076254,0.428253799677,-0.930000007153,-621.133056641,-468.460418701,-50.99976348877,3.949045896534,-3.388317108199999,-9.5147075653,0.25710517167999647,-0.09216772019859805,16.0
2018-10-05 20:06:22.000,0.270497528227,0.230177919716,-0.621363045999,-0.0336165353656,-0.338017076254,0.428253799677,0.0392266,-0.3334261,15.6121868,0.0,1.01215577126,25.5520324707,-0.183522701263,-0.0336165353656,-0.338017076254,0.428253799677,-0.959999978542,-621.133056641,-468.426116943,-50.99976348877,3.9090459346740003,-3.388317108199999,-9.468605041499998,0.8664506077769965,-0.09037292748689804,16.0
2018-10-05 20:06:22.050,0.270497528227,0.230177919716,-0.621363045999,-0.0336165353656,-0.338017076254,0.428253799677,0.0392266,-0.3334261,15.6121868,0.0,-1.68693220615,25.3671207428,-0.0426127575338,-0.0336165353656,-0.338017076254,0.428253799677,-0.989999949932,-582.969665527,-468.290863037,-50.99976348877,3.849045991894,-3.388317108199999,-9.3419113159,1.8742989301699964,-0.046243172138898045,16.0
2018-10-05 20:06:22.100,0.270497528227,0.230177919716,-0.621363045999,-0.0336165353656,-0.338017076254,0.428253799677,0.0392266,-0.3334261,15.6121868,0.0,-1.68693220615,25.3671207428,-0.0426127575338,-0.0336165353656,-0.338017076254,0.428253799677,-0.989999949932,-582.969665527,-468.290863037,-50.99976348877,3.849045991894,-3.388317108199999,-9.3419113159,1.8742989301699964,-0.046243172138898045,16.0
2018-10-05 20:06:22.150,0.25127748148,0.278292254956,-0.687627179183,0.0099811013788,-0.335822612047,0.239730507135,-0.08825985,-0.2157463,13.09187775,0.0,-1.68693220615,25.3671207428,-0.0426127575338,-0.0336165353656,-0.338017076254,0.428253799677,-0.989999949932,-582.969665527,-468.290863037,-50.99976348877,3.849045991894,-3.388317108199999,-9.2564163208,2.4045877456699967,-0.06577693670989804,16.0
2018-10-05 20:06:22.200,0.25127748148,0.278292254956,-0.687627179183,0.0099811013788,-0.335822612047,0.239730507135,-0.08825985,-0.2157463,13.09187775,0.0,-1.68693220615,25.3671207428,-0.0426127575338,-0.0336165353656,-0.338017076254,0.428253799677,-1.0,-582.969665527,-468.062347412,-38.22884368896,2.9919291846489,-0.9476509094999983,-9.117136001599999,3.1298196315799967,-0.07923682034019805,16.0
2018-10-05 20:06:22.250,0.25127748148,0.278292254956,-0.687627179183,0.0099811013788,-0.335822612047,0.239730507135,-0.08825985,-0.2157463,13.09187775,0.0,-3.68879008293,24.9987258911,-0.0647431463003,0.0099811013788,-0.335822612047,0.239730507135,-1.0,-582.969665527,-468.062347412,-38.22884368896,2.9819291941788997,-0.9476509094999983,-9.0422954559,3.5081100463899966,-0.06192480400199804,16.0
2018-10-05 20:06:22.300,0.25127748148,0.278292254956,-0.687627179183,0.0099811013788,-0.335822612047,0.239730507135,-0.08825985,-0.2157463,13.09187775,0.0,-3.68879008293,24.9987258911,-0.0647431463003,0.0099811013788,-0.335822612047,0.239730507135,-1.01999998093,-586.342041016,-467.732666016,-38.22884368896,2.9719292037189,-0.9476509094999983,-8.9546871185,3.8881676197099964,-0.04862740635869804,16.0
2018-10-05 20:06:22.350,0.25127748148,0.278292254956,-0.687627179183,0.0099811013788,-0.335822612047,0.239730507135,-0.08825985,-0.2157463,13.09187775,0.0,-3.68879008293,24.9987258911,-0.0647431463003,0.0099811013788,-0.335822612047,0.239730507135,-1.01999998093,-586.342041016,-467.732666016,-38.22884368896,2.9719292037189,-0.9476509094999983,-8.9546871185,3.8881676197099964,-0.04862740635869804,16.0
2018-10-05 20:06:22.400,0.25127748148,0.278292254956,-0.687627179183,0.0099811013788,-0.335822612047,0.239730507135,-0.08825985,-0.2157463,13.09187775,0.0,-3.68879008293,24.9987258911,-0.0647431463003,0.0099811013788,-0.335822612047,0.239730507135,-1.01999998093,-586.342041016,-467.318145752,-38.22884368896,2.9319292418689,-0.9476509094999983,-8.630527496300001,5.098455429079997,0.15893204510200198,16.0
2018-10-05 20:06:22.450,0.225396738713,0.295246401866,-0.728489952795,0.118594095111,-0.360010653734,0.374092578888,0.0980665,-0.6276256,16.17116585,0.0,-3.68879008293,24.9987258911,-0.0647431463003,0.0099811013788,-0.335822612047,0.239730507135,-1.03999996185,-574.537109375,-466.802368164,-30.3640642166,2.161327123639,-1.3839950561999999,-8.630527496300001,5.098455429079997,0.15893204510200198,16.0
2018-10-05 20:06:22.500,0.225396738713,0.295246401866,-0.728489952795,0.118594095111,-0.360010653734,0.374092578888,0.0980665,-0.6276256,16.17116585,0.0,-6.0506067276,24.3201236725,0.270009845495,0.118594095111,-0.360010653734,0.374092578888,-1.03999996185,-574.537109375,-466.802368164,-30.3640642166,2.161327123639,-1.3839950561999999,-8.3823509216,5.8634343147299965,0.25206673145300196,16.0
2018-10-05 20:06:22.550,0.225396738713,0.295246401866,-0.728489952795,0.118594095111,-0.360010653734,0.374092578888,0.0980665,-0.6276256,16.17116585,0.0,-6.0506067276,24.3201236725,0.270009845495,0.118594095111,-0.360010653734,0.374092578888,-1.06999993324,-574.537109375,-466.193756104,-30.3640642166,2.051327228549,-1.3839950561999999,-8.109308242800001,6.597141742709996,0.30501538515100196,16.0
2018-10-05 20:06:22.600,0.225396738713,0.295246401866,-0.728489952795,0.118594095111,-0.360010653734,0.374092578888,0.0980665,-0.6276256,16.17116585,0.0,-6.0506067276,24.3201236725,0.270009845495,0.118594095111,-0.360010653734,0.374092578888,-1.06999993324,-574.537109375,-466.193756104,-30.3640642166,2.051327228549,-1.3839950561999999,-8.038242340099998,6.771281242369996,0.3228697180750019,16.0
2018-10-05 20:06:22.650,0.225396738713,0.295246401866,-0.728489952795,0.118594095111,-0.360010653734,0.374092578888,0.0980665,-0.6276256,16.17116585,0.0,-6.0506067276,24.3201236725,0.270009845495,0.118594095111,-0.360010653734,0.374092578888,-1.06999993324,-574.537109375,-466.193756104,-30.3640642166,2.051327228549,-1.3839950561999999,-7.792747497600001,7.329858779909997,0.36486980319000195,16.0
2018-10-05 20:06:22.700,0.225396738713,0.295246401866,-0.728489952795,0.118594095111,-0.360010653734,0.374092578888,0.0980665,-0.6276256,16.17116585,0.0,-6.0506067276,24.3201236725,0.270009845495,0.118594095111,-0.360010653734,0.374092578888,-1.11000001431,-562.046020508,-465.491851807,-30.3640642166,1.941327095029,-1.3839950561999999,-7.535140991199999,7.905627727509996,0.43775025010100194,16.0
2018-10-05 20:06:22.750,0.200207321029,0.304816398062,-0.775387200947,0.0470230728388,-0.385650008917,0.406484305859,0.22555295,0.0196133,15.46508705,0.0,-8.26574897766,23.3552799225,0.457849681377,0.0470230728388,-0.385650008917,0.406484305859,-1.11000001431,-562.046020508,-465.491851807,-21.1525115967,2.371585518122,-2.213905334499998,-7.355279922499999,8.265748977659996,0.45784968137700194,16.0
2018-10-05 20:06:22.800,0.200207321029,0.304816398062,-0.775387200947,0.0470230728388,-0.385650008917,0.406484305859,0.22555295,0.0196133,15.46508705,0.0,-8.26574897766,23.3552799225,0.457849681377,0.0470230728388,-0.385650008917,0.406484305859,-1.14999997616,-562.046020508,-464.69720459,-21.1525115967,2.241585642102,-2.213905334499998,-7.166627883899999,8.610818862919997,0.46619859337800196,16.0
2018-10-05 20:06:22.850,0.200207321029,0.304816398062,-0.775387200947,0.0470230728388,-0.385650008917,0.406484305859,0.22555295,0.0196133,15.46508705,0.0,-8.26574897766,23.3552799225,0.457849681377,0.0470230728388,-0.385650008917,0.406484305859,-1.14999997616,-562.046020508,-464.69720459,-21.1525115967,2.241585642102,-2.213905334499998,-7.166627883899999,8.610818862919997,0.46619859337800196,16.0
2018-10-05 20:06:22.900,0.200207321029,0.304816398062,-0.775387200947,0.0470230728388,-0.385650008917,0.406484305859,0.22555295,0.0196133,15.46508705,0.0,-8.26574897766,23.3552799225,0.457849681377,0.0470230728388,-0.385650008917,0.406484305859,-1.14999997616,-562.046020508,-464.69720459,-21.1525115967,2.241585642102,-2.213905334499998,-6.693632125899999,9.409256935119997,0.39370444417000194,16.0
2018-10-05 20:06:22.950,0.200207321029,0.304816398062,-0.775387200947,0.0470230728388,-0.385650008917,0.406484305859,0.22555295,0.0196133,15.46508705,0.0,-8.26574897766,23.3552799225,0.457849681377,0.0470230728388,-0.385650008917,0.406484305859,-1.19999992847,-549.039428711,-463.809356689,-21.1525115967,2.191585451362,-0.9139060974000017,-6.693632125899999,9.409256935119997,0.39370444417000194,16.0
2018-10-05 20:06:23.000,0.200207321029,0.304816398062,-0.775387200947,0.0470230728388,-0.385650008917,0.406484305859,0.22555295,0.0196133,15.46508705,0.0,-8.26574897766,23.3552799225,0.457849681377,0.0470230728388,-0.385650008917,0.406484305859,-1.24000000954,-549.039428711,-462.853942871,-21.1525115967,2.191585451362,1.8360939025999983,-6.1756572723000005,10.207891464199996,0.34637042880100194,16.0
