%time,field.orientation.x,field.orientation.y,field.orientation.z,field.angular_velocity.x,field.angular_velocity.y,field.angular_velocity.z,field.linear_acceleration.x,field.linear_acceleration.y,field.linear_acceleration.z,field.data,field.twist.linear.x,field.twist.linear.y,field.twist.linear.z,field.twist.angular.x,field.twist.angular.y,field.twist.angular.z,field.alt_error,field.aspd_error,field.xtrack_error,delta_yaw,delta_pitch,delta_roll,delta_x,delta_y,delta_z,delta_roll_airspeed
2018-07-30 21:23:58.100,,,,,,,,,,0.0,-16.9354667664,4.11055612564,-1.41161119938,0.143572553992,-0.0228042118251,0.024506861344,,,,,,,,,,
2018-07-30 21:23:58.150,,,,,,,,,,0.0,-16.9354667664,4.11055612564,-1.41161119938,0.143572553992,-0.0228042118251,0.024506861344,0.439999997616,-72.989944458,-39.1603813171,191.1319503784,1.2585375308999998,23.84994220738,11.80316066742,17.057342807300213,-1.501048088069998,-0.7298994063999995
2018-07-30 21:23:58.200,,,,,,,,,,0.0,-16.9354667664,4.11055612564,-1.41161119938,0.143572553992,-0.0228042118251,0.024506861344,0.579999983311,-62.7969741821,-37.3792114258,191.1319503784,3.578537434341,26.659941673280002,11.77762079239,17.10011510030021,-1.548627257349998,-0.7298994063999995
2018-07-30 21:23:58.250,,,,,,,,,,0.0,-17.2059860229,4.3136510849,-1.65541005135,0.143572553992,-0.0228042118251,0.024506861344,0.579999983311,-62.7969741821,-37.3792114258,191.1319503784,3.5885374248039996,26.659941673280002,11.721926212309999,17.181324005099995,-1.646507024769998,-0.6279697417999994
2018-07-30 21:23:58.300,,,,,,,,,,0.0,-17.2059860229,4.3136510849,-1.65541005135,0.143572553992,-0.0228042118251,0.024506861344,0.579999983311,-62.7969741821,-37.3792114258,191.1319503784,3.5885374248039996,26.659941673280002,11.721926212309999,17.181324005099995,-1.646507024769998,-0.6279697417999994
2018-07-30 21:23:58.350,0.0349751323441,-0.102592230783,-0.993883956566,0.513239443302,-0.0358709320426,-0.0781352594495,0.79433865,0.0980665,8.79656505,0.0,-17.2059860229,4.3136510849,-1.65541005135,0.143572553992,-0.0228042118251,0.024506861344,0.740000009537,-61.2822532654,-323.721984863,43.9993896484,2.4955461025199996,27.6471862793,11.65026187897,17.232522964499996,-1.683178305629998,0.3871774673000008
2018-07-30 21:23:58.400,0.0349751323441,-0.102592230783,-0.993883956566,0.513239443302,-0.0358709320426,-0.0781352594495,0.79433865,0.0980665,8.79656505,0.0,-17.2059860229,4.3136510849,-1.65541005135,0.143572553992,-0.0228042118251,0.024506861344,0.919999957085,32.3464393616,-321.9637146,43.9993896484,0.3455462455699996,27.467185974099998,11.476943492890001,17.312002181999997,-1.680579185489998,0.3871774673000008
2018-07-30 21:23:58.450,0.0349751323441,-0.102592230783,-0.993883956566,0.513239443302,-0.0358709320426,-0.0781352594495,0.79433865,0.0980665,8.79656505,0.0,-17.2059860229,4.3136510849,-1.65541005135,0.143572553992,-0.0228042118251,0.024506861344,0.919999957085,32.3464393616,-321.9637146,43.9993896484,0.3755462169599997,27.477184295600004,11.2692937851,17.355581283599996,-1.644358038899998,0.3234643936000001
2018-07-30 21:23:58.500,0.0349751323441,-0.102592230783,-0.993883956566,0.513239443302,-0.0358709320426,-0.0781352594495,0.79433865,0.0980665,8.79656505,0.0,-17.2059860229,4.3136510849,-1.65541005135,0.143572553992,-0.0228042118251,0.024506861344,0.919999957085,32.3464393616,-321.9637146,43.9993896484,0.3755462169599997,27.477184295600004,11.2692937851,17.355581283599996,-1.644358038899998,0.3234643936000001
2018-07-30 21:23:58.550,0.0349751323441,-0.102592230783,-0.993883956566,0.513239443302,-0.0358709320426,-0.0781352594495,0.79433865,0.0980665,8.79656505,0.0,-17.4062576294,4.92799949646,-1.65141892433,0.513239443302,-0.0358709320426,-0.0781352594495,1.10000002384,12.135219574,-320.213928223,43.9993896484,-1.7344536781300004,27.0371856689,11.03091716766,17.419164657599996,-1.663858056069998,0.12135219570000011
2018-07-30 21:23:58.600,0.0204749189687,-0.205180206709,-0.977203575722,0.57564240694,-0.0550452172756,-0.170559063554,0.8041453,0.48052585,9.8851032,0.0,-17.4062576294,4.92799949646,-1.65141892433,0.513239443302,-0.0358709320426,-0.0781352594495,1.28999996185,1.28650665283,-318.421844482,43.9993896484,-2.84445381165,26.5071830749,10.79023694992,17.502346038799995,-1.686190724369998,0.012865066499999855
2018-07-30 21:23:58.650,0.0204749189687,-0.205180206709,-0.977203575722,0.57564240694,-0.0550452172756,-0.170559063554,0.8041453,0.48052585,9.8851032,0.0,-17.4062576294,4.92799949646,-1.65141892433,0.513239443302,-0.0358709320426,-0.0781352594495,1.28999996185,1.28650665283,-318.421844482,40.8044509888,-3.5766232013700003,14.662185668899998,10.624869346619999,17.549285888699995,-1.696202635769998,0.012865066499999855
2018-07-30 21:23:58.700,0.0204749189687,-0.205180206709,-0.977203575722,0.57564240694,-0.0550452172756,-0.170559063554,0.8041453,0.48052585,9.8851032,0.0,-17.4062576294,4.92799949646,-1.65141892433,0.513239443302,-0.0358709320426,-0.0781352594495,1.48000001907,-14.9991989136,-316.638061523,40.8044509888,-3.8766229152700005,13.962188720700002,10.38765192032,17.601049423199996,-1.719284534449998,-0.14999198909999834
2018-07-30 21:23:58.750,0.0204749189687,-0.205180206709,-0.977203575722,0.57564240694,-0.0550452172756,-0.170559063554,0.8041453,0.48052585,9.8851032,0.0,-17.4062576294,4.92799949646,-1.65141892433,0.513239443302,-0.0358709320426,-0.0781352594495,1.48000001907,-14.9991989136,-316.638061523,40.8044509888,-3.85662293434,13.9521865844,10.13303899765,17.661872863799996,-1.788189768789998,-0.14999198909999834
2018-07-30 21:23:58.800,0.0204749189687,-0.205180206709,-0.977203575722,0.57564240694,-0.0550452172756,-0.170559063554,0.8041453,0.48052585,9.8851032,0.0,-17.6838111877,5.96439981461,-1.81874060631,0.57564240694,-0.0550452172756,-0.170559063554,1.67999994755,-28.6699295044,-314.862915039,40.8044509888,-4.33662295341,13.1921882629,9.94319105148,17.699321746799995,-1.846881747249998,-0.28669929499999824
2018-07-30 21:23:58.850,0.0204749189687,-0.205180206709,-0.977203575722,0.57564240694,-0.0550452172756,-0.170559063554,0.8041453,0.48052585,9.8851032,0.0,-17.6838111877,5.96439981461,-1.81874060631,0.57564240694,-0.0550452172756,-0.170559063554,1.67999994755,-28.6699295044,-314.862915039,40.8044509888,-4.2966229915600005,13.172187805099998,9.94319105148,17.699321746799995,-1.846881747249998,-0.28669929499999824
2018-07-30 21:23:58.900,0.0204749189687,-0.205180206709,-0.977203575722,0.57564240694,-0.0550452172756,-0.170559063554,0.8041453,0.48052585,9.8851032,0.0,-17.6838111877,5.96439981461,-1.81874060631,0.57564240694,-0.0550452172756,-0.170559063554,1.67999994755,-28.6699295044,-314.862915039,40.8044509888,-4.2966229915600005,13.172187805099998,9.49998855591,17.755613326999995,-2.005956172939998,-0.3839092254999983
2018-07-30 21:23:58.950,0.0174455830977,-0.271281661112,-0.959025484342,0.347746342421,-0.0415947884321,-0.198390498757,0.7060788,0.2549729,9.3751574,0.0,-17.6838111877,5.96439981461,-1.81874060631,0.57564240694,-0.0550452172756,-0.170559063554,1.89999997616,-38.3909225464,-313.045501709,37.7166671753,-4.136976718900001,4.559516906799999,9.33003807068,17.764074325599996,-2.069561243059998,-0.3839092254999983
2018-07-30 21:23:59.000,0.0174455830977,-0.271281661112,-0.959025484342,0.347746342421,-0.0415947884321,-0.198390498757,0.7060788,0.2549729,9.3751574,0.0,-17.6838111877,5.96439981461,-1.81874060631,0.57564240694,-0.0550452172756,-0.170559063554,1.89999997616,-38.3909225464,-313.045501709,37.7166671753,-4.8069767952,3.559516906799999,9.33003807068,17.764074325599996,-2.069561243059998,-0.3839092254999983
2018-07-30 21:23:59.050,0.0174455830977,-0.271281661112,-0.959025484342,0.347746342421,-0.0415947884321,-0.198390498757,0.7060788,0.2549729,9.3751574,0.0,-17.8037128448,7.06079292297,-2.21477079391,0.347746342421,-0.0415947884321,-0.198390498757,2.12999987602,-50.3894805908,-311.295684814,37.7166671753,-4.796976566320001,3.559516906799999,8.76534223557,17.818511962899997,-2.284279346469998,-0.5038948058999999
2018-07-30 21:23:59.100,0.0174455830977,-0.271281661112,-0.959025484342,0.347746342421,-0.0415947884321,-0.198390498757,0.7060788,0.2549729,9.3751574,0.0,-17.8037128448,7.06079292297,-2.21477079391,0.347746342421,-0.0415947884321,-0.198390498757,2.38999986649,-55.1336288452,-309.486724854,37.7166671753,-2.66697645187,2.389518737800003,8.54373550415,17.822849273699997,-2.3340518474599983,-0.5513362884999999
2018-07-30 21:23:59.150,0.0174455830977,-0.271281661112,-0.959025484342,0.347746342421,-0.0415947884321,-0.198390498757,0.7060788,0.2549729,9.3751574,0.0,-17.8037128448,7.06079292297,-2.21477079391,0.347746342421,-0.0415947884321,-0.198390498757,2.38999986649,-55.1336288452,-309.486724854,37.7166671753,-2.66697645187,2.389518737800003,8.54373550415,17.822849273699997,-2.3340518474599983,-0.5513362884999999
2018-07-30 21:23:59.200,0.0174455830977,-0.271281661112,-0.959025484342,0.347746342421,-0.0415947884321,-0.198390498757,0.7060788,0.2549729,9.3751574,0.0,-17.8037128448,7.06079292297,-2.21477079391,0.347746342421,-0.0415947884321,-0.198390498757,2.65999984741,-76.3347625732,-307.677703857,37.7166671753,-0.5069766044600001,1.0295181275000047,7.93914890289,17.832489013699995,-2.5011341571799983,-0.7633476256999998
2018-07-30 21:23:59.250,0.0174455830977,-0.271281661112,-0.959025484342,0.347746342421,-0.0415947884321,-0.198390498757,0.7060788,0.2549729,9.3751574,0.0,-17.8037128448,7.06079292297,-2.21477079391,0.347746342421,-0.0415947884321,-0.198390498757,2.65999984741,-76.3347625732,-307.677703857,37.7166671753,-0.49697685242000045,1.0195198059000035,7.70843505859,17.827047347999997,-2.570894241329998,-0.7633476256999998
2018-07-30 21:23:59.300,0.015968685491,-0.300398860848,-0.944609498311,0.159150242805,-0.1209551543,-0.287017732859,-0.1176798,0.51975245,9.1790244,0.0,-17.8106899261,8.36192703247,-2.61695981026,0.347746342421,-0.0415947884321,-0.198390498757,2.95000004768,-95.3290939331,-305.877197266,37.7166671753,1.6230232715599997,-0.33048248289999904,7.54147720337,17.806680679299998,-2.673379421229998,-0.9532909393000004
2018-07-30 21:23:59.350,0.015968685491,-0.300398860848,-0.944609498311,0.159150242805,-0.1209551543,-0.287017732859,-0.1176798,0.51975245,9.1790244,0.0,-17.8106899261,8.36192703247,-2.61695981026,0.347746342421,-0.0415947884321,-0.198390498757,2.95000004768,-95.3290939331,-305.877197266,32.1290435791,3.48792743683,-3.5907955170000037,7.2362165451,17.771282195999998,-2.7938628196699984,-0.9532909393000004
2018-07-30 21:23:59.400,0.015968685491,-0.300398860848,-0.944609498311,0.159150242805,-0.1209551543,-0.287017732859,-0.1176798,0.51975245,9.1790244,0.0,-17.8106899261,8.36192703247,-2.61695981026,0.347746342421,-0.0415947884321,-0.198390498757,3.25999999046,-108.254241943,-304.076599121,32.1290435791,3.4779274463700003,-5.1107940674000005,7.2362165451,17.771282195999998,-2.7938628196699984,-0.9532909393000004
2018-07-30 21:23:59.450,0.015968685491,-0.300398860848,-0.944609498311,0.159150242805,-0.1209551543,-0.287017732859,-0.1176798,0.51975245,9.1790244,0.0,-17.8106899261,8.36192703247,-2.61695981026,0.347746342421,-0.0415947884321,-0.198390498757,3.25999999046,-108.254241943,-304.076599121,32.1290435791,3.4779274463700003,-5.1107940674000005,6.83334922791,17.686090469399996,-2.9455397129099983,-1.0825424193999993
2018-07-30 21:23:59.500,0.015968685491,-0.300398860848,-0.944609498311,0.159150242805,-0.1209551543,-0.287017732859,-0.1176798,0.51975245,9.1790244,0.0,-17.8106899261,8.36192703247,-2.61695981026,0.347746342421,-0.0415947884321,-0.198390498757,3.58999991417,-115.192985535,-302.29296875,32.1290435791,2.9579274654400005,-6.910795211800004,6.83334922791,17.686090469399996,-2.9455397129099983,-1.0825424193999993
2018-07-30 21:23:59.550,0.015968685491,-0.300398860848,-0.944609498311,0.159150242805,-0.1209551543,-0.287017732859,-0.1176798,0.51975245,9.1790244,0.0,-17.5262241364,9.70659637451,-3.05180311203,0.159150242805,-0.1209551543,-0.287017732859,3.58999991417,-115.192985535,-302.29296875,32.1290435791,2.94792747498,-6.910795211800004,6.293403625490001,17.526224136399996,-3.051803112029998,-1.1519298553000006
2018-07-30 21:23:59.600,0.015968685491,-0.300398860848,-0.944609498311,0.159150242805,-0.1209551543,-0.287017732859,-0.1176798,0.51975245,9.1790244,0.0,-17.5262241364,9.70659637451,-3.05180311203,0.159150242805,-0.1209551543,-0.287017732859,3.91999983788,-124.931716919,-300.543182373,32.1290435791,2.32792758942,-8.980794906600003,5.9647684096999996,17.411668777499997,-3.106786727909998,-1.2493171692000011
2018-07-30 21:23:59.650,0.015968685491,-0.300398860848,-0.944609498311,0.159150242805,-0.1209551543,-0.287017732859,-0.1176798,0.51975245,9.1790244,0.0,-17.5262241364,9.70659637451,-3.05180311203,0.159150242805,-0.1209551543,-0.287017732859,3.91999983788,-124.931716919,-300.543182373,32.1290435791,2.3179275989600003,-8.970794677700002,5.737233161900001,17.329698562599997,-3.1035814285299983,-1.2493171692000011
2018-07-30 21:23:59.700,0.015968685491,-0.300398860848,-0.944609498311,0.159150242805,-0.1209551543,-0.287017732859,-0.1176798,0.51975245,9.1790244,0.0,-17.5262241364,9.70659637451,-3.05180311203,0.159150242805,-0.1209551543,-0.287017732859,4.25999975204,-140.519714355,-298.801635742,32.1290435791,1.8879275322,-11.340793609600002,5.2951030731,17.142183303799996,-3.103971481319998,-1.4051971435999988
2018-07-30 21:23:59.750,0.015968685491,-0.300398860848,-0.944609498311,0.159150242805,-0.1209551543,-0.287017732859,-0.1176798,0.51975245,9.1790244,0.0,-17.0903549194,10.8186120987,-3.1066532135,0.159150242805,-0.1209551543,-0.287017732859,4.25999975204,-140.519714355,-298.801635742,32.1290435791,1.8879275322,-11.340793609600002,5.2951030731,17.142183303799996,-3.103971481319998,-1.4051971435999988
2018-07-30 21:23:59.800,0.015968685491,-0.300398860848,-0.944609498311,0.159150242805,-0.1209551543,-0.287017732859,-0.1176798,0.51975245,9.1790244,0.0,-17.0903549194,10.8186120987,-3.1066532135,0.159150242805,-0.1209551543,-0.287017732859,4.57999992371,-164.911071777,-297.12789917,32.1290435791,1.55792760849,-13.890794754000002,4.8416042328,16.927927017199995,-3.067021369929998,-1.6491107941000003
2018-07-30 21:23:59.850,-0.0154830099608,-0.275543432042,-0.935949969222,-0.194184735417,-0.180028155446,-0.231564432383,-0.95124505,0.28439285,11.85623985,0.0,-17.0903549194,10.8186120987,-3.1066532135,0.159150242805,-0.1209551543,-0.287017732859,4.57999992371,-164.911071777,-297.12789917,32.1290435791,1.5479273796100008,-13.880794525200002,4.5096750259,16.755666732799998,-3.034898281099998,-1.6491107941000003
2018-07-30 21:23:59.900,-0.0154830099608,-0.275543432042,-0.935949969222,-0.194184735417,-0.180028155446,-0.231564432383,-0.95124505,0.28439285,11.85623985,0.0,-17.0903549194,10.8186120987,-3.1066532135,0.159150242805,-0.1209551543,-0.287017732859,4.57999992371,-164.911071777,-297.12789917,32.1290435791,1.5479273796100008,-13.880794525200002,4.5096750259,16.755666732799998,-3.034898281099998,-1.6491107941000003
2018-07-30 21:23:59.950,-0.0154830099608,-0.275543432042,-0.935949969222,-0.194184735417,-0.180028155446,-0.231564432383,-0.95124505,0.28439285,11.85623985,0.0,-17.0903549194,10.8186120987,-3.1066532135,0.159150242805,-0.1209551543,-0.287017732859,4.88999986649,-177.07119751,-295.445648193,21.184562683099998,0.2725057601999996,-13.702480316199999,4.0780115128,16.527540206899996,-2.9439010620099983,-1.7707118987999984
2018-07-30 21:24:00.000,-0.0154830099608,-0.275543432042,-0.935949969222,-0.194184735417,-0.180028155446,-0.231564432383,-0.95124505,0.28439285,11.85623985,0.0,-16.3519630432,12.233259201,-2.85100722313,-0.194184735417,-0.180028155446,-0.231564432383,5.17999982834,-187.481689453,-293.797271729,21.184562683099998,0.25250577926999984,-13.702480316199999,3.8633718491,16.406501769999995,-2.883010625839998,-1.8748168945000003
2018-07-30 21:24:00.050,-0.0154830099608,-0.275543432042,-0.935949969222,-0.194184735417,-0.180028155446,-0.231564432383,-0.95124505,0.28439285,11.85623985,0.0,-16.3519630432,12.233259201,-2.85100722313,-0.194184735417,-0.180028155446,-0.231564432383,5.17999982834,-187.481689453,-293.797271729,21.184562683099998,0.06250572205000005,-16.5024795533,3.6633014679,16.291469573999997,-2.811830759049998,-1.8748168945000003
2018-07-30 21:24:00.100,-0.0154830099608,-0.275543432042,-0.935949969222,-0.194184735417,-0.180028155446,-0.231564432383,-0.95124505,0.28439285,11.85623985,0.0,-16.3519630432,12.233259201,-2.85100722313,-0.194184735417,-0.180028155446,-0.231564432383,5.17999982834,-187.481689453,-293.797271729,21.184562683099998,0.04250574112000027,-16.4924793244,3.3717527389999997,16.114038467399997,-2.7300457954399984,-1.8748168945000003
2018-07-30 21:24:00.150,-0.0154830099608,-0.275543432042,-0.935949969222,-0.194184735417,-0.180028155446,-0.231564432383,-0.95124505,0.28439285,11.85623985,0.0,-16.3519630432,12.233259201,-2.85100722313,-0.194184735417,-0.180028155446,-0.231564432383,5.46000003815,-190.022659302,-292.182739258,21.184562683099998,-0.2174940109200003,-19.2024793625,3.1115570068,15.950634002699996,-2.625050306319998,-1.9002265929999993
2018-07-30 21:24:00.200,-0.0154830099608,-0.275543432042,-0.935949969222,-0.194184735417,-0.180028155446,-0.231564432383,-0.95124505,0.28439285,11.85623985,0.0,-16.3519630432,12.233259201,-2.85100722313,-0.194184735417,-0.180028155446,-0.231564432383,5.71000003815,-202.198974609,-290.593505859,21.184562683099998,-0.4574942588799997,-21.71247959142,2.858923912,15.777892112699996,-2.553468227389998,-2.0219898223999984
2018-07-30 21:24:00.250,-0.0154830099608,-0.275543432042,-0.935949969222,-0.194184735417,-0.180028155446,-0.231564432383,-0.95124505,0.28439285,11.85623985,0.0,-15.6251544952,13.3590602875,-2.46401977539,-0.194184735417,-0.180028155446,-0.231564432383,5.71000003815,-202.198974609,-290.593505859,21.184562683099998,-0.4774942398000004,-21.722479820300002,2.7106103896999993,15.675271034199996,-2.492628574369998,-2.0219898223999984
2018-07-30 21:24:00.300,-0.0123825006697,-0.204993791382,-0.938832289826,-0.331800252199,-0.0783804282546,-0.256283849478,-1.04931155,0.2941995,12.05237285,0.0,-15.6251544952,13.3590602875,-2.46401977539,-0.194184735417,-0.180028155446,-0.231564432383,5.71000003815,-202.198974609,-290.593505859,21.184562683099998,-0.4874939918500001,-21.722479820300002,2.5655784606999994,15.570597648599996,-2.433327436449998,-2.0219898223999984
2018-07-30 21:24:00.350,-0.0123825006697,-0.204993791382,-0.938832289826,-0.331800252199,-0.0783804282546,-0.256283849478,-1.04931155,0.2941995,12.05237285,0.0,-15.6251544952,13.3590602875,-2.46401977539,-0.194184735417,-0.180028155446,-0.231564432383,5.94000005722,-202.614593506,-289.029693604,14.2458877563,-0.8614392280600001,-15.50341796879,2.2859487533999996,15.350832939099996,-2.3474972248099983,-2.0261459351000006
2018-07-30 21:24:00.400,-0.0123825006697,-0.204993791382,-0.938832289826,-0.331800252199,-0.0783804282546,-0.256283849478,-1.04931155,0.2941995,12.05237285,0.0,-15.6251544952,13.3590602875,-2.46401977539,-0.194184735417,-0.180028155446,-0.231564432383,6.15999984741,-203.471374512,-287.499450684,14.2458877563,-1.1714391708399994,-17.71341800693,2.1683492661,15.254277229299996,-2.3123476505299982,-2.0347137450999995
2018-07-30 21:24:00.450,-0.0123825006697,-0.204993791382,-0.938832289826,-0.331800252199,-0.0783804282546,-0.256283849478,-1.04931155,0.2941995,12.05237285,0.0,-15.6251544952,13.3590602875,-2.46401977539,-0.194184735417,-0.180028155446,-0.231564432383,6.15999984741,-203.471374512,-287.499450684,14.2458877563,-1.1814393997199995,-17.71341800693,2.000451088,15.108359336899996,-2.2672700881999983,-2.0347137450999995
2018-07-30 21:24:00.500,-0.0123825006697,-0.204993791382,-0.938832289826,-0.331800252199,-0.0783804282546,-0.256283849478,-1.04931155,0.2941995,12.05237285,0.0,-15.6251544952,13.3590602875,-2.46401977539,-0.194184735417,-0.180028155446,-0.231564432383,6.34999990463,-193.810653687,-286.045501709,14.2458877563,-1.6214394569400001,-19.57341790203,1.8956546782999997,15.015451431299997,-2.2390234470399983,-1.9381065369000012
2018-07-30 21:24:00.550,-0.0123825006697,-0.204993791382,-0.938832289826,-0.331800252199,-0.0783804282546,-0.256283849478,-1.04931155,0.2941995,12.05237285,0.0,-14.963467598,14.1581764221,-2.23006606102,-0.331800252199,-0.0783804282546,-0.256283849478,6.34999990463,-193.810653687,-286.045501709,14.2458877563,-1.64143943787,-19.57341790203,1.7893943787000008,14.912707328799996,-2.2213070392599983,-1.9381065369000012
2018-07-30 21:24:00.600,-0.0123825006697,-0.204993791382,-0.938832289826,-0.331800252199,-0.0783804282546,-0.256283849478,-1.04931155,0.2941995,12.05237285,0.0,-14.963467598,14.1581764221,-2.23006606102,-0.331800252199,-0.0783804282546,-0.256283849478,6.34999990463,-193.810653687,-286.045501709,14.2458877563,-1.64143943787,-19.57341790203,1.6480436325000003,14.769658088699996,-2.196680784229998,-1.8584556580000005
2018-07-30 21:24:00.650,-0.0123825006697,-0.204993791382,-0.938832289826,-0.331800252199,-0.0783804282546,-0.256283849478,-1.04931155,0.2941995,12.05237285,0.0,-14.963467598,14.1581764221,-2.23006606102,-0.331800252199,-0.0783804282546,-0.256283849478,6.53999996185,-185.845565796,-284.574645996,14.2458877563,-2.0414395332399993,-21.423417806659998,1.5663976669000004,14.682415962199997,-2.1910915374799984,-1.8584556580000005
2018-07-30 21:24:00.700,-0.0123825006697,-0.204993791382,-0.938832289826,-0.331800252199,-0.0783804282546,-0.256283849478,-1.04931155,0.2941995,12.05237285,0.0,-14.963467598,14.1581764221,-2.23006606102,-0.331800252199,-0.0783804282546,-0.256283849478,6.53999996185,-185.845565796,-284.574645996,14.2458877563,-2.05143928528,-21.423417806659998,1.4946765899999992,14.597397804299996,-2.213487625119998,-1.8584556580000005
2018-07-30 21:24:00.750,-0.0123825006697,-0.204993791382,-0.938832289826,-0.331800252199,-0.0783804282546,-0.256283849478,-1.04931155,0.2941995,12.05237285,0.0,-14.43318367,14.6299133301,-2.3084821701,-0.331800252199,-0.0783804282546,-0.256283849478,6.73000001907,-174.015991211,-283.112213135,14.2458877563,-2.71143913269,-22.943417817392,1.4062623978000008,14.476673126199996,-2.2861227989199984,-1.7401599883999985
2018-07-30 21:24:00.800,0.00582775659935,-0.146010195529,-0.934485906942,-0.223566278815,-0.0405068062246,-0.103770725429,-1.32389775,0.4511059,9.1005712,0.0,-14.43318367,14.6299133301,-2.3084821701,-0.331800252199,-0.0783804282546,-0.256283849478,6.73000001907,-174.015991211,-283.112213135,14.2458877563,-2.72143936158,-16.801220536240002,1.3352947235000006,14.390877723699996,-2.3184013366699983,-1.7401599883999985
2018-07-30 21:24:00.850,0.00582775659935,-0.146010195529,-0.934485906942,-0.223566278815,-0.0405068062246,-0.103770725429,-1.32389775,0.4511059,9.1005712,0.0,-14.43318367,14.6299133301,-2.3084821701,-0.331800252199,-0.0783804282546,-0.256283849478,6.92999982834,-147.610656738,-281.666748047,8.5242271423,-2.5030879974299998,-16.801220536240002,1.2624988556000005,14.304738044699997,-2.316171646119998,-1.4761066436999997
2018-07-30 21:24:00.900,0.00582775659935,-0.146010195529,-0.934485906942,-0.223566278815,-0.0405068062246,-0.103770725429,-1.32389775,0.4511059,9.1005712,0.0,-14.43318367,14.6299133301,-2.3084821701,-0.331800252199,-0.0783804282546,-0.256283849478,7.1299996376,-124.445724487,-280.238067627,8.5242271423,-3.2130880355799993,-18.151220560080002,1.1412467957000008,14.149390220599997,-2.3257012367199983,-1.2444572449000013
2018-07-30 21:24:00.950,0.00582775659935,-0.146010195529,-0.934485906942,-0.223566278815,-0.0405068062246,-0.103770725429,-1.32389775,0.4511059,9.1005712,0.0,-14.43318367,14.6299133301,-2.3084821701,-0.331800252199,-0.0783804282546,-0.256283849478,7.1299996376,-124.445724487,-280.238067627,8.5242271423,-3.2230882644600003,-18.151220560080002,1.0885829925999992,14.077297210699996,-2.3311555385599982,-1.2444572449000013
2018-07-30 21:24:01.000,0.00582775659935,-0.146010195529,-0.934485906942,-0.223566278815,-0.0405068062246,-0.103770725429,-1.32389775,0.4511059,9.1005712,0.0,-13.9771947861,14.9823894501,-2.31884908676,-0.223566278815,-0.0405068062246,-0.103770725429,7.33999967575,-118.391990662,-278.834838867,8.5242271423,-3.8930883407599994,-19.27122044564,1.0004634856999992,13.949264526399997,-2.314992904659998,-1.1839199066
2018-07-30 21:24:01.050,0.00582775659935,-0.146010195529,-0.934485906942,-0.223566278815,-0.0405068062246,-0.103770725429,-1.32389775,0.4511059,9.1005712,0.0,-13.9771947861,14.9823894501,-2.31884908676,-0.223566278815,-0.0405068062246,-0.103770725429,7.33999967575,-118.391990662,-278.834838867,8.5242271423,-3.8930883407599994,-19.27122044564,1.0004634856999992,13.949264526399997,-2.314992904659998,-1.1839199066
2018-07-30 21:24:01.100,0.00582775659935,-0.146010195529,-0.934485906942,-0.223566278815,-0.0405068062246,-0.103770725429,-1.32389775,0.4511059,9.1005712,0.0,-13.9771947861,14.9823894501,-2.31884908676,-0.223566278815,-0.0405068062246,-0.103770725429,7.33999967575,-118.391990662,-278.834838867,8.5242271423,-3.9030876159599996,-19.27122044564,0.9478826523000006,13.864624977099997,-2.2962470054599984,-1.1839199066
2018-07-30 21:24:01.150,0.00582775659935,-0.146010195529,-0.934485906942,-0.223566278815,-0.0405068062246,-0.103770725429,-1.32389775,0.4511059,9.1005712,0.0,-13.9771947861,14.9823894501,-2.31884908676,-0.223566278815,-0.0405068062246,-0.103770725429,7.53999996185,-113.895225525,-277.456787109,8.5242271423,-4.613087654109999,-20.13122034074,0.9039554596000006,13.785608291599996,-2.2676117420199984,-1.1389522551999995
2018-07-30 21:24:01.200,0.0282437513003,-0.0840396493076,-0.937943498088,-0.332435846329,0.0607288554311,-0.0468732714653,-1.0983448,0.1569064,9.7674234,0.0,-13.7026815414,15.1171951294,-2.30211305618,-0.332435846329,0.0607288554311,-0.0468732714653,7.75,-103.374481201,-276.062011719,7.102169036900001,-5.1431360244799995,-13.11164808273,0.8863716124999996,13.723107337999997,-2.291890144349998,-1.0337448119999983
2018-07-30 21:24:01.250,0.0282437513003,-0.0840396493076,-0.937943498088,-0.332435846329,0.0607288554311,-0.0468732714653,-1.0983448,0.1569064,9.7674234,0.0,-13.7026815414,15.1171951294,-2.30211305618,-0.332435846329,0.0607288554311,-0.0468732714653,7.75,-103.374481201,-276.062011719,7.102169036900001,-5.15313529968,-13.11164808273,0.8798217773000001,13.666739463799997,-2.3292644023899984,-1.0337448119999983
2018-07-30 21:24:01.300,0.0282437513003,-0.0840396493076,-0.937943498088,-0.332435846329,0.0607288554311,-0.0468732714653,-1.0983448,0.1569064,9.7674234,0.0,-13.7026815414,15.1171951294,-2.30211305618,-0.332435846329,0.0607288554311,-0.0468732714653,7.94999980927,-88.9574050903,-274.701080322,7.102169036900001,-5.88313579558,-13.4616484642,0.8829965591000004,13.638421058699997,-2.360711812969998,-0.8895740508999985
2018-07-30 21:24:01.350,0.0282437513003,-0.0840396493076,-0.937943498088,-0.332435846329,0.0607288554311,-0.0468732714653,-1.0983448,0.1569064,9.7674234,0.0,-13.7026815414,15.1171951294,-2.30211305618,-0.332435846329,0.0607288554311,-0.0468732714653,7.94999980927,-88.9574050903,-274.701080322,7.102169036900001,-5.8931360244799995,-13.4616484642,0.8908386230000005,13.599552154499996,-2.402965068819998,-0.8895740508999985
2018-07-30 21:24:01.400,0.0282437513003,-0.0840396493076,-0.937943498088,-0.332435846329,0.0607288554311,-0.0468732714653,-1.0983448,0.1569064,9.7674234,0.0,-13.7026815414,15.1171951294,-2.30211305618,-0.332435846329,0.0607288554311,-0.0468732714653,8.15999984741,-68.1287765503,-273.348449707,7.102169036900001,-6.65313529968,-13.61164808273,0.9031162261999999,13.584391593899996,-2.4297833442699983,-0.6812877654999987
2018-07-30 21:24:01.450,0.0282437513003,-0.0840396493076,-0.937943498088,-0.332435846329,0.0607288554311,-0.0468732714653,-1.0983448,0.1569064,9.7674234,0.0,-13.7026815414,15.1171951294,-2.30211305618,-0.332435846329,0.0607288554311,-0.0468732714653,8.15999984741,-68.1287765503,-273.348449707,7.102169036900001,-6.65313529968,-13.60164833069,0.9223670959000003,13.556269645699997,-2.4841427802999982,-0.6812877654999987
2018-07-30 21:24:01.500,0.0282437513003,-0.0840396493076,-0.937943498088,-0.332435846329,0.0607288554311,-0.0468732714653,-1.0983448,0.1569064,9.7674234,0.0,-13.5467758179,15.0597486496,-2.53194379807,-0.332435846329,0.0607288554311,-0.0468732714653,8.15999984741,-68.1287765503,-273.348449707,7.102169036900001,-6.65313529968,-13.60164833069,0.9223670959000003,13.556269645699997,-2.4841427802999982,-0.6812877654999987
2018-07-30 21:24:01.550,0.057784102371,-0.0345305075837,-0.93814243598,-0.219162926078,0.0886047333479,-0.0523215346038,-1.08853815,0.4314926,8.50236555,0.0,-13.5467758179,15.0597486496,-2.53194379807,-0.332435846329,0.0607288554311,-0.0468732714653,8.38000011444,-58.5948944092,-271.979064941,6.293426513699998,-6.04201412205,-7.0762244462899995,0.9684677124000007,13.532998084999996,-2.604326009749998,-0.5859489441000001
2018-07-30 21:24:01.600,0.057784102371,-0.0345305075837,-0.93814243598,-0.219162926078,0.0886047333479,-0.0523215346038,-1.08853815,0.4314926,8.50236555,0.0,-13.5467758179,15.0597486496,-2.53194379807,-0.332435846329,0.0607288554311,-0.0468732714653,8.60999965668,-43.4946060181,-270.601196289,6.293426513699998,-6.04201412205,-7.066224217409999,0.9929218292000002,13.531207084699997,-2.664468526839998,-0.4349460602000015
2018-07-30 21:24:01.650,0.057784102371,-0.0345305075837,-0.93814243598,-0.219162926078,0.0886047333479,-0.0523215346038,-1.08853815,0.4314926,8.50236555,0.0,-13.5467758179,15.0597486496,-2.53194379807,-0.332435846329,0.0607288554311,-0.0468732714653,8.60999965668,-43.4946060181,-270.601196289,6.293426513699998,-6.72201347355,-6.97622454166,1.0167894362999998,13.531040191699997,-2.722480058669998,-0.4349460602000015
2018-07-30 21:24:01.700,0.057784102371,-0.0345305075837,-0.93814243598,-0.219162926078,0.0886047333479,-0.0523215346038,-1.08853815,0.4314926,8.50236555,0.0,-13.5467758179,15.0597486496,-2.53194379807,-0.332435846329,0.0607288554311,-0.0468732714653,8.60999965668,-43.4946060181,-270.601196289,6.293426513699998,-6.72201347355,-6.97622454166,1.0167894362999998,13.531040191699997,-2.722480058669998,-0.4349460602000015
2018-07-30 21:24:01.750,0.057784102371,-0.0345305075837,-0.93814243598,-0.219162926078,0.0886047333479,-0.0523215346038,-1.08853815,0.4314926,8.50236555,0.0,-13.5479707718,14.9236545563,-2.81187987328,-0.219162926078,0.0886047333479,-0.0523215346038,8.8499994278,-25.8899688721,-269.231628418,6.293426513699998,-7.412014007550001,-6.7462245225899995,1.0763454436999993,13.547970771799996,-2.8118798732799983,-0.25889968870000146
2018-07-30 21:24:01.800,0.057784102371,-0.0345305075837,-0.93814243598,-0.219162926078,0.0886047333479,-0.0523215346038,-1.08853815,0.4314926,8.50236555,0.0,-13.5479707718,14.9236545563,-2.81187987328,-0.219162926078,0.0886047333479,-0.0523215346038,9.10999965668,-19.3441390991,-267.862213135,6.293426513699998,-8.092014312749999,-6.44622433185,1.1117925644,13.567099571199996,-2.8492441177399983,-0.19344139100000035
2018-07-30 21:24:01.850,0.057784102371,-0.0345305075837,-0.93814243598,-0.219162926078,0.0886047333479,-0.0523215346038,-1.08853815,0.4314926,8.50236555,0.0,-13.5479707718,14.9236545563,-2.81187987328,-0.219162926078,0.0886047333479,-0.0523215346038,9.10999965668,-19.3441390991,-267.862213135,6.293426513699998,-8.092014312749999,-6.436224579809999,1.1476926804000005,13.586612701399996,-2.905733823779998,-0.19344139100000035
2018-07-30 21:24:01.900,0.0874898579985,-0.00912296507295,-0.935234594778,-0.120863944292,0.099661052227,0.00918970629573,-1.176798,0.7649187,8.6886919,0.0,-13.5479707718,14.9236545563,-2.81187987328,-0.219162926078,0.0886047333479,-0.0523215346038,9.36999988556,-7.09056854248,-266.501098633,6.293426513699998,-8.75201416015,-6.0762244462899995,1.1729316711000006,13.601792335499997,-2.943130254749998,-0.07090568539999964
2018-07-30 21:24:01.950,0.0874898579985,-0.00912296507295,-0.935234594778,-0.120863944292,0.099661052227,0.00918970629573,-1.176798,0.7649187,8.6886919,0.0,-13.6482973099,14.7748823166,-3.01173782349,-0.120863944292,0.099661052227,0.00918970629573,9.36999988556,-7.09056854248,-266.501098633,5.512878418,-6.547757148740001,-2.09257435799,1.2103404998999991,13.633882522599997,-3.002200603489998,-0.07090568539999964
2018-07-30 21:24:02.000,0.0874898579985,-0.00912296507295,-0.935234594778,-0.120863944292,0.099661052227,0.00918970629573,-1.176798,0.7649187,8.6886919,0.0,-13.6482973099,14.7748823166,-3.01173782349,-0.120863944292,0.099661052227,0.00918970629573,9.64999961853,-6.1954498291,-265.114776611,5.512878418,-7.1077566146399995,-1.66257452965,1.2103404998999991,13.633882522599997,-3.002200603489998,-0.07090568539999964
2018-07-30 21:24:02.050,0.0874898579985,-0.00912296507295,-0.935234594778,-0.120863944292,0.099661052227,0.00918970629573,-1.176798,0.7649187,8.6886919,0.0,-13.6482973099,14.7748823166,-3.01173782349,-0.120863944292,0.099661052227,0.00918970629573,9.64999961853,-6.1954498291,-265.114776611,5.512878418,-7.1077566146399995,-1.66257452965,1.2506752014,13.673965454099996,-3.0318942069999983,-0.06195449830000044
2018-07-30 21:24:02.100,0.0874898579985,-0.00912296507295,-0.935234594778,-0.120863944292,0.099661052227,0.00918970629573,-1.176798,0.7649187,8.6886919,0.0,-13.6482973099,14.7748823166,-3.01173782349,-0.120863944292,0.099661052227,0.00918970629573,9.9299993515,-3.43723297119,-263.719909668,5.512878418,-7.587756156939999,-1.1825745105800003,1.3151626587000003,13.744378089899996,-3.0988709926599984,-0.03437232969999826
2018-07-30 21:24:02.150,0.0874898579985,-0.00912296507295,-0.935234594778,-0.120863944292,0.099661052227,0.00918970629573,-1.176798,0.7649187,8.6886919,0.0,-13.6482973099,14.7748823166,-3.01173782349,-0.120863944292,0.099661052227,0.00918970629573,9.9299993515,-3.43723297119,-263.719909668,5.512878418,-7.587756156939999,-1.1825745105800003,1.3336067200000006,13.760461807299997,-3.120580911639998,-0.03437232969999826
2018-07-30 21:24:02.200,0.0874898579985,-0.00912296507295,-0.935234594778,-0.120863944292,0.099661052227,0.00918970629573,-1.176798,0.7649187,8.6886919,0.0,-13.833193779,14.6019067764,-3.20609736443,-0.120863944292,0.099661052227,0.00918970629573,10.2199993134,0.740718841553,-262.325164795,5.512878418,-7.997756004340001,-0.6225745678000001,1.3809204102,13.815664291399996,-3.178885221479998,0.007407188400000209
2018-07-30 21:24:02.250,0.0874898579985,-0.00912296507295,-0.935234594778,-0.120863944292,0.099661052227,0.00918970629573,-1.176798,0.7649187,8.6886919,0.0,-13.833193779,14.6019067764,-3.20609736443,-0.120863944292,0.099661052227,0.00918970629573,10.2199993134,0.740718841553,-262.325164795,5.512878418,-7.997756004340001,-0.6225745678000001,1.3809204102,13.815664291399996,-3.178885221479998,0.007407188400000209
2018-07-30 21:24:02.300,0.0874898579985,-0.00912296507295,-0.935234594778,-0.120863944292,0.099661052227,0.00918970629573,-1.176798,0.7649187,8.6886919,0.0,-13.833193779,14.6019067764,-3.20609736443,-0.120863944292,0.099661052227,0.00918970629573,10.5199995041,15.8403396606,-260.913482666,5.512878418,-8.41775608064,-0.012574672700000011,1.4428510665999994,13.883597373999997,-3.3060534000399984,0.1584033966000007
2018-07-30 21:24:02.350,0.0874898579985,-0.00912296507295,-0.935234594778,-0.120863944292,0.099661052227,0.00918970629573,-1.176798,0.7649187,8.6886919,0.0,-13.833193779,14.6019067764,-3.20609736443,-0.120863944292,0.099661052227,0.00918970629573,10.5199995041,15.8403396606,-260.913482666,5.512878418,-8.41775608064,-0.012574672700000011,1.4932794570999999,13.948853492699996,-3.3811638355299984,0.1584033966000007
2018-07-30 21:24:02.400,0.1236285279,0.019218581394,-0.934203604916,-0.0758437290788,0.0706995651126,0.0341442264616,-1.16699135,0.7256921,8.81617835,0.0,-13.833193779,14.6019067764,-3.20609736443,-0.120863944292,0.099661052227,0.00918970629573,10.8299999237,31.6093444824,-259.493286133,5.512878418,-8.817757606539999,0.7074253559099999,1.5438146591000006,14.024098396299996,-3.444914817809998,0.3160934447999999
2018-07-30 21:24:02.450,0.1236285279,0.019218581394,-0.934203604916,-0.0758437290788,0.0706995651126,0.0341442264616,-1.16699135,0.7256921,8.81617835,0.0,-13.833193779,14.6019067764,-3.20609736443,-0.120863944292,0.099661052227,0.00918970629573,10.8299999237,31.6093444824,-259.493286133,5.873805999799998,-5.989762306199998,5.18502998352,1.5772542952999995,14.070232391399996,-3.4979240894299983,0.3160934447999999
2018-07-30 21:24:02.500,0.1236285279,0.019218581394,-0.934203604916,-0.0758437290788,0.0706995651126,0.0341442264616,-1.16699135,0.7256921,8.81617835,0.0,-14.1121168137,14.3904571533,-3.56646108627,-0.0758437290788,0.0706995651126,0.0341442264616,11.1499996185,46.3936805725,-258.073181152,5.873805999799998,-6.5297613144,5.88502991199,1.6271514892999992,14.129135131799996,-3.6074621677399983,0.4639368056999995
2018-07-30 21:24:02.550,0.1236285279,0.019218581394,-0.934203604916,-0.0758437290788,0.0706995651126,0.0341442264616,-1.16699135,0.7256921,8.81617835,0.0,-14.1121168137,14.3904571533,-3.56646108627,-0.0758437290788,0.0706995651126,0.0341442264616,11.1499996185,46.3936805725,-258.073181152,5.873805999799998,-6.5297613144,5.88502991199,1.6608495712,14.162716865499997,-3.699880838389998,0.4639368056999995
2018-07-30 21:24:02.600,0.1236285279,0.019218581394,-0.934203604916,-0.0758437290788,0.0706995651126,0.0341442264616,-1.16699135,0.7256921,8.81617835,0.0,-14.1121168137,14.3904571533,-3.56646108627,-0.0758437290788,0.0706995651126,0.0341442264616,11.5,53.3834457397,-256.644470215,5.873805999799998,-7.079762458799999,6.505029946562,1.7144556045999995,14.210181236299997,-3.8524875640899983,0.5338344573999994
2018-07-30 21:24:02.650,0.1236285279,0.019218581394,-0.934203604916,-0.0758437290788,0.0706995651126,0.0341442264616,-1.16699135,0.7256921,8.81617835,0.0,-14.1121168137,14.3904571533,-3.56646108627,-0.0758437290788,0.0706995651126,0.0341442264616,11.5,53.3834457397,-256.644470215,5.873805999799998,-7.079762458799999,6.505029946562,1.7610387801999998,14.242475509599997,-4.056420326229998,0.5338344573999994
2018-07-30 21:24:02.700,0.1236285279,0.019218581394,-0.934203604916,-0.0758437290788,0.0706995651126,0.0341442264616,-1.16699135,0.7256921,8.81617835,0.0,-14.2681283951,14.1939954758,-4.25433397293,-0.0758437290788,0.0706995651126,0.0341442264616,11.8699998856,64.9109802246,-255.207427979,5.873805999799998,-7.5497617721,6.96502994559352,1.7916755676000005,14.259369850199997,-4.188920021059999,0.6491098403999995
2018-07-30 21:24:02.750,0.1236285279,0.019218581394,-0.934203604916,-0.0758437290788,0.0706995651126,0.0341442264616,-1.16699135,0.7256921,8.81617835,0.0,-14.2681283951,14.1939954758,-4.25433397293,-0.0758437290788,0.0706995651126,0.0341442264616,11.8699998856,64.9109802246,-255.207427979,5.873805999799998,-7.5497617721,6.96502994559352,1.8174228667999994,14.279604911799996,-4.322461605069998,0.6491098403999995
2018-07-30 21:24:02.800,0.1236285279,0.019218581394,-0.934203604916,-0.0758437290788,0.0706995651126,0.0341442264616,-1.16699135,0.7256921,8.81617835,0.0,-14.2681283951,14.1939954758,-4.25433397293,-0.0758437290788,0.0706995651126,0.0341442264616,12.279999733,75.4314422607,-253.753479004,5.873805999799998,-7.959761619499998,7.365029931065,1.8505678177,14.314289092999996,-4.511498451229998,0.7543144226000003
2018-07-30 21:24:02.850,0.1236285279,0.019218581394,-0.934203604916,-0.0758437290788,0.0706995651126,0.0341442264616,-1.16699135,0.7256921,8.81617835,0.0,-14.2681283951,14.1939954758,-4.25433397293,-0.0758437290788,0.0706995651126,0.0341442264616,12.279999733,75.4314422607,-253.753479004,5.873805999799998,-7.959761619499998,7.365029931065,1.8739690781,14.352668762199997,-4.673772335049998,0.7543144226000003
2018-07-30 21:24:02.900,0.1236285279,0.019218581394,-0.934203604916,-0.0758437290788,0.0706995651126,0.0341442264616,-1.16699135,0.7256921,8.81617835,0.0,-14.2681283951,14.1939954758,-4.25433397293,-0.0758437290788,0.0706995651126,0.0341442264616,12.7199993134,82.7907562256,-252.316390991,5.873805999799998,-8.269761085499999,7.735029935833,1.8914442061999992,14.389412879899997,-4.820632934569998,0.8279075623000001
2018-07-30 21:24:02.950,0.143496425807,-0.0091112495914,-0.936222591955,0.244422495365,0.0831241458654,0.135726138949,-1.4317709,0.3138128,7.2176944,0.0,-14.2681283951,14.1939954758,-4.25433397293,-0.0758437290788,0.0706995651126,0.0341442264616,12.7199993134,82.7907562256,-252.316390991,7.562526702900001,-4.9358644486,5.231184720993,1.8914442061999992,14.389412879899997,-4.820632934569998,0.8279075623000001
2018-07-30 21:24:03.000,0.143496425807,-0.0091112495914,-0.936222591955,0.244422495365,0.0831241458654,0.135726138949,-1.4317709,0.3138128,7.2176944,0.0,-14.4480905533,14.1032857895,-4.90391969681,0.244422495365,0.0831241458654,0.135726138949,13.1999998093,71.9268798828,-250.862442017,7.562526702900001,-4.995865821900001,5.57118475437,1.8956737518000004,14.479499816899997,-4.975717544559998,0.7192687987999999
2018-07-30 21:24:03.050,0.143496425807,-0.0091112495914,-0.936222591955,0.244422495365,0.0831241458654,0.135726138949,-1.4317709,0.3138128,7.2176944,0.0,-14.4480905533,14.1032857895,-4.90391969681,0.244422495365,0.0831241458654,0.135726138949,13.1999998093,71.9268798828,-250.862442017,7.562526702900001,-4.995865821900001,5.57118475437,1.8956737518000004,14.479499816899997,-4.975717544559998,0.7192687987999999
2018-07-30 21:24:03.100,0.143496425807,-0.0091112495914,-0.936222591955,0.244422495365,0.0831241458654,0.135726138949,-1.4317709,0.3138128,7.2176944,0.0,-14.4480905533,14.1032857895,-4.90391969681,0.244422495365,0.0831241458654,0.135726138949,13.6899995804,52.5883674622,-249.391448975,7.562526702900001,-4.6858644486,5.841184735300001,1.8974218368999995,14.544239044199996,-5.097719192499998,0.5258836745999993
2018-07-30 21:24:03.150,0.143496425807,-0.0091112495914,-0.936222591955,0.244422495365,0.0831241458654,0.135726138949,-1.4317709,0.3138128,7.2176944,0.0,-14.4480905533,14.1032857895,-4.90391969681,0.244422495365,0.0831241458654,0.135726138949,13.6899995804,52.5883674622,-249.391448975,7.562526702900001,-4.6858644486,5.83118474484,1.8974914551000008,14.587048530599997,-5.223596096039998,0.5258836745999993
2018-07-30 21:24:03.200,0.143496425807,-0.0091112495914,-0.936222591955,0.244422495365,0.0831241458654,0.135726138949,-1.4317709,0.3138128,7.2176944,0.0,-14.6323785782,14.0947618484,-5.3639497757,0.244422495365,0.0831241458654,0.135726138949,14.1999998093,39.9245262146,-247.91217041,7.562526702900001,-4.2058649063,6.12118470669,1.9012413025000008,14.616709709199997,-5.319428443909998,0.3992452621000009
2018-07-30 21:24:03.250,0.151337064077,-0.0306211321412,-0.9403493833,0.0165935717523,0.0886881127954,0.0970477759838,-1.4709975,-0.38245935,7.1000146,0.0,-14.6323785782,14.0947618484,-5.3639497757,0.244422495365,0.0831241458654,0.135726138949,14.1999998093,39.9245262146,-247.91217041,7.562526702900001,-4.2058649063,6.12118470669,1.9116811752,14.650316238399997,-5.410605907439998,0.3992452621000009
2018-07-30 21:24:03.300,0.151337064077,-0.0306211321412,-0.9403493833,0.0165935717523,0.0886881127954,0.0970477759838,-1.4709975,-0.38245935,7.1000146,0.0,-14.6323785782,14.0947618484,-5.3639497757,0.244422495365,0.0831241458654,0.135726138949,14.7299995422,33.4498405457,-246.441345215,9.9439163208,-2.120981216499999,4.08480763435,1.9315223693999997,14.726600646999996,-5.576228618619998,0.33449840549999976
2018-07-30 21:24:03.350,0.151337064077,-0.0306211321412,-0.9403493833,0.0165935717523,0.0886881127954,0.0970477759838,-1.4709975,-0.38245935,7.1000146,0.0,-14.6323785782,14.0947618484,-5.3639497757,0.244422495365,0.0831241458654,0.135726138949,14.7299995422,33.4498405457,-246.441345215,9.9439163208,-2.120981216499999,4.08480763435,1.9315223693999997,14.726600646999996,-5.576228618619998,0.33449840549999976
2018-07-30 21:24:03.400,0.151337064077,-0.0306211321412,-0.9403493833,0.0165935717523,0.0886881127954,0.0970477759838,-1.4709975,-0.38245935,7.1000146,0.0,-14.6323785782,14.0947618484,-5.3639497757,0.244422495365,0.0831241458654,0.135726138949,15.279999733,5.62181472778,-244.945022583,9.9439163208,-1.550979614300001,4.51480770111,1.9374361037999996,14.820949554399997,-5.707432270049998,0.05621814729999919
2018-07-30 21:24:03.450,0.151337064077,-0.0306211321412,-0.9403493833,0.0165935717523,0.0886881127954,0.0970477759838,-1.4709975,-0.38245935,7.1000146,0.0,-14.6323785782,14.0947618484,-5.3639497757,0.244422495365,0.0831241458654,0.135726138949,15.279999733,5.62181472778,-244.945022583,9.9439163208,-1.550979614300001,4.51480770111,1.9374361037999996,14.820949554399997,-5.707432270049998,0.05621814729999919
2018-07-30 21:24:03.500,0.151337064077,-0.0306211321412,-0.9403493833,0.0165935717523,0.0886881127954,0.0970477759838,-1.4709975,-0.38245935,7.1000146,0.0,-14.8959999084,14.0669212341,-5.8661699295,0.0165935717523,0.0886881127954,0.0970477759838,15.8399991989,-12.8337860107,-243.465759277,9.9439163208,-0.7409801483000003,4.824807643890001,1.9317302703999992,14.914456367499996,-5.899544239039998,-0.12833786010000026
2018-07-30 21:24:03.550,0.151337064077,-0.0306211321412,-0.9403493833,0.0165935717523,0.0886881127954,0.0970477759838,-1.4709975,-0.38245935,7.1000146,0.0,-14.8959999084,14.0669212341,-5.8661699295,0.0165935717523,0.0886881127954,0.0970477759838,15.8399991989,-12.8337860107,-243.465759277,9.9439163208,-0.7409801483000003,4.824807643890001,1.9317302703999992,14.914456367499996,-5.899544239039998,-0.12833786010000026
2018-07-30 21:24:03.600,0.154292760757,-0.0502604757748,-0.939341767125,0.0926332995296,0.051576141268,-0.0607304051518,-1.48080415,-0.12748645,8.11009955,0.0,-14.8959999084,14.0669212341,-5.8661699295,0.0165935717523,0.0886881127954,0.0970477759838,16.4300003052,-27.9499053955,-241.95249939,10.347930908199999,1.1175212861000006,2.9786759167946997,1.9116373061999994,15.036465644799996,-6.0715827941899985,-0.27949905399999864
2018-07-30 21:24:03.650,0.154292760757,-0.0502604757748,-0.939341767125,0.0926332995296,0.051576141268,-0.0607304051518,-1.48080415,-0.12748645,8.11009955,0.0,-14.8959999084,14.0669212341,-5.8661699295,0.0165935717523,0.0886881127954,0.0970477759838,16.4300003052,-27.9499053955,-241.95249939,10.347930908199999,1.1175212861000006,2.9686759263247,1.9065294266000006,15.081233978299997,-6.126364231109998,-0.27949905399999864
2018-07-30 21:24:03.700,0.154292760757,-0.0502604757748,-0.939341767125,0.0926332995296,0.051576141268,-0.0607304051518,-1.48080415,-0.12748645,8.11009955,0.0,-15.1243934631,14.101858139,-6.17031478882,0.0926332995296,0.051576141268,-0.0607304051518,17.0299987793,-42.9737091064,-240.430953979,10.347930908199999,1.717521667499998,3.3086758404946996,1.8981418609999992,15.124393463099997,-6.170314788819998,-0.4297370911000016
2018-07-30 21:24:03.750,0.154292760757,-0.0502604757748,-0.939341767125,0.0926332995296,0.051576141268,-0.0607304051518,-1.48080415,-0.12748645,8.11009955,0.0,-15.1243934631,14.101858139,-6.17031478882,0.0926332995296,0.051576141268,-0.0607304051518,17.0299987793,-42.9737091064,-240.430953979,10.347930908199999,1.717521667499998,3.3086758404946996,1.8712072372000002,15.183442115799997,-6.233820438389999,-0.4297370911000016
2018-07-30 21:24:03.800,0.153273432802,-0.0579635180368,-0.936148765439,0.140478312969,-0.0120765455067,-0.0741272047162,-1.63771055,0.50013915,8.73772515,0.0,-15.1243934631,14.101858139,-6.17031478882,0.0926332995296,0.051576141268,-0.0607304051518,17.6399993896,-67.5859451294,-238.892471313,10.347930908199999,2.4875202178999984,3.4986758977147,1.8486356735000005,15.218473434399996,-6.267901897429998,-0.6758594512999991
2018-07-30 21:24:03.850,0.153273432802,-0.0579635180368,-0.936148765439,0.140478312969,-0.0120765455067,-0.0741272047162,-1.63771055,0.50013915,8.73772515,0.0,-15.1243934631,14.101858139,-6.17031478882,0.0926332995296,0.051576141268,-0.0607304051518,17.6399993896,-67.5859451294,-238.892471313,9.368831634499998,2.6566562651999988,2.7730487585040002,1.8157072067000009,15.25117252391979,-6.296813488009998,-0.6758594512999991
2018-07-30 21:24:03.900,0.153273432802,-0.0579635180368,-0.936148765439,0.140478312969,-0.0120765455067,-0.0741272047162,-1.63771055,0.50013915,8.73772515,0.0,-15.1243934631,14.101858139,-6.17031478882,0.0926332995296,0.051576141268,-0.0607304051518,17.6399993896,-67.5859451294,-238.892471313,9.368831634499998,2.6566562651999988,2.7730487585040002,1.8157072067000009,15.25117252391979,-6.296813488009998,-0.6758594512999991
2018-07-30 21:24:03.950,0.153273432802,-0.0579635180368,-0.936148765439,0.140478312969,-0.0120765455067,-0.0741272047162,-1.63771055,0.50013915,8.73772515,0.0,-15.1243934631,14.101858139,-6.17031478882,0.0926332995296,0.051576141268,-0.0607304051518,18.2700004578,-87.9076004028,-237.347320557,9.368831634499998,3.5266571045,2.793048739434,1.7144165039000008,15.33464286851979,-6.374332427979998,-0.8790760040000016
2018-07-30 21:24:04.000,0.153273432802,-0.0579635180368,-0.936148765439,0.140478312969,-0.0120765455067,-0.0741272047162,-1.63771055,0.50013915,8.73772515,0.0,-15.3477592468,14.3073568344,-6.37631893158,0.140478312969,-0.0120765455067,-0.0741272047162,18.8999996185,-111.18144989,-235.7918396,9.368831634499998,4.39665699,2.713048815724,1.6725492476999992,15.363610725819791,-6.378143787379998,-1.1118144988999994
2018-07-30 21:24:04.050,0.153273432802,-0.0579635180368,-0.936148765439,0.140478312969,-0.0120765455067,-0.0741272047162,-1.63771055,0.50013915,8.73772515,0.0,-15.3477592468,14.3073568344,-6.37631893158,0.140478312969,-0.0120765455067,-0.0741272047162,18.8999996185,-111.18144989,-235.7918396,9.368831634499998,4.39665699,2.7230488061940004,1.6272554398000008,15.386126022819791,-6.375474929809998,-1.1118144988999994
2018-07-30 21:24:04.100,0.153273432802,-0.0579635180368,-0.936148765439,0.140478312969,-0.0120765455067,-0.0741272047162,-1.63771055,0.50013915,8.73772515,0.0,-15.3477592468,14.3073568344,-6.37631893158,0.140478312969,-0.0120765455067,-0.0741272047162,18.8999996185,-111.18144989,-235.7918396,9.368831634499998,4.39665699,2.7230488061940004,1.6272554398000008,15.386126022819791,-6.375474929809998,-1.1118144988999994
2018-07-30 21:24:04.150,0.153273432802,-0.0579635180368,-0.936148765439,0.140478312969,-0.0120765455067,-0.0741272047162,-1.63771055,0.50013915,8.73772515,0.0,-15.3477592468,14.3073568344,-6.37631893158,0.140478312969,-0.0120765455067,-0.0741272047162,19.5299987793,-134.006881714,-234.248809814,9.368831634499998,5.1866569519,2.583048701284,1.4592409134000004,15.46386819235839,-6.317597866059998,-1.3400688171000006
2018-07-30 21:24:04.200,0.132919697078,-0.0875397883263,-0.932106324674,0.074512667954,-0.072061277926,0.0264656748623,-1.75539035,-0.95124505,10.5127288,0.0,-15.4746589661,14.6053419113,-6.28459119797,0.140478312969,-0.0120765455067,-0.0741272047162,20.1499996185,-154.384231567,-232.675765991,9.368831634499998,5.8666572571,2.2730487585040002,1.3946561814000002,15.48322396635839,-6.284591197969998,-1.543842315700001
2018-07-30 21:24:04.250,0.132919697078,-0.0875397883263,-0.932106324674,0.074512667954,-0.072061277926,0.0264656748623,-1.75539035,-0.95124505,10.5127288,0.0,-15.4746589661,14.6053419113,-6.28459119797,0.140478312969,-0.0120765455067,-0.0741272047162,20.1499996185,-154.384231567,-232.675765991,8.2394638062,4.763196945199999,-1.5393271446199996,1.3064117432,15.50684934015839,-6.252453804019998,-1.543842315700001
2018-07-30 21:24:04.300,0.132919697078,-0.0875397883263,-0.932106324674,0.074512667954,-0.072061277926,0.0264656748623,-1.75539035,-0.95124505,10.5127288,0.0,-15.4746589661,14.6053419113,-6.28459119797,0.140478312969,-0.0120765455067,-0.0741272047162,20.7600002289,-166.750152588,-231.153457642,8.2394638062,5.523197173999998,-1.9093270301799996,1.233483314499999,15.643834255601,-6.217454433439999,-1.6675014495999996
2018-07-30 21:24:04.350,0.132919697078,-0.0875397883263,-0.932106324674,0.074512667954,-0.072061277926,0.0264656748623,-1.75539035,-0.95124505,10.5127288,0.0,-15.4746589661,14.6053419113,-6.28459119797,0.140478312969,-0.0120765455067,-0.0741272047162,20.7600002289,-166.750152588,-231.153457642,8.2394638062,5.523197173999998,-1.9093270301799996,1.233483314499999,15.643834255601,-6.217454433439999,-1.6675014495999996
2018-07-30 21:24:04.400,0.132919697078,-0.0875397883263,-0.932106324674,0.074512667954,-0.072061277926,0.0264656748623,-1.75539035,-0.95124505,10.5127288,0.0,-15.4746589661,14.6053419113,-6.28459119797,0.140478312969,-0.0120765455067,-0.0741272047162,20.7600002289,-166.750152588,-231.153457642,8.2394638062,5.523197173999998,-1.9093270301799996,1.1831636428999985,15.671190403400999,-6.188622474669998,-1.6675014495999996
2018-07-30 21:24:04.450,0.132919697078,-0.0875397883263,-0.932106324674,0.074512667954,-0.072061277926,0.0264656748623,-1.75539035,-0.95124505,10.5127288,0.0,-15.4746589661,14.6053419113,-6.28459119797,0.140478312969,-0.0120765455067,-0.0741272047162,21.3699989319,-182.292175293,-229.734741211,8.2394638062,6.973196983299999,-1.3993270397199997,1.0784578323999998,15.734151981801,-6.057470798489998,-1.822921752900001
2018-07-30 21:24:04.500,0.132919697078,-0.0875397883263,-0.932106324674,0.074512667954,-0.072061277926,0.0264656748623,-1.75539035,-0.95124505,10.5127288,0.0,-15.662979126,14.9877023697,-5.9570980072,0.074512667954,-0.072061277926,0.0264656748623,21.3699989319,-182.292175293,-229.734741211,8.2394638062,6.973196983299999,-1.5493271350899995,1.0784578323999998,15.734151981801,-6.057470798489998,-1.822921752900001
2018-07-30 21:24:04.550,0.132919697078,-0.0875397883263,-0.932106324674,0.074512667954,-0.072061277926,0.0264656748623,-1.75539035,-0.95124505,10.5127288,0.0,-15.662979126,14.9877023697,-5.9570980072,0.074512667954,-0.072061277926,0.0264656748623,21.9599990845,-203.38458252,-228.16003418,8.2394638062,8.323196411109999,-1.5393271446199996,0.9658794402999984,15.816051624701,-5.861129283909999,-2.033845901500001
2018-07-30 21:24:04.600,0.117378717256,-0.0752853721711,-0.936833014386,-0.0182330366224,-0.1328882128,0.00413297442719,-1.6475172,1.0002783,11.95430635,0.0,-15.662979126,14.9877023697,-5.9570980072,0.074512667954,-0.072061277926,0.0264656748623,21.9599990845,-203.38458252,-228.16003418,8.2394638062,8.323196411109999,-1.5393271446199996,0.9658794402999984,15.816051624701,-5.861129283909999,-2.033845901500001
2018-07-30 21:24:04.650,0.117378717256,-0.0752853721711,-0.936833014386,-0.0182330366224,-0.1328882128,0.00413297442719,-1.6475172,1.0002783,11.95430635,0.0,-15.662979126,14.9877023697,-5.9570980072,0.074512667954,-0.072061277926,0.0264656748623,22.5399990082,-229.830749512,-226.808120728,9.731842041,7.448863983120001,0.4161798954,0.8908720017,16.093151926979,-5.6895294189499985,-2.2983074188000003
2018-07-30 21:24:04.700,0.117378717256,-0.0752853721711,-0.936833014386,-0.0182330366224,-0.1328882128,0.00413297442719,-1.6475172,1.0002783,11.95430635,0.0,-15.8135118484,15.1306505203,-5.65899181366,-0.0182330366224,-0.1328882128,0.00413297442719,23.1000003815,-233.696166992,-225.181152344,9.731842041,8.418863773310001,0.5161798000299997,0.8749456406,16.115851283079,-5.671290874479999,-2.3369617462
2018-07-30 21:24:04.750,0.117378717256,-0.0752853721711,-0.936833014386,-0.0182330366224,-0.1328882128,0.00413297442719,-1.6475172,1.0002783,11.95430635,0.0,-15.8135118484,15.1306505203,-5.65899181366,-0.0182330366224,-0.1328882128,0.00413297442719,23.1000003815,-233.696166992,-225.181152344,9.731842041,8.418863773310001,0.5261800289099998,0.8415365219000002,16.143771052378998,-5.621995449069998,-2.3369617462
2018-07-30 21:24:04.800,0.117378717256,-0.0752853721711,-0.936833014386,-0.0182330366224,-0.1328882128,0.00413297442719,-1.6475172,1.0002783,11.95430635,0.0,-15.8135118484,15.1306505203,-5.65899181366,-0.0182330366224,-0.1328882128,0.00413297442719,23.6599998474,-248.55480957,-223.545318604,9.731842041,9.48886394498,0.5161798000299997,0.793323516800001,16.737550556625,-5.512107849119999,-2.4855480193999995
2018-07-30 21:24:04.850,0.117378717256,-0.0752853721711,-0.936833014386,-0.0182330366224,-0.1328882128,0.00413297442719,-1.6475172,1.0002783,11.95430635,0.0,-15.8135118484,15.1306505203,-5.65899181366,-0.0182330366224,-0.1328882128,0.00413297442719,23.6599998474,-248.55480957,-223.545318604,9.731842041,9.48886394498,0.5261800289099998,0.7783365250000003,16.755415737625,-5.464965820309998,-2.4855480193999995
2018-07-30 21:24:04.900,0.104599375692,-0.0539750838618,-0.935165908282,0.114806227386,-0.126461595297,-0.134441912174,-1.85345685,0.44129925,10.6107953,0.0,-15.8135118484,15.1306505203,-5.65899181366,-0.0182330366224,-0.1328882128,0.00413297442719,24.1999988556,-260.88772583,-222.504318237,11.731842041,10.5088639259,4.35617947578,0.7558984756000005,16.765783131124998,-5.401975631709998,-2.6088771820000005
2018-07-30 21:24:04.950,0.104599375692,-0.0539750838618,-0.935165908282,0.114806227386,-0.126461595297,-0.134441912174,-1.85345685,0.44129925,10.6107953,0.0,-15.8135118484,15.1306505203,-5.65899181366,-0.0182330366224,-0.1328882128,0.00413297442719,24.1999988556,-260.88772583,-222.504318237,9.897106170699999,8.3471598625,6.460187315940001,0.7058820724000014,16.759472668125,-5.320013523099998,-2.6088771820000005
2018-07-30 21:24:05.000,0.104599375692,-0.0539750838618,-0.935165908282,0.114806227386,-0.126461595297,-0.134441912174,-1.85345685,0.44129925,10.6107953,0.0,-15.8962755203,15.2905197144,-5.28649425507,0.114806227386,-0.126461595297,-0.134441912174,24.7199993134,-270.946899414,-220.834686279,9.897106170699999,8.3471598625,6.460187315940001,0.6666440964000007,16.754230320425,-5.252247810359998,-2.7094688415999997
2018-07-30 21:24:05.050,0.104599375692,-0.0539750838618,-0.935165908282,0.114806227386,-0.126461595297,-0.134441912174,-1.85345685,0.44129925,10.6107953,0.0,-15.8962755203,15.2905197144,-5.28649425507,0.114806227386,-0.126461595297,-0.134441912174,24.7199993134,-270.946899414,-220.834686279,9.897106170699999,9.21715974806,6.20018708706,0.6377706528000004,16.757227718825,-5.171501636509999,-2.7094688415999997
2018-07-30 21:24:05.100,0.104599375692,-0.0539750838618,-0.935165908282,0.114806227386,-0.126461595297,-0.134441912174,-1.85345685,0.44129925,10.6107953,0.0,-15.8962755203,15.2905197144,-5.28649425507,0.114806227386,-0.126461595297,-0.134441912174,25.2299995422,-272.141662598,-219.510681152,11.897106170699999,10.07715964316,9.820186972590001,0.5366315841000002,17.32230687138,-5.038640499109998,-2.7214164734000015
2018-07-30 21:24:05.150,0.104599375692,-0.0539750838618,-0.935165908282,0.114806227386,-0.126461595297,-0.134441912174,-1.85345685,0.44129925,10.6107953,0.0,-15.8962755203,15.2905197144,-5.28649425507,0.114806227386,-0.126461595297,-0.134441912174,25.2299995422,-272.141662598,-219.510681152,11.897106170699999,10.07715964316,9.83018720149,0.4863395691000001,17.30134606358,-4.940303325649999,-2.7214164734000015
2018-07-30 21:24:05.200,0.104599375692,-0.0539750838618,-0.935165908282,0.114806227386,-0.126461595297,-0.134441912174,-1.85345685,0.44129925,10.6107953,0.0,-15.8295345306,15.5276193619,-4.80898809433,0.114806227386,-0.126461595297,-0.134441912174,25.7199993134,-272.206115723,-217.761611938,11.897106170699999,10.76715970038,9.27018678189,0.40760326380000045,17.26782345768,-4.808988094329998,-2.722061157199999
2018-07-30 21:24:05.250,0.104599375692,-0.0539750838618,-0.935165908282,0.114806227386,-0.126461595297,-0.134441912174,-1.85345685,0.44129925,10.6107953,0.0,-15.8295345306,15.5276193619,-4.80898809433,0.114806227386,-0.126461595297,-0.134441912174,25.7199993134,-272.206115723,-217.761611938,11.897106170699999,10.76715970038,9.28018701079,0.38516235350000017,17.25827813148,-4.758582592009998,-2.722061157199999
