%time,field.orientation.x,field.orientation.y,field.orientation.z,field.angular_velocity.x,field.angular_velocity.y,field.angular_velocity.z,field.linear_acceleration.x,field.linear_acceleration.y,field.linear_acceleration.z,field.data,field.twist.linear.x,field.twist.linear.y,field.twist.linear.z,field.twist.angular.x,field.twist.angular.y,field.twist.angular.z,field.alt_error,field.aspd_error,field.xtrack_error,delta_yaw,delta_pitch,delta_roll,delta_x,delta_y,delta_z,delta_roll_airspeed
2018-07-18 19:56:50.900,,,,,,,,,,0.0,19.4949512482,-0.396292716265,-0.0432585254312,1.43843221664,-0.524784803391,0.297618746758,-0.0599999986589,-237.253753662,-36.4300537109,-171.8500442505,-5.631474971769,95.9312896728,0.00183778582141,-19.4533367157,0.154980897903,-2.3725376129000004
2018-07-18 19:56:50.950,,,,,,,,,,0.0,19.4949512482,-0.396292716265,-0.0432585254312,1.43843221664,-0.524784803391,0.297618746758,-0.119999997318,-232.640457153,-34.6491241455,-166.6015853882,-5.63850998879,67.40342903140001,-0.287958741188,-19.4102115631,0.444431036711,-2.3264045714999995
2018-07-18 19:56:51.000,0.192815652867,0.0357816614945,-0.0586542927737,2.04822897911,-0.148679882288,0.18908059597,1.8240369,-0.32361945,14.81784815,0.0,19.4949512482,-0.396292716265,-0.0432585254312,1.43843221664,-0.524784803391,0.297618746758,-0.119999997318,-232.640457153,-34.6491241455,-166.6015853882,-5.66851019859,67.40342903140001,-0.287958741188,-19.4102115631,0.444431036711,-2.3264045714999995
2018-07-18 19:56:51.050,0.192815652867,0.0357816614945,-0.0586542927737,2.04822897911,-0.148679882288,0.18908059597,1.8240369,-0.32361945,14.81784815,0.0,19.4949512482,-0.396292716265,-0.0432585254312,1.43843221664,-0.524784803391,0.297618746758,-0.239999994636,-239.042663574,-32.7995071411,-168.6015853882,-3.97851014137,67.3134288788,-0.592965960503,-19.2947731018,0.90782982111,-2.390426635699999
2018-07-18 19:56:51.100,0.192815652867,0.0357816614945,-0.0586542927737,2.04822897911,-0.148679882288,0.18908059597,1.8240369,-0.32361945,14.81784815,0.0,19.2683525085,0.627214074135,1.0007288456,2.04822897911,-0.148679882288,0.18908059597,-0.239999994636,-239.042663574,-32.7995071411,-168.6015853882,-4.31851005554,64.9834308625,-0.650941610336,-19.2453575134,1.09418237209,-2.390426635699999
2018-07-18 19:56:51.150,0.192815652867,0.0357816614945,-0.0586542927737,2.04822897911,-0.148679882288,0.18908059597,1.8240369,-0.32361945,14.81784815,0.0,19.2683525085,0.627214074135,1.0007288456,2.04822897911,-0.148679882288,0.18908059597,-0.239999994636,-239.042663574,-32.7995071411,-168.6015853882,-4.31851005554,64.9834308625,-0.650941610336,-19.2453575134,1.09418237209,-2.390426635699999
2018-07-18 19:56:51.200,0.192815652867,0.0357816614945,-0.0586542927737,2.04822897911,-0.148679882288,0.18908059597,1.8240369,-0.32361945,14.81784815,0.0,19.2683525085,0.627214074135,1.0007288456,2.04822897911,-0.148679882288,0.18908059597,-0.419999986887,-251.802444458,-30.981174469,-168.6015853882,-3.06851014495,63.7534313202,15.385922551155,-19.092432022100002,1.490412235260002,-2.5180244446000017
2018-07-18 19:56:51.250,0.192815652867,0.0357816614945,-0.0586542927737,2.04822897911,-0.148679882288,0.18908059597,1.8240369,-0.32361945,14.81784815,0.0,19.2683525085,0.627214074135,1.0007288456,2.04822897911,-0.148679882288,0.18908059597,-0.629999995232,-256.995788574,-117.338409424,-126.6015853882,-1.4685101509099998,-22.306570053100003,15.385922551155,-19.092432022100002,1.490412235260002,-2.5180244446000017
2018-07-18 19:56:51.300,0.192815652867,0.0357816614945,-0.0586542927737,2.04822897911,-0.148679882288,0.18908059597,1.8240369,-0.32361945,14.81784815,0.0,19.2683525085,0.627214074135,1.0007288456,2.04822897911,-0.148679882288,0.18908059597,-0.629999995232,-256.995788574,-117.338409424,-126.6015853882,-1.4585101604499997,-22.2665691375,15.576986819506,-18.908128738400002,1.779842615130002,-1.569957733199999
2018-07-18 19:56:51.350,-0.115040466481,0.0463108334785,-0.108915435493,0.408364027739,-0.191197872162,0.111469060183,0.06864655,0.3530394,11.83662655,0.0,18.8760986328,0.366526693106,1.83160805702,2.04822897911,-0.148679882288,0.18908059597,-0.629999995232,-256.995788574,-117.338409424,-126.6015853882,-1.4585101604499997,-22.2665691375,15.576986819506,-18.908128738400002,1.779842615130002,-1.569957733199999
2018-07-18 19:56:51.400,-0.115040466481,0.0463108334785,-0.108915435493,0.408364027739,-0.191197872162,0.111469060183,0.06864655,0.3530394,11.83662655,0.0,18.8760986328,0.366526693106,1.83160805702,2.04822897911,-0.148679882288,0.18908059597,-0.870000004768,-164.871795654,-119.18120575,-122.1361999512,-4.78500092029,-57.2204847336,15.865887001157,-18.698671340900002,2.0672018528000016,-1.6487178801999995
2018-07-18 19:56:51.450,-0.115040466481,0.0463108334785,-0.108915435493,0.408364027739,-0.191197872162,0.111469060183,0.06864655,0.3530394,11.83662655,0.0,18.8760986328,0.366526693106,1.83160805702,2.04822897911,-0.148679882288,0.18908059597,-0.870000004768,-164.871795654,-119.18120575,-122.1361999512,-4.78500092029,-57.2204847336,15.865887001157,-18.698671340900002,2.0672018528000016,-1.6487178801999995
2018-07-18 19:56:51.500,-0.115040466481,0.0463108334785,-0.108915435493,0.408364027739,-0.191197872162,0.111469060183,0.06864655,0.3530394,11.83662655,0.0,18.8760986328,0.366526693106,1.83160805702,2.04822897911,-0.148679882288,0.18908059597,-0.870000004768,-164.871795654,-119.18120575,-122.1361999512,-4.78500092029,-57.2204847336,15.865887001157,-18.698671340900002,2.0672018528000016,-1.6487178801999995
2018-07-18 19:56:51.550,-0.115040466481,0.0463108334785,-0.108915435493,0.408364027739,-0.191197872162,0.111469060183,0.06864655,0.3530394,11.83662655,0.0,18.8760986328,0.366526693106,1.83160805702,2.04822897911,-0.148679882288,0.18908059597,-1.13999998569,-181.032180786,-120.99017334,-122.1361999512,-4.96500098705,-57.0904836654,16.0567498654127,-18.419494628900004,2.430747032170002,-1.8103218078999994
2018-07-18 19:56:51.600,-0.115040466481,0.0463108334785,-0.108915435493,0.408364027739,-0.191197872162,0.111469060183,0.06864655,0.3530394,11.83662655,0.0,18.1085548401,-0.0968089774251,2.72840046883,0.408364027739,-0.191197872162,0.111469060183,-1.44999992847,-201.059906006,-122.78225708,-122.1361999512,-5.0650008916800004,-57.0604848861,16.107041597366,-18.166986465500003,2.682677268980002,-2.0105991363999998
2018-07-18 19:56:51.650,-0.115040466481,0.0463108334785,-0.108915435493,0.408364027739,-0.191197872162,0.111469060183,0.06864655,0.3530394,11.83662655,0.0,18.1085548401,-0.0968089774251,2.72840046883,0.408364027739,-0.191197872162,0.111469060183,-1.44999992847,-201.059906006,-122.78225708,-122.1361999512,-5.05500090122,-57.07048320769999,16.0922260433435,-18.052509307900003,2.765224218370002,-2.0105991363999998
2018-07-18 19:56:51.700,-0.115040466481,0.0463108334785,-0.108915435493,0.408364027739,-0.191197872162,0.111469060183,0.06864655,0.3530394,11.83662655,0.0,18.1085548401,-0.0968089774251,2.72840046883,0.408364027739,-0.191197872162,0.111469060183,-1.77999997139,-219.393539429,-124.548957825,-122.1361999512,-5.13500094413,-57.100481986999995,15.9706068299711,-17.793725967400004,2.984414339070002,-2.1939353942999986
2018-07-18 19:56:51.750,0.0893909549218,0.0853818927019,-0.110568628532,-1.13595020771,0.0584399700165,-0.0143232503906,-0.14709975,0.40207265,11.8856598,0.0,18.1085548401,-0.0968089774251,2.72840046883,0.408364027739,-0.191197872162,0.111469060183,-1.77999997139,-219.393539429,-124.548957825,-122.1361999512,-5.13500094413,-57.100481986999995,15.9706068299711,-17.793725967400004,2.984414339070002,-2.1939353942999986
2018-07-18 19:56:51.800,0.0893909549218,0.0853818927019,-0.110568628532,-1.13595020771,0.0584399700165,-0.0143232503906,-0.14709975,0.40207265,11.8856598,0.0,18.1085548401,-0.0968089774251,2.72840046883,0.408364027739,-0.191197872162,0.111469060183,-2.51999998093,-200.628479004,-127.989402771,-120.3517608643,-6.947611331940001,-33.1462421417,15.839832007885,-17.614654541000004,3.0643022060400016,-2.210979461699999
2018-07-18 19:56:51.850,0.0893909549218,0.0853818927019,-0.110568628532,-1.13595020771,0.0584399700165,-0.0143232503906,-0.14709975,0.40207265,11.8856598,0.0,17.3451747894,0.454347640276,3.12693881989,-1.13595020771,0.0584399700165,-0.0143232503906,-2.51999998093,-200.628479004,-127.989402771,-120.3517608643,-6.947611331940001,-33.1462421417,15.600317060947,-17.386352539100002,3.120660543440002,-2.0062847137000013
2018-07-18 19:56:51.900,0.0893909549218,0.0853818927019,-0.110568628532,-1.13595020771,0.0584399700165,-0.0143232503906,-0.14709975,0.40207265,11.8856598,0.0,17.3451747894,0.454347640276,3.12693881989,-1.13595020771,0.0584399700165,-0.0143232503906,-2.51999998093,-200.628479004,-127.989402771,-120.3517608643,-7.087611317630001,-33.1562404632,15.479743003845,-17.288707733200003,3.113884210590002,-2.0062847137000013
2018-07-18 19:56:51.950,0.0893909549218,0.0853818927019,-0.110568628532,-1.13595020771,0.0584399700165,-0.0143232503906,-0.14709975,0.40207265,11.8856598,0.0,17.3451747894,0.454347640276,3.12693881989,-1.13595020771,0.0584399700165,-0.0143232503906,-2.51999998093,-200.628479004,-127.989402771,-120.3517608643,-7.037611246110001,-33.1662425995,15.362780213356,-17.213750839200003,3.098330020900002,-1.5892124175999989
2018-07-18 19:56:52.000,0.222648565727,0.0928291957041,-0.0904932205825,-0.777475893497,-0.0152240563184,0.0192843638361,0.2941995,-0.18632635,9.89490985,0.0,17.3451747894,0.454347640276,3.12693881989,-1.13595020771,0.0584399700165,-0.0143232503906,-2.88999986649,-158.921234131,-129.671585083,-120.3517608643,-7.367611289020001,-33.1562404632,15.156095564365,-17.096162796000005,3.0729260444600017,-1.5892124175999989
2018-07-18 19:56:52.050,0.222648565727,0.0928291957041,-0.0904932205825,-0.777475893497,-0.0152240563184,0.0192843638361,0.2941995,-0.18632635,9.89490985,0.0,17.3451747894,0.454347640276,3.12693881989,-1.13595020771,0.0584399700165,-0.0143232503906,-3.25,-145.747558594,-131.370666504,-121.3887176514,-7.005443394188,-17.713014602700003,14.79230725765,-16.927839279200004,3.0606329441100018,-1.4574756622000002
2018-07-18 19:56:52.100,0.222648565727,0.0928291957041,-0.0904932205825,-0.777475893497,-0.0152240563184,0.0192843638361,0.2941995,-0.18632635,9.89490985,0.0,16.8927211761,1.29954528809,3.03962397575,-0.777475893497,-0.0152240563184,0.0192843638361,-3.25,-145.747558594,-131.370666504,-121.3887176514,-7.005443394188,-17.713014602700003,14.79230725765,-16.927839279200004,3.0606329441100018,-1.4574756622000002
2018-07-18 19:56:52.150,0.222648565727,0.0928291957041,-0.0904932205825,-0.777475893497,-0.0152240563184,0.0192843638361,0.2941995,-0.18632635,9.89490985,0.0,16.8927211761,1.29954528809,3.03962397575,-0.777475893497,-0.0152240563184,0.0192843638361,-3.58999991417,-134.430511475,-133.044387817,-121.3887176514,-4.9554433822699995,-17.743013381999997,14.51585590839,-16.842695236200004,2.9865081310300017,-1.4574756622000002
2018-07-18 19:56:52.200,0.222648565727,0.0928291957041,-0.0904932205825,-0.777475893497,-0.0152240563184,0.0192843638361,0.2941995,-0.18632635,9.89490985,0.0,16.8927211761,1.29954528809,3.03962397575,-0.777475893497,-0.0152240563184,0.0192843638361,-3.58999991417,-134.430511475,-133.044387817,-121.3887176514,-4.9554433822699995,-17.743013381999997,14.16138255596,-16.772666931200003,2.8349890708900016,-1.3443050385
2018-07-18 19:56:52.250,0.222648565727,0.0928291957041,-0.0904932205825,-0.777475893497,-0.0152240563184,0.0192843638361,0.2941995,-0.18632635,9.89490985,0.0,16.8927211761,1.29954528809,3.03962397575,-0.777475893497,-0.0152240563184,0.0192843638361,-3.89999985695,-106.689453125,-134.71812439,-121.3887176514,-2.8854436874399996,-17.773015976,14.16138255596,-16.772666931200003,2.8349890708900016,-1.3443050385
2018-07-18 19:56:52.300,0.222648565727,0.0928291957041,-0.0904932205825,-0.777475893497,-0.0152240563184,0.0192843638361,0.2941995,-0.18632635,9.89490985,0.0,16.8927211761,1.29954528809,3.03962397575,-0.777475893497,-0.0152240563184,0.0192843638361,-3.89999985695,-106.689453125,-134.71812439,-121.3887176514,-2.8654432296800003,-17.7830142975,13.83867788315,-16.740987777700003,2.6117420196500016,-1.066894531199999
2018-07-18 19:56:52.350,0.222648565727,0.0928291957041,-0.0904932205825,-0.777475893497,-0.0152240563184,0.0192843638361,0.2941995,-0.18632635,9.89490985,0.0,16.8927211761,1.29954528809,3.03962397575,-0.777475893497,-0.0152240563184,0.0192843638361,-3.89999985695,-106.689453125,-134.71812439,-121.3887176514,-2.8554434776299997,-17.793012619,13.66112232208,-16.713998794600002,2.491272687910002,-1.066894531199999
2018-07-18 19:56:52.400,0.297462736201,0.099476162262,-0.109967832473,-0.232116565108,-0.137537032366,0.26390427351,1.372931,-0.40207265,8.12971285,0.0,16.7139987946,2.33887767792,2.49127268791,-0.777475893497,-0.0152240563184,0.0192843638361,-4.17000007629,-63.4466171265,-136.374954224,-118.4174423218,0.25982904434,-8.668380737299998,13.3831050396,-16.635009765600003,2.302764654160002,-0.6344661713000015
2018-07-18 19:56:52.450,0.297462736201,0.099476162262,-0.109967832473,-0.232116565108,-0.137537032366,0.26390427351,1.372931,-0.40207265,8.12971285,0.0,16.7139987946,2.33887767792,2.49127268791,-0.777475893497,-0.0152240563184,0.0192843638361,-4.38999986649,-27.6161193848,-138.048660278,-118.4174423218,1.3598294258099992,-8.6783790589,13.03037834167,-16.504114151000003,2.047684669490002,-0.27616119380000015
2018-07-18 19:56:52.500,0.297462736201,0.099476162262,-0.109967832473,-0.232116565108,-0.137537032366,0.26390427351,1.372931,-0.40207265,8.12971285,0.0,16.7139987946,2.33887767792,2.49127268791,-0.777475893497,-0.0152240563184,0.0192843638361,-4.38999986649,-27.6161193848,-138.048660278,-118.4174423218,1.3598294258099992,-8.6783790589,13.03037834167,-16.504114151000003,2.047684669490002,-0.27616119380000015
2018-07-18 19:56:52.550,0.297462736201,0.099476162262,-0.109967832473,-0.232116565108,-0.137537032366,0.26390427351,1.372931,-0.40207265,8.12971285,0.0,16.7139987946,2.33887767792,2.49127268791,-0.777475893497,-0.0152240563184,0.0192843638361,-4.38999986649,-27.6161193848,-138.048660278,-118.4174423218,1.3898291587800005,-8.6783790589,12.68776726723,-16.367422103900005,1.898370862010002,-0.27616119380000015
2018-07-18 19:56:52.600,0.297462736201,0.099476162262,-0.109967832473,-0.232116565108,-0.137537032366,0.26390427351,1.372931,-0.40207265,8.12971285,0.0,16.2134799957,3.70033025742,1.81975495815,-0.232116565108,-0.137537032366,0.26390427351,-4.55999994278,-11.4519119263,-139.663223267,-118.4174423218,1.159828662869999,-8.668380737299998,12.29966974258,-16.213479995700002,1.819754958150002,-0.1145191192999988
2018-07-18 19:56:52.650,0.297462736201,0.099476162262,-0.109967832473,-0.232116565108,-0.137537032366,0.26390427351,1.372931,-0.40207265,8.12971285,0.0,16.2134799957,3.70033025742,1.81975495815,-0.232116565108,-0.137537032366,0.26390427351,-4.71999979019,-14.500617981,-141.320053101,-118.4174423218,1.2998290061899995,-8.658378601099997,12.15292334557,-16.154827117900002,1.794341325760002,-0.1145191192999988
2018-07-18 19:56:52.700,0.297462736201,0.099476162262,-0.109967832473,-0.232116565108,-0.137537032366,0.26390427351,1.372931,-0.40207265,8.12971285,0.0,16.2134799957,3.70033025742,1.81975495815,-0.232116565108,-0.137537032366,0.26390427351,-4.71999979019,-14.500617981,-141.320053101,-118.4174423218,1.2998290061899995,-8.658378601099997,11.61201763153,-15.920827865600003,1.672388672830002,-0.1450061797999993
2018-07-18 19:56:52.750,0.297462736201,0.099476162262,-0.109967832473,-0.232116565108,-0.137537032366,0.26390427351,1.372931,-0.40207265,8.12971285,0.0,16.2134799957,3.70033025742,1.81975495815,-0.232116565108,-0.137537032366,0.26390427351,-4.85999965668,-19.7313308716,-142.926147461,-118.4174423218,1.84982919693,-8.648380279599998,11.18088531494,-15.775191307100004,1.577400803570002,-0.19731330870000008
2018-07-18 19:56:52.800,0.352863325419,0.136949070677,-0.177656852116,-0.283766031265,-0.288865119219,0.30848005414,1.81423025,-0.2745862,11.05209455,0.0,16.2134799957,3.70033025742,1.81975495815,-0.232116565108,-0.137537032366,0.26390427351,-4.85999965668,-19.7313308716,-142.926147461,-108.9984054565,1.8099656105,-0.5888824462999978,10.70721769333,-15.633335113500003,1.517080903050002,-0.19731330870000008
2018-07-18 19:56:52.850,0.352863325419,0.136949070677,-0.177656852116,-0.283766031265,-0.288865119219,0.30848005414,1.81423025,-0.2745862,11.05209455,0.0,15.5565729141,5.48348140717,1.49829030037,-0.283766031265,-0.288865119219,0.30848005414,-4.98999977112,-33.81690979,-144.540710449,-108.9984054565,2.7799658775300005,-0.5788841247999983,10.174057483670001,-15.454198837300003,1.490925312040002,-0.3381690978999998
2018-07-18 19:56:52.900,0.352863325419,0.136949070677,-0.177656852116,-0.283766031265,-0.288865119219,0.30848005414,1.81423025,-0.2745862,11.05209455,0.0,15.5565729141,5.48348140717,1.49829030037,-0.283766031265,-0.288865119219,0.30848005414,-4.98999977112,-33.81690979,-144.540710449,-108.9984054565,2.7999653816200007,-0.5688819884999958,9.80531072617,-15.312017440800004,1.500375509260002,-0.3381690978999998
2018-07-18 19:56:52.950,0.352863325419,0.136949070677,-0.177656852116,-0.283766031265,-0.288865119219,0.30848005414,1.81423025,-0.2745862,11.05209455,0.0,15.5565729141,5.48348140717,1.49829030037,-0.283766031265,-0.288865119219,0.30848005414,-4.98999977112,-33.81690979,-144.540710449,-108.9984054565,2.7999653816200007,-0.5488815307999957,9.80531072617,-15.312017440800004,1.500375509260002,-0.3381690978999998
2018-07-18 19:56:53.000,0.352863325419,0.136949070677,-0.177656852116,-0.283766031265,-0.288865119219,0.30848005414,1.81423025,-0.2745862,11.05209455,0.0,15.5565729141,5.48348140717,1.49829030037,-0.283766031265,-0.288865119219,0.30848005414,-5.10999965668,-50.8991241455,-146.104507446,-108.9984054565,3.8699660300700005,-0.5488815307999957,9.21076250076,-15.114474296600003,1.515380382540002,-0.5089912414999986
2018-07-18 19:56:53.050,0.352863325419,0.136949070677,-0.177656852116,-0.283766031265,-0.288865119219,0.30848005414,1.81423025,-0.2745862,11.05209455,0.0,15.5565729141,5.48348140717,1.49829030037,-0.283766031265,-0.288865119219,0.30848005414,-5.21999979019,-82.2685241699,-147.634536743,-108.9984054565,4.75996541977,-0.5288810730000009,8.401543617249999,-14.749001503000004,1.560536742210002,-0.8226852417000003
2018-07-18 19:56:53.100,0.352863325419,0.136949070677,-0.177656852116,-0.283766031265,-0.288865119219,0.30848005414,1.81423025,-0.2745862,11.05209455,0.0,14.5506677628,7.99811506271,1.58462655544,-0.283766031265,-0.288865119219,0.30848005414,-5.21999979019,-82.2685241699,-147.634536743,-108.9984054565,4.7799658775700005,-0.5288810730000009,7.76424980164,-14.427664756800004,1.607485413550002,-0.8226852417000003
2018-07-18 19:56:53.150,0.352863325419,0.136949070677,-0.177656852116,-0.283766031265,-0.288865119219,0.30848005414,1.81423025,-0.2745862,11.05209455,0.0,14.5506677628,7.99811506271,1.58462655544,-0.283766031265,-0.288865119219,0.30848005414,-5.21999979019,-82.2685241699,-147.634536743,-108.9984054565,4.7799658775700005,-0.5288810730000009,7.76424980164,-14.427664756800004,1.607485413550002,-0.8226852417000003
2018-07-18 19:56:53.200,0.352863325419,0.136949070677,-0.177656852116,-0.283766031265,-0.288865119219,0.30848005414,1.81423025,-0.2745862,11.05209455,0.0,14.5506677628,7.99811506271,1.58462655544,-0.283766031265,-0.288865119219,0.30848005414,-5.33999967575,-119.450759888,-149.113845825,-108.9984054565,5.59996557237,-0.4988822936999995,6.69119262695,-13.832648277300004,1.688138723370002,-1.1945075988999996
2018-07-18 19:56:53.250,0.352863325419,0.136949070677,-0.177656852116,-0.283766031265,-0.288865119219,0.30848005414,1.81423025,-0.2745862,11.05209455,0.0,14.5506677628,7.99811506271,1.58462655544,-0.283766031265,-0.288865119219,0.30848005414,-5.33999967575,-119.450759888,-149.113845825,-108.9984054565,5.59996557237,-0.4988822936999995,6.69119262695,-13.832648277300004,1.688138723370002,-1.1945075988999996
2018-07-18 19:56:53.300,0.352863325419,0.136949070677,-0.177656852116,-0.283766031265,-0.288865119219,0.30848005414,1.81423025,-0.2745862,11.05209455,0.0,14.5506677628,7.99811506271,1.58462655544,-0.283766031265,-0.288865119219,0.30848005414,-5.46000003815,-152.542114258,-150.525482178,-108.9984054565,6.559965610470001,-0.44888305659999617,6.69119262695,-13.832648277300004,1.688138723370002,-1.1945075988999996
2018-07-18 19:56:53.350,0.374671410681,0.217356371889,-0.299898862849,-0.105808258057,-0.509014129639,0.288842856884,3.57942725,-0.02941995,18.4757286,0.0,12.7419700623,10.9165287018,1.86108934879,-0.105808258057,-0.509014129639,0.288842856884,-5.58999967575,-190.183639526,-151.90335083,-91.1687088013,5.3464460373,6.3960609436000055,5.2988128662000005,-12.913495063800003,1.857535362240002,-1.525421142599999
2018-07-18 19:56:53.400,0.374671410681,0.217356371889,-0.299898862849,-0.105808258057,-0.509014129639,0.288842856884,3.57942725,-0.02941995,18.4757286,0.0,12.7419700623,10.9165287018,1.86108934879,-0.105808258057,-0.509014129639,0.288842856884,-5.58999967575,-190.183639526,-151.90335083,-91.1687088013,6.276445388800001,6.446063995300001,4.4735784531,-12.272822380100003,1.897338509560002,-1.9018363952999984
2018-07-18 19:56:53.450,0.374671410681,0.217356371889,-0.299898862849,-0.105808258057,-0.509014129639,0.288842856884,3.57942725,-0.02941995,18.4757286,0.0,12.7419700623,10.9165287018,1.86108934879,-0.105808258057,-0.509014129639,0.288842856884,-5.58999967575,-190.183639526,-151.90335083,-91.1687088013,6.276445388800001,6.446063995300001,4.4735784531,-12.272822380100003,1.897338509560002,-1.9018363952999984
2018-07-18 19:56:53.500,0.374671410681,0.217356371889,-0.299898862849,-0.105808258057,-0.509014129639,0.288842856884,3.57942725,-0.02941995,18.4757286,0.0,12.7419700623,10.9165287018,1.86108934879,-0.105808258057,-0.509014129639,0.288842856884,-5.71999979019,-196.843902588,-153.196685791,-91.1687088013,6.9464454651,6.546062469399999,3.6843671799000006,-11.603525161700004,1.956641793250002,-1.9684391022000014
2018-07-18 19:56:53.550,0.374671410681,0.217356371889,-0.299898862849,-0.105808258057,-0.509014129639,0.288842856884,3.57942725,-0.02941995,18.4757286,0.0,12.7419700623,10.9165287018,1.86108934879,-0.105808258057,-0.509014129639,0.288842856884,-5.85999965668,-202.487564087,-154.430801392,-91.1687088013,7.686446189900002,6.606063842700003,2.8304862976000003,-10.786977767900003,2.1248061657000017,-2.0248756408999995
2018-07-18 19:56:53.600,0.374671410681,0.217356371889,-0.299898862849,-0.105808258057,-0.509014129639,0.288842856884,3.57942725,-0.02941995,18.4757286,0.0,10.6073789597,13.3536748886,2.15109372139,-0.105808258057,-0.509014129639,0.288842856884,-5.85999965668,-202.487564087,-154.430801392,-91.1687088013,7.686446189900002,6.606063842700003,2.8304862976000003,-10.786977767900003,2.1248061657000017,-2.0248756408999995
2018-07-18 19:56:53.650,0.350326033984,0.275605336072,-0.383530294025,0.0454044826329,-0.569727957249,0.428021878004,3.40290755,-0.4707192,18.2992089,0.0,10.6073789597,13.3536748886,2.15109372139,-0.105808258057,-0.509014129639,0.288842856884,-6.00999975204,-211.733428955,-155.563537598,-78.24899291989999,6.458034515400001,8.033454895000006,2.2443084717,-10.162903785700003,2.2283077240000018,-2.0248756408999995
2018-07-18 19:56:53.700,0.350326033984,0.275605336072,-0.383530294025,0.0454044826329,-0.569727957249,0.428021878004,3.40290755,-0.4707192,18.2992089,0.0,10.6073789597,13.3536748886,2.15109372139,-0.105808258057,-0.509014129639,0.288842856884,-6.00999975204,-211.733428955,-155.563537598,-78.24899291989999,6.458034515400001,8.033454895000006,1.9031839370999997,-9.733493804930003,2.277829408650002,-2.1173343658000014
2018-07-18 19:56:53.750,0.350326033984,0.275605336072,-0.383530294025,0.0454044826329,-0.569727957249,0.428021878004,3.40290755,-0.4707192,18.2992089,0.0,10.6073789597,13.3536748886,2.15109372139,-0.105808258057,-0.509014129639,0.288842856884,-6.00999975204,-211.733428955,-155.563537598,-78.24899291989999,6.458034515400001,8.033454895000006,1.9031839370999997,-9.733493804930003,2.277829408650002,-2.1173343658000014
2018-07-18 19:56:53.800,0.350326033984,0.275605336072,-0.383530294025,0.0454044826329,-0.569727957249,0.428021878004,3.40290755,-0.4707192,18.2992089,0.0,10.6073789597,13.3536748886,2.15109372139,-0.105808258057,-0.509014129639,0.288842856884,-6.19000005722,-208.354187012,-156.569351196,-78.24899291989999,6.888034820599998,8.033454895000006,1.0970878601000003,-8.725358009340004,2.3102719783800016,-2.0835418700999995
2018-07-18 19:56:53.850,0.350326033984,0.275605336072,-0.383530294025,0.0454044826329,-0.569727957249,0.428021878004,3.40290755,-0.4707192,18.2992089,0.0,10.6073789597,13.3536748886,2.15109372139,-0.105808258057,-0.509014129639,0.288842856884,-6.19000005722,-208.354187012,-156.569351196,-78.24899291989999,6.898035049499999,8.033454895000006,0.6563587189,-8.078201293950004,2.340617179870002,-2.0835418700999995
2018-07-18 19:56:53.900,0.350326033984,0.275605336072,-0.383530294025,0.0454044826329,-0.569727957249,0.428021878004,3.40290755,-0.4707192,18.2992089,0.0,7.43210268021,15.7592477798,2.34857940674,0.0454044826329,-0.569727957249,0.428021878004,-6.36999988556,-200.578308105,-157.490753174,-78.24899291989999,7.288034439099999,8.023456573500006,0.2407522201999992,-7.432102680210003,2.3485794067400017,-2.005783081099999
2018-07-18 19:56:53.950,0.350326033984,0.275605336072,-0.383530294025,0.0454044826329,-0.569727957249,0.428021878004,3.40290755,-0.4707192,18.2992089,0.0,7.43210268021,15.7592477798,2.34857940674,0.0454044826329,-0.569727957249,0.428021878004,-6.5499997139,-206.58493042,-158.285339355,-78.24899291989999,7.788034439099999,8.013454437300005,-0.005817413300000851,-6.982190132140004,2.344425916670002,-2.005783081099999
2018-07-18 19:56:54.000,0.328264529387,0.322558127562,-0.472648891994,-0.0256094112992,-0.600879848003,0.449950039387,3.0989014,-0.04903325,17.2008641,0.0,7.43210268021,15.7592477798,2.34857940674,0.0454044826329,-0.569727957249,0.428021878004,-6.5499997139,-206.58493042,-158.285339355,-64.5177364349,7.949369430500001,9.940116882400005,-0.5215091704999999,-6.005074977870003,2.3728234767900016,-2.0658493042000003
2018-07-18 19:56:54.050,0.328264529387,0.322558127562,-0.472648891994,-0.0256094112992,-0.600879848003,0.449950039387,3.0989014,-0.04903325,17.2008641,0.0,7.43210268021,15.7592477798,2.34857940674,0.0454044826329,-0.569727957249,0.428021878004,-6.5499997139,-206.58493042,-158.285339355,-64.5177364349,7.949369430500001,9.940116882400005,-0.5215091704999999,-6.005074977870003,2.3728234767900016,-2.0658493042000003
2018-07-18 19:56:54.100,0.328264529387,0.322558127562,-0.472648891994,-0.0256094112992,-0.600879848003,0.449950039387,3.0989014,-0.04903325,17.2008641,0.0,5.19453191757,16.8507633209,2.41029667854,-0.0256094112992,-0.600879848003,0.449950039387,-6.75,-219.956588745,-158.9868927,-64.5177364349,8.409368515000002,9.970115661700007,-1.0585231780999997,-4.635684013370003,2.424858093260002,-2.1995658875000004
2018-07-18 19:56:54.150,0.328264529387,0.322558127562,-0.472648891994,-0.0256094112992,-0.600879848003,0.449950039387,3.0989014,-0.04903325,17.2008641,0.0,5.19453191757,16.8507633209,2.41029667854,-0.0256094112992,-0.600879848003,0.449950039387,-6.75,-219.956588745,-158.9868927,-64.5177364349,8.409368515000002,9.970115661700007,-1.0585231780999997,-4.635684013370003,2.424858093260002,-2.1995658875000004
2018-07-18 19:56:54.200,0.328264529387,0.322558127562,-0.472648891994,-0.0256094112992,-0.600879848003,0.449950039387,3.0989014,-0.04903325,17.2008641,0.0,5.19453191757,16.8507633209,2.41029667854,-0.0256094112992,-0.600879848003,0.449950039387,-6.94999980927,-232.099533081,-159.553253174,-64.5177364349,8.0093688964,10.020118713400002,-1.3920536040999991,-3.6302096843700036,2.4061915874500017,-2.320995330799999
2018-07-18 19:56:54.250,0.328264529387,0.322558127562,-0.472648891994,-0.0256094112992,-0.600879848003,0.449950039387,3.0989014,-0.04903325,17.2008641,0.0,5.19453191757,16.8507633209,2.41029667854,-0.0256094112992,-0.600879848003,0.449950039387,-7.14999961853,-249.521636963,-160.001174927,-64.5177364349,7.499368667600001,10.060115814200003,-1.612503051800001,-2.5982763767200034,2.463195562360002,-2.4952163696000014
2018-07-18 19:56:54.300,0.288277570057,0.367327244058,-0.551564230681,0.256349921227,-0.679751455784,0.357788085938,2.8047019,-0.9218251,16.2398124,0.0,5.19453191757,16.8507633209,2.41029667854,-0.0256094112992,-0.600879848003,0.449950039387,-7.14999961853,-249.521636963,-160.001174927,-51.11999130249,6.6101322174,10.854362487800003,-1.7190666199000013,-2.0201787948600036,2.4959774017300016,-2.4952163696000014
2018-07-18 19:56:54.350,0.288277570057,0.367327244058,-0.551564230681,0.256349921227,-0.679751455784,0.357788085938,2.8047019,-0.9218251,16.2398124,0.0,1.72699940205,17.7928600311,2.54214644432,0.256349921227,-0.679751455784,0.357788085938,-7.36999988556,-280.801574707,-160.313934326,-51.11999130249,6.270132064800002,10.864364624000004,-1.853872299199999,-1.1363582611100036,2.6015498638200016,-2.8080158234000017
2018-07-18 19:56:54.400,0.288277570057,0.367327244058,-0.551564230681,0.256349921227,-0.679751455784,0.357788085938,2.8047019,-0.9218251,16.2398124,0.0,1.72699940205,17.7928600311,2.54214644432,0.256349921227,-0.679751455784,0.357788085938,-7.36999988556,-280.801574707,-160.313934326,-51.11999130249,6.270132064800002,10.864364624000004,-1.853872299199999,-1.1363582611100036,2.6015498638200016,-2.8080158234000017
2018-07-18 19:56:54.450,0.288277570057,0.367327244058,-0.551564230681,0.256349921227,-0.679751455784,0.357788085938,2.8047019,-0.9218251,16.2398124,0.0,1.72699940205,17.7928600311,2.54214644432,0.256349921227,-0.679751455784,0.357788085938,-7.59999990463,-301.572601318,-160.491378784,-51.11999130249,6.1101322174,10.874362945599998,-1.9694004059,0.37968885898599647,2.7397029399900017,-3.0157260894999993
2018-07-18 19:56:54.500,0.288277570057,0.367327244058,-0.551564230681,0.256349921227,-0.679751455784,0.357788085938,2.8047019,-0.9218251,16.2398124,0.0,1.72699940205,17.7928600311,2.54214644432,0.256349921227,-0.679751455784,0.357788085938,-7.59999990463,-301.572601318,-160.491378784,-51.11999130249,6.1101322174,10.874362945599998,-1.9694004059,0.37968885898599647,2.7397029399900017,-3.0157260894999993
2018-07-18 19:56:54.550,0.288277570057,0.367327244058,-0.551564230681,0.256349921227,-0.679751455784,0.357788085938,2.8047019,-0.9218251,16.2398124,0.0,1.72699940205,17.7928600311,2.54214644432,0.256349921227,-0.679751455784,0.357788085938,-7.85999965668,-326.696411133,-160.508285522,-51.11999130249,5.990133285500001,10.9043617249,-1.9928054810000013,1.3555153608299964,2.8637666702300018,-3.0157260894999993
2018-07-18 19:56:54.600,0.288277570057,0.367327244058,-0.551564230681,0.256349921227,-0.679751455784,0.357788085938,2.8047019,-0.9218251,16.2398124,0.0,-2.31422233582,17.9597644806,2.98458909988,0.256349921227,-0.679751455784,0.357788085938,-7.85999965668,-326.696411133,-160.508285522,-51.11999130249,5.990133285500001,10.9143638611,-1.9308834075999997,2.6450984477999966,3.048587083820002,-3.2669639587
2018-07-18 19:56:54.650,0.288277570057,0.367327244058,-0.551564230681,0.256349921227,-0.679751455784,0.357788085938,2.8047019,-0.9218251,16.2398124,0.0,-2.31422233582,17.9597644806,2.98458909988,0.256349921227,-0.679751455784,0.357788085938,-7.85999965668,-326.696411133,-160.508285522,-51.11999130249,5.990133285500001,10.9143638611,-1.9308834075999997,2.6450984477999966,3.048587083820002,-3.2669639587
2018-07-18 19:56:54.700,0.226108829297,0.40992685242,-0.650250186156,0.2301761657,-0.560435831547,0.39729475975,2.7262487,-0.30400615,19.93691945,0.0,-2.31422233582,17.9597644806,2.98458909988,0.256349921227,-0.679751455784,0.357788085938,-8.13000011444,-353.599914551,-160.364578247,-51.11999130249,5.740133285500001,11.864364624000004,-1.7825565338000011,3.8319315910299965,3.1652801036800016,-3.5359992980999984
2018-07-18 19:56:54.750,0.226108829297,0.40992685242,-0.650250186156,0.2301761657,-0.560435831547,0.39729475975,2.7262487,-0.30400615,19.93691945,0.0,-2.31422233582,17.9597644806,2.98458909988,0.256349921227,-0.679751455784,0.357788085938,-8.13000011444,-353.599914551,-160.364578247,-33.3188114166,5.3478851319,11.961688995300001,-1.6958618164000008,4.4033045768699965,3.211766481400002,-3.5359992980999984
2018-07-18 19:56:54.800,0.226108829297,0.40992685242,-0.650250186156,0.2301761657,-0.560435831547,0.39729475975,2.7262487,-0.30400615,19.93691945,0.0,-2.31422233582,17.9597644806,2.98458909988,0.256349921227,-0.679751455784,0.357788085938,-8.43999958038,-371.937927246,-160.051712036,-33.3188114166,4.927885055600001,15.271690368599998,-1.5095214844000004,5.217874526979997,3.254913568500002,-3.7193794249999996
2018-07-18 19:56:54.850,0.226108829297,0.40992685242,-0.650250186156,0.2301761657,-0.560435831547,0.39729475975,2.7262487,-0.30400615,19.93691945,0.0,-5.75018930435,17.3823661804,3.26759433746,0.2301761657,-0.560435831547,0.39729475975,-8.76000022888,-390.137084961,-159.60369873,-33.3188114166,4.527884483399999,18.931690216,-1.1903495789000011,6.302717685699997,3.3086156845100017,-3.901371002200001
2018-07-18 19:56:54.900,0.226108829297,0.40992685242,-0.650250186156,0.2301761657,-0.560435831547,0.39729475975,2.7262487,-0.30400615,19.93691945,0.0,-5.75018930435,17.3823661804,3.26759433746,0.2301761657,-0.560435831547,0.39729475975,-8.76000022888,-390.137084961,-159.60369873,-33.3188114166,4.527884483399999,18.931690216,-1.1903495789000011,6.302717685699997,3.3086156845100017,-3.901371002200001
2018-07-18 19:56:54.950,0.226108829297,0.40992685242,-0.650250186156,0.2301761657,-0.560435831547,0.39729475975,2.7262487,-0.30400615,19.93691945,0.0,-5.75018930435,17.3823661804,3.26759433746,0.2301761657,-0.560435831547,0.39729475975,-9.09000015259,-397.036376953,-159.037200928,-33.3188114166,4.0178842545,23.1716899871,-0.7296504974000015,7.517998695369997,3.3250977993000017,-3.9703636168999985
2018-07-18 19:56:55.000,0.226108829297,0.40992685242,-0.650250186156,0.2301761657,-0.560435831547,0.39729475975,2.7262487,-0.30400615,19.93691945,0.0,-5.75018930435,17.3823661804,3.26759433746,0.2301761657,-0.560435831547,0.39729475975,-9.09000015259,-397.036376953,-159.037200928,-33.3188114166,4.0178842545,23.201690673799998,-0.7296504974000015,7.517998695369997,3.3250977993000017,-3.9703636168999985
2018-07-18 19:56:55.050,0.162997675495,0.416341107835,-0.721099750799,0.559202075005,-0.650298953056,0.31594902277,1.36312435,0.1569064,17.6911966,0.0,-5.75018930435,17.3823661804,3.26759433746,0.2301761657,-0.560435831547,0.39729475975,-9.4299993515,-400.481414795,-158.344055176,-20.7282791138,2.7940273285000004,25.122306823699997,-0.5003604889000002,7.988014698029996,3.360337972640002,-3.9703636168999985
2018-07-18 19:56:55.100,0.162997675495,0.416341107835,-0.721099750799,0.559202075005,-0.650298953056,0.31594902277,1.36312435,0.1569064,17.6911966,0.0,-8.72879981995,16.0862731934,3.45707345009,0.559202075005,-0.650298953056,0.31594902277,-9.4299993515,-400.481414795,-158.344055176,-20.7282791138,2.7740268707,25.142307281499995,-0.08627319340000028,8.728799819949996,3.457073450090002,-4.0048141478999995
2018-07-18 19:56:55.150,0.162997675495,0.416341107835,-0.721099750799,0.559202075005,-0.650298953056,0.31594902277,1.36312435,0.1569064,17.6911966,0.0,-8.72879981995,16.0862731934,3.45707345009,0.559202075005,-0.650298953056,0.31594902277,-9.78999996185,-401.108947754,-157.549453735,-20.7282791138,2.1140270233000003,30.922306060799997,0.6955270766999995,9.888136863709997,3.723282337190002,-4.011089325
2018-07-18 19:56:55.200,0.162997675495,0.416341107835,-0.721099750799,0.559202075005,-0.650298953056,0.31594902277,1.36312435,0.1569064,17.6911966,0.0,-8.72879981995,16.0862731934,3.45707345009,0.559202075005,-0.650298953056,0.31594902277,-9.78999996185,-401.108947754,-157.549453735,-20.7282791138,2.1140270233000003,30.922306060799997,0.6955270766999995,9.888136863709997,3.723282337190002,-4.011089325
2018-07-18 19:56:55.250,0.162997675495,0.416341107835,-0.721099750799,0.559202075005,-0.650298953056,0.31594902277,1.36312435,0.1569064,17.6911966,0.0,-8.72879981995,16.0862731934,3.45707345009,0.559202075005,-0.650298953056,0.31594902277,-9.78999996185,-401.108947754,-157.549453735,-20.7282791138,2.0840272904,30.972307205199996,1.2369060516000001,10.545834541299996,3.888342380520002,-4.011089325
2018-07-18 19:56:55.300,0.162997675495,0.416341107835,-0.721099750799,0.559202075005,-0.650298953056,0.31594902277,1.36312435,0.1569064,17.6911966,0.0,-8.72879981995,16.0862731934,3.45707345009,0.559202075005,-0.650298953056,0.31594902277,-10.1899995804,-400.13293457,-156.62802124,-20.7282791138,1.3140268325999998,37.412306785599995,1.8156347275000009,11.156239509599997,4.073564052580002,-4.001329422000001
2018-07-18 19:56:55.350,0.162997675495,0.416341107835,-0.721099750799,0.559202075005,-0.650298953056,0.31594902277,1.36312435,0.1569064,17.6911966,0.0,-11.6560678482,13.6349563599,4.23208856583,0.559202075005,-0.650298953056,0.31594902277,-10.6399993896,-395.612335205,-155.605194092,-20.7282791138,0.4040269851999998,43.912305831919994,2.573857307400001,11.832369804399997,4.288053035740002,-3.9561233521000005
2018-07-18 19:56:55.400,0.162997675495,0.416341107835,-0.721099750799,0.559202075005,-0.650298953056,0.31594902277,1.36312435,0.1569064,17.6911966,0.0,-11.6560678482,13.6349563599,4.23208856583,0.559202075005,-0.650298953056,0.31594902277,-10.6399993896,-395.612335205,-155.605194092,-20.7282791138,0.3840274811000004,43.9223060608,2.9572391509999996,12.133799552899996,4.3813405036900015,-3.9561233521000005
2018-07-18 19:56:55.450,0.162997675495,0.416341107835,-0.721099750799,0.559202075005,-0.650298953056,0.31594902277,1.36312435,0.1569064,17.6911966,0.0,-11.6560678482,13.6349563599,4.23208856583,0.559202075005,-0.650298953056,0.31594902277,-11.1199998856,-384.993743896,-154.506149292,-20.7282791138,-0.6559724807999991,50.05230617524,3.5151863098000007,12.523772239699996,4.511169910430001,-3.8499374390000014
2018-07-18 19:56:55.500,0.0330060528884,0.385235395776,-0.816158322496,0.723986506462,-0.452043622732,0.270409703255,0.44129925,0.0392266,17.46564365,0.0,-11.6560678482,13.6349563599,4.23208856583,0.559202075005,-0.650298953056,0.31594902277,-11.1199998856,-384.993743896,-154.506149292,-3.1067199706999986,-4.9093742371,41.031374931340004,3.8890752792,12.750209808299996,4.580521583560002,-3.8499374390000014
2018-07-18 19:56:55.550,0.0330060528884,0.385235395776,-0.816158322496,0.723986506462,-0.452043622732,0.270409703255,0.44129925,0.0392266,17.46564365,0.0,-11.6560678482,13.6349563599,4.23208856583,0.559202075005,-0.650298953056,0.31594902277,-11.1199998856,-384.993743896,-154.506149292,-3.1067199706999986,-4.9093742371,41.031374931340004,3.8890752792,12.750209808299996,4.580521583560002,-3.8499374390000014
2018-07-18 19:56:55.600,0.0330060528884,0.385235395776,-0.816158322496,0.723986506462,-0.452043622732,0.270409703255,0.44129925,0.0392266,17.46564365,0.0,-13.089094162,11.4513425827,4.7271566391,0.723986506462,-0.452043622732,0.270409703255,-11.6499996185,-350.424560547,-153.339614868,-3.1067199706999986,-6.0593748092999995,46.1513748169,4.548657417299999,13.089094161999997,4.727156639100002,-3.5042457581000015
2018-07-18 19:56:55.650,0.0330060528884,0.385235395776,-0.816158322496,0.723986506462,-0.452043622732,0.270409703255,0.44129925,0.0392266,17.46564365,0.0,-13.089094162,11.4513425827,4.7271566391,0.723986506462,-0.452043622732,0.270409703255,-12.2100000381,-302.91595459,-152.130828857,-3.1067199706999986,-7.3793745041299985,50.301374435430006,5.1739845276,13.346469879199997,4.824822902680002,-3.0291595459000007
2018-07-18 19:56:55.700,0.0330060528884,0.385235395776,-0.816158322496,0.723986506462,-0.452043622732,0.270409703255,0.44129925,0.0392266,17.46564365,0.0,-13.089094162,11.4513425827,4.7271566391,0.723986506462,-0.452043622732,0.270409703255,-12.2100000381,-302.91595459,-152.130828857,-3.1067199706999986,-7.3793745041299985,50.301374435430006,5.1739845276,13.346469879199997,4.824822902680002,-3.0291595459000007
2018-07-18 19:56:55.750,0.0330060528884,0.385235395776,-0.816158322496,0.723986506462,-0.452043622732,0.270409703255,0.44129925,0.0392266,17.46564365,0.0,-13.089094162,11.4513425827,4.7271566391,0.723986506462,-0.452043622732,0.270409703255,-12.2100000381,-302.91595459,-152.130828857,-3.1067199706999986,-7.439374923749998,50.301374435430006,5.6465110779,13.497590064999997,4.935291767120002,-3.0291595459000007
2018-07-18 19:56:55.800,0.0330060528884,0.385235395776,-0.816158322496,0.723986506462,-0.452043622732,0.270409703255,0.44129925,0.0392266,17.46564365,0.0,-13.089094162,11.4513425827,4.7271566391,0.723986506462,-0.452043622732,0.270409703255,-12.7899999619,-262.13168335,-150.888198853,-3.1067199706999986,-8.779374599499999,53.95137500760001,6.197777748109999,13.627045631399996,5.041572093960002,-2.621316909800001
2018-07-18 19:56:55.850,0.0330060528884,0.385235395776,-0.816158322496,0.723986506462,-0.452043622732,0.270409703255,0.44129925,0.0392266,17.46564365,0.0,-13.6536941528,9.58915424347,5.00855827332,0.723986506462,-0.452043622732,0.270409703255,-13.3999996185,-226.789855957,-149.637145996,-3.1067199706999986,-10.22937440877,56.5913743973,6.497756958009999,13.657928466799996,4.993622779850002,-2.267898559599999
2018-07-18 19:56:55.900,-0.0612180059232,0.252949559137,-0.893310599603,0.927370011806,-0.160982385278,0.144796937704,0.14709975,0.26477955,10.9246081,0.0,-13.6536941528,9.58915424347,5.00855827332,0.723986506462,-0.452043622732,0.270409703255,-13.3999996185,-226.789855957,-149.637145996,-3.1067199706999986,-10.22937440877,56.5913743973,6.497756958009999,13.657928466799996,4.993622779850002,-2.267898559599999
2018-07-18 19:56:55.950,-0.0612180059232,0.252949559137,-0.893310599603,0.927370011806,-0.160982385278,0.144796937704,0.14709975,0.26477955,10.9246081,0.0,-13.6536941528,9.58915424347,5.00855827332,0.723986506462,-0.452043622732,0.270409703255,-14.0099992752,-191.063308716,-148.377502441,5.255874633799998,-12.962303638460002,40.3030862808,6.80463790894,13.646097183199997,4.995861530300002,-2.267898559599999
2018-07-18 19:56:56.000,-0.0612180059232,0.252949559137,-0.893310599603,0.927370011806,-0.160982385278,0.144796937704,0.14709975,0.26477955,10.9246081,0.0,-13.6536941528,9.58915424347,5.00855827332,0.723986506462,-0.452043622732,0.270409703255,-14.0099992752,-191.063308716,-148.377502441,5.255874633799998,-12.992303371430001,40.2830867767,6.99698543549,13.615739822399997,5.015671730040002,-1.9106330872000008
2018-07-18 19:56:56.050,-0.0612180059232,0.252949559137,-0.893310599603,0.927370011806,-0.160982385278,0.144796937704,0.14709975,0.26477955,10.9246081,0.0,-13.6536941528,9.58915424347,5.00855827332,0.723986506462,-0.452043622732,0.270409703255,-14.6300001144,-167.826660156,-147.143356323,5.255874633799998,-15.212303519250002,41.4130859375,7.2577009201,13.551262855499996,5.061972618100002,-1.9106330872000008
2018-07-18 19:56:56.100,-0.0612180059232,0.252949559137,-0.893310599603,0.927370011806,-0.160982385278,0.144796937704,0.14709975,0.26477955,10.9246081,0.0,-13.4804258347,8.56424331665,5.14232826233,0.927370011806,-0.160982385278,0.144796937704,-14.6300001144,-167.826660156,-147.143356323,5.255874633799998,-15.232303500180002,41.4130859375,7.43575668335,13.480425834699997,5.142328262330002,-1.6782665252999998
2018-07-18 19:56:56.150,-0.11635226086,0.138773124259,-0.923312717668,0.983466625214,-0.0304964352399,0.179187878966,-0.1176798,-0.1569064,11.40513395,0.0,-13.4804258347,8.56424331665,5.14232826233,0.927370011806,-0.160982385278,0.144796937704,-14.6300001144,-167.826660156,-147.143356323,5.255874633799998,-15.232303500180002,41.4130859375,7.67462444305,13.343849182099996,5.2626008987400015,-1.6782665252999998
2018-07-18 19:56:56.200,-0.11635226086,0.138773124259,-0.923312717668,0.983466625214,-0.0304964352399,0.179187878966,-0.1176798,-0.1569064,11.40513395,0.0,-13.4804258347,8.56424331665,5.14232826233,0.927370011806,-0.160982385278,0.144796937704,-15.2699995041,-163.316162109,-145.892303467,7.4210205078000016,-16.77028965949,27.632888794000003,7.89998626709,13.162504196199997,5.309157371520001,-1.6331615448
2018-07-18 19:56:56.250,-0.11635226086,0.138773124259,-0.923312717668,0.983466625214,-0.0304964352399,0.179187878966,-0.1176798,-0.1569064,11.40513395,0.0,-13.4804258347,8.56424331665,5.14232826233,0.927370011806,-0.160982385278,0.144796937704,-15.2699995041,-163.316162109,-145.892303467,7.4210205078000016,-16.77028965949,27.632888794000003,7.89998626709,13.162504196199997,5.309157371520001,-1.6331615448
2018-07-18 19:56:56.300,-0.11635226086,0.138773124259,-0.923312717668,0.983466625214,-0.0304964352399,0.179187878966,-0.1176798,-0.1569064,11.40513395,0.0,-13.4804258347,8.56424331665,5.14232826233,0.927370011806,-0.160982385278,0.144796937704,-15.9099998474,-142.534255981,-144.717285156,7.4210205078000016,-18.030289687205897,27.8528900147,7.89998626709,13.162504196199997,5.309157371520001,-1.6331615448
2018-07-18 19:56:56.350,-0.11635226086,0.138773124259,-0.923312717668,0.983466625214,-0.0304964352399,0.179187878966,-0.1176798,-0.1569064,11.40513395,0.0,-12.7568922043,7.80737686157,5.22584152222,0.983466625214,-0.0304964352399,0.179187878966,-15.9099998474,-142.534255981,-144.717285156,7.4210205078000016,-18.030289687205897,27.8528900147,8.0978808403,12.933275222799997,5.229651927950002,-1.4253425598000007
2018-07-18 19:56:56.400,-0.11635226086,0.138773124259,-0.923312717668,0.983466625214,-0.0304964352399,0.179187878966,-0.1176798,-0.1569064,11.40513395,0.0,-12.7568922043,7.80737686157,5.22584152222,0.983466625214,-0.0304964352399,0.179187878966,-16.5599994659,-105.890274048,-143.525405884,7.4210205078000016,-19.260289669029998,27.712888717700004,8.205602169039999,12.708136558499996,5.186849594120002,-1.0589027404999989
2018-07-18 19:56:56.450,-0.11635226086,0.138773124259,-0.923312717668,0.983466625214,-0.0304964352399,0.179187878966,-0.1176798,-0.1569064,11.40513395,0.0,-12.7568922043,7.80737686157,5.22584152222,0.983466625214,-0.0304964352399,0.179187878966,-17.1999988556,-69.8143005371,-142.375732422,7.4210205078000016,-20.6002895832,27.302888870300002,8.29254245758,12.509367942799997,5.0391063690200015,-0.6981430053999986
2018-07-18 19:56:56.500,-0.11635226086,0.138773124259,-0.923312717668,0.983466625214,-0.0304964352399,0.179187878966,-0.1176798,-0.1569064,11.40513395,0.0,-12.7568922043,7.80737686157,5.22584152222,0.983466625214,-0.0304964352399,0.179187878966,-17.1999988556,-69.8143005371,-142.375732422,7.4210205078000016,-20.6002895832,27.342889785799997,8.29254245758,12.509367942799997,5.0391063690200015,-0.6981430053999986
2018-07-18 19:56:56.550,-0.135001096802,0.00524643866948,-0.943464530681,0.582703113556,0.285023331642,0.00438828533515,-0.10787315,0.69627215,7.01175475,0.0,-12.7568922043,7.80737686157,5.22584152222,0.983466625214,-0.0304964352399,0.179187878966,-17.8099994659,-37.664604187,-141.251480103,9.864963531500003,-18.81629753116,11.886540412870001,8.31105661392,12.420414924599996,4.933109283450002,-0.6981430053999986
2018-07-18 19:56:56.600,-0.135001096802,0.00524643866948,-0.943464530681,0.582703113556,0.285023331642,0.00438828533515,-0.10787315,0.69627215,7.01175475,0.0,-12.2931556702,7.67564678192,4.69766521454,0.582703113556,0.285023331642,0.00438828533515,-17.8099994659,-37.664604187,-141.251480103,9.864963531500003,-18.8062975407,11.926541328470002,8.33417320251,12.219615936299997,4.533739089970002,-0.37664604189999906
2018-07-18 19:56:56.650,-0.135001096802,0.00524643866948,-0.943464530681,0.582703113556,0.285023331642,0.00438828533515,-0.10787315,0.69627215,7.01175475,0.0,-12.2931556702,7.67564678192,4.69766521454,0.582703113556,0.285023331642,0.00438828533515,-18.3799991608,7.67164230347,-140.144119263,9.864963531500003,-19.92629766467,11.366540908769998,8.33417320251,12.219615936299997,4.533739089970002,-0.37664604189999906
2018-07-18 19:56:56.700,-0.135001096802,0.00524643866948,-0.943464530681,0.582703113556,0.285023331642,0.00438828533515,-0.10787315,0.69627215,7.01175475,0.0,-12.2931556702,7.67564678192,4.69766521454,0.582703113556,0.285023331642,0.00438828533515,-18.3799991608,7.67164230347,-140.144119263,9.864963531500003,-19.92629766467,11.366540908769998,8.329984188080001,12.082528114299997,4.143106937410002,0.07671642300000059
2018-07-18 19:56:56.750,-0.135001096802,0.00524643866948,-0.943464530681,0.582703113556,0.285023331642,0.00438828533515,-0.10787315,0.69627215,7.01175475,0.0,-12.2931556702,7.67564678192,4.69766521454,0.582703113556,0.285023331642,0.00438828533515,-18.8899993896,55.5884361267,-139.036743164,9.864963531500003,-21.13629770282,10.776540756269998,8.28911113739,11.926570892299996,3.771991968150002,0.5558843613000004
2018-07-18 19:56:56.800,-0.135001096802,0.00524643866948,-0.943464530681,0.582703113556,0.285023331642,0.00438828533515,-0.10787315,0.69627215,7.01175475,0.0,-11.8485059738,7.72576284409,3.62174582481,0.582703113556,0.285023331642,0.00438828533515,-18.8899993896,55.5884361267,-139.036743164,9.864963531500003,-21.13629770282,10.79654026027,8.279724597929999,11.882957458499996,3.694758653640002,0.5558843613000004
2018-07-18 19:56:56.850,-0.135001096802,0.00524643866948,-0.943464530681,0.582703113556,0.285023331642,0.00438828533515,-0.10787315,0.69627215,7.01175475,0.0,-11.8485059738,7.72576284409,3.62174582481,0.582703113556,0.285023331642,0.00438828533515,-19.3500003815,108.275222778,-137.963180542,9.864963531500003,-22.47629737857,10.05654048917,8.267837047579999,11.815165519699997,3.536860942840002,0.5558843613000004
2018-07-18 19:56:56.900,-0.120410275198,-0.078030566597,-0.938085196585,0.12123670429,0.144283547997,-0.192706421018,-0.20593965,0.3530394,5.85457005,0.0,-11.8485059738,7.72576284409,3.62174582481,0.582703113556,0.285023331642,0.00438828533515,-19.3500003815,108.275222778,-137.963180542,9.864963531500003,-22.47629737857,10.05654048917,8.241818904879999,11.679903030399997,3.3605394363400016,1.0827522278000004
2018-07-18 19:56:56.950,-0.120410275198,-0.078030566597,-0.938085196585,0.12123670429,0.144283547997,-0.192706421018,-0.20593965,0.3530394,5.85457005,0.0,-11.8485059738,7.72576284409,3.62174582481,0.582703113556,0.285023331642,0.00438828533515,-19.75,122.467132568,-136.91494751,7.677299499500002,-18.88791942595,0.2852602004999998,8.18160581589,11.530705451999996,3.2254526615100017,1.2246713638000006
2018-07-18 19:56:57.000,-0.120410275198,-0.078030566597,-0.938085196585,0.12123670429,0.144283547997,-0.192706421018,-0.20593965,0.3530394,5.85457005,0.0,-11.8485059738,7.72576284409,3.62174582481,0.582703113556,0.285023331642,0.00438828533515,-19.75,122.467132568,-136.91494751,7.677299499500002,-18.88791942595,0.31525993350000014,8.15011072159,11.439456939699996,3.123719453810002,1.2246713638000006
2018-07-18 19:56:57.050,-0.120410275198,-0.078030566597,-0.938085196585,0.12123670429,0.144283547997,-0.192706421018,-0.20593965,0.3530394,5.85457005,0.0,-11.3322105408,7.89392471313,3.03838396072,0.12123670429,0.144283547997,-0.192706421018,-20.1299991608,135.258392334,-135.858306885,7.677299499500002,-19.897918701149997,-0.8447399139999998,8.06613349915,11.240332603499997,2.955697298050002,1.3525838851999996
2018-07-18 19:56:57.100,-0.120410275198,-0.078030566597,-0.938085196585,0.12123670429,0.144283547997,-0.192706421018,-0.20593965,0.3530394,5.85457005,0.0,-11.3322105408,7.89392471313,3.03838396072,0.12123670429,0.144283547997,-0.192706421018,-20.1299991608,135.258392334,-135.858306885,7.677299499500002,-19.88791942595,-0.8247404099000004,8.06613349915,11.240332603499997,2.955697298050002,1.3525838851999996
2018-07-18 19:56:57.150,-0.120410275198,-0.078030566597,-0.938085196585,0.12123670429,0.144283547997,-0.192706421018,-0.20593965,0.3530394,5.85457005,0.0,-11.3322105408,7.89392471313,3.03838396072,0.12123670429,0.144283547997,-0.192706421018,-20.1299991608,135.258392334,-135.858306885,7.677299499500002,-19.88791942595,-0.8247404099000004,8.01185178757,11.136142730699996,2.857227087020002,1.3525838851999996
2018-07-18 19:56:57.200,-0.120410275198,-0.078030566597,-0.938085196585,0.12123670429,0.144283547997,-0.192706421018,-0.20593965,0.3530394,5.85457005,0.0,-11.3322105408,7.89392471313,3.03838396072,0.12123670429,0.144283547997,-0.192706421018,-20.4799995422,147.323226929,-134.81854248,7.677299499500002,-20.737918853700002,-2.0847406386999996,7.90696048737,10.955783843999997,2.604828119280002,1.4732322693000004
2018-07-18 19:56:57.250,-0.120410275198,-0.078030566597,-0.938085196585,0.12123670429,0.144283547997,-0.192706421018,-0.20593965,0.3530394,5.85457005,0.0,-11.3322105408,7.89392471313,3.03838396072,0.12123670429,0.144283547997,-0.192706421018,-20.4799995422,147.323226929,-134.81854248,7.677299499500002,-20.737918853700002,-2.0847406386999996,7.8764190673800005,10.905190467799997,2.5258708000200016,1.4732322693000004
2018-07-18 19:56:57.300,-0.120410275198,-0.078030566597,-0.938085196585,0.12123670429,0.144283547997,-0.192706421018,-0.20593965,0.3530394,5.85457005,0.0,-10.7176771164,8.24305438995,2.08233237267,0.12123670429,0.144283547997,-0.192706421018,-20.7999992371,164.024642944,-133.804168701,7.677299499500002,-21.5279188156,-3.274740219130001,7.785704612729999,10.756796836899996,2.172015190120002,1.6402463912999998
2018-07-18 19:56:57.350,-0.120410275198,-0.078030566597,-0.938085196585,0.12123670429,0.144283547997,-0.192706421018,-0.20593965,0.3530394,5.85457005,0.0,-10.7176771164,8.24305438995,2.08233237267,0.12123670429,0.144283547997,-0.192706421018,-21.0900001526,184.148788452,-132.80670166,7.677299499500002,-22.15791893,-4.344739913950001,7.73351669312,10.688796997099997,1.981821417810002,1.8414878844999993
2018-07-18 19:56:57.400,-0.120410275198,-0.078030566597,-0.938085196585,0.12123670429,0.144283547997,-0.192706421018,-0.20593965,0.3530394,5.85457005,0.0,-10.7176771164,8.24305438995,2.08233237267,0.12123670429,0.144283547997,-0.192706421018,-21.0900001526,184.148788452,-132.80670166,7.677299499500002,-22.15791893,-4.33473968507,7.63638877869,10.561406135599997,1.521485447880002,1.8414878844999993
2018-07-18 19:56:57.450,-0.0556786382508,-0.127272692989,-0.926922025484,-0.097155623138,0.347682505846,-0.0697623118758,-0.2549729,-0.42168595,3.69710705,0.0,-10.7176771164,8.24305438995,2.08233237267,0.12123670429,0.144283547997,-0.192706421018,-21.3099994659,212.02192688,-131.826126099,4.6635704041,-13.360059082537001,-8.179555416069999,7.63638877869,10.561406135599997,1.521485447880002,1.8414878844999993
2018-07-18 19:56:57.500,-0.0556786382508,-0.127272692989,-0.926922025484,-0.097155623138,0.347682505846,-0.0697623118758,-0.2549729,-0.42168595,3.69710705,0.0,-10.7176771164,8.24305438995,2.08233237267,0.12123670429,0.144283547997,-0.192706421018,-21.3099994659,212.02192688,-131.826126099,4.6635704041,-13.360059082537001,-8.179555416069999,7.55334949493,10.457560539199996,1.041452646260002,2.1202192307
2018-07-18 19:56:57.550,-0.0556786382508,-0.127272692989,-0.926922025484,-0.097155623138,0.347682505846,-0.0697623118758,-0.2549729,-0.42168595,3.69710705,0.0,-10.3592290878,8.5395488739,0.578305542469,-0.097155623138,0.347682505846,-0.0697623118758,-21.4799995422,238.676269531,-130.854019165,4.6635704041,-13.360059082537001,-8.179555416069999,7.50707530975,10.412825584399997,0.810033321381002,2.3867626190000006
2018-07-18 19:56:57.600,-0.0556786382508,-0.127272692989,-0.926922025484,-0.097155623138,0.347682505846,-0.0697623118758,-0.2549729,-0.42168595,3.69710705,0.0,-10.3592290878,8.5395488739,0.578305542469,-0.097155623138,0.347682505846,-0.0697623118758,-21.4799995422,238.676269531,-130.854019165,4.6635704041,-13.810058891737,-9.039555549589998,7.419869422910001,10.315210342399997,0.3608402609830019,2.3867626190000006
2018-07-18 19:56:57.650,-0.0556786382508,-0.127272692989,-0.926922025484,-0.097155623138,0.347682505846,-0.0697623118758,-0.2549729,-0.42168595,3.69710705,0.0,-10.3592290878,8.5395488739,0.578305542469,-0.097155623138,0.347682505846,-0.0697623118758,-21.5799999237,251.996520996,-129.881912231,4.6635704041,-14.180058777337,-9.799555301629999,7.39809703827,10.289890289299997,0.11670110374700196,2.519965171799999
2018-07-18 19:56:57.700,-0.0556786382508,-0.127272692989,-0.926922025484,-0.097155623138,0.347682505846,-0.0697623118758,-0.2549729,-0.42168595,3.69710705,0.0,-10.3592290878,8.5395488739,0.578305542469,-0.097155623138,0.347682505846,-0.0697623118758,-21.5799999237,251.996520996,-129.881912231,4.6635704041,-14.180058777337,-9.799555301629999,7.34722328186,10.225835800199997,-0.20195715129399802,2.519965171799999
2018-07-18 19:56:57.750,-0.0556786382508,-0.127272692989,-0.926922025484,-0.097155623138,0.347682505846,-0.0697623118758,-0.2549729,-0.42168595,3.69710705,0.0,-10.3592290878,8.5395488739,0.578305542469,-0.097155623138,0.347682505846,-0.0697623118758,-21.5799999237,251.996520996,-129.881912231,4.6635704041,-14.180058777337,-9.799555301629999,7.34722328186,10.225835800199997,-0.20195715129399802,2.519965171799999
2018-07-18 19:56:57.800,-0.0556786382508,-0.127272692989,-0.926922025484,-0.097155623138,0.347682505846,-0.0697623118758,-0.2549729,-0.42168595,3.69710705,0.0,-10.1605272293,8.72142505646,-0.578548133373,-0.097155623138,0.347682505846,-0.0697623118758,-21.6199989319,251.22756958,-128.918182373,4.6635704041,-14.390058815437001,-10.46955537793,7.278574943540001,10.160527229299996,-0.578548133372998,2.5122756957999997
2018-07-18 19:56:57.850,-0.00197314584217,-0.123409281308,-0.929073440411,-0.247485652566,0.240839719772,-0.0541746281087,-0.38245935,0.1569064,5.0013915,0.0,-10.1605272293,8.72142505646,-0.578548133373,-0.097155623138,0.347682505846,-0.0697623118758,-21.609998703,238.889892578,-127.962974548,5.4110641478999995,-8.763571262340001,-8.54397153855,7.206764221189999,10.100232124299996,-0.921617269515998,2.3888988495000003
2018-07-18 19:56:57.900,-0.00197314584217,-0.123409281308,-0.929073440411,-0.247485652566,0.240839719772,-0.0541746281087,-0.38245935,0.1569064,5.0013915,0.0,-10.1605272293,8.72142505646,-0.578548133373,-0.097155623138,0.347682505846,-0.0697623118758,-21.609998703,238.889892578,-127.962974548,5.4110641478999995,-8.763571262340001,-8.55397129059,7.177603721620001,10.083321802999874,-1.098078370089998,2.3888988495000003
2018-07-18 19:56:57.950,-0.00197314584217,-0.123409281308,-0.929073440411,-0.247485652566,0.240839719772,-0.0541746281087,-0.38245935,0.1569064,5.0013915,0.0,-10.1605272293,8.72142505646,-0.578548133373,-0.097155623138,0.347682505846,-0.0697623118758,-21.5499992371,228.129394531,-127.007743835,5.4110641478999995,-8.39357137684,-9.033971309670001,7.13389587402,10.054353945599873,-1.262385845179998,2.2812938690000006
2018-07-18 19:56:58.000,-0.00197314584217,-0.123409281308,-0.929073440411,-0.247485652566,0.240839719772,-0.0541746281087,-0.38245935,0.1569064,5.0013915,0.0,-10.037730217,8.91065979004,-1.52427744865,-0.247485652566,0.240839719772,-0.0541746281087,-21.5499992371,228.129394531,-127.007743835,5.4110641478999995,-8.40357160564,-9.04397153855,7.101495742799999,10.037829630699873,-1.430484890939998,2.2812938690000006
2018-07-18 19:56:58.050,-0.00197314584217,-0.123409281308,-0.929073440411,-0.247485652566,0.240839719772,-0.0541746281087,-0.38245935,0.1569064,5.0013915,0.0,-10.037730217,8.91065979004,-1.52427744865,-0.247485652566,0.240839719772,-0.0541746281087,-21.5499992371,228.129394531,-127.007743835,5.4110641478999995,-8.40357160564,-9.04397153855,7.07702922821,10.032582514599873,-1.610199451449998,2.2812938690000006
