%time,field.orientation.x,field.orientation.y,field.orientation.z,field.angular_velocity.x,field.angular_velocity.y,field.angular_velocity.z,field.linear_acceleration.x,field.linear_acceleration.y,field.linear_acceleration.z,field.data,field.twist.linear.x,field.twist.linear.y,field.twist.linear.z,field.twist.angular.x,field.twist.angular.y,field.twist.angular.z,field.alt_error,field.aspd_error,field.xtrack_error,delta_yaw,delta_pitch,delta_roll,delta_x,delta_y,delta_z,delta_roll_airspeed
2018-07-18 20:44:43.850,,,,,,,,,,0.0,,,,,,,0.119999997318,-566.92980957,-391.97644043,-137.9836730957,3.419306039815,33.73996806142,17.14534878731,-21.836343765300004,-0.12657491862799802,-4.669298172000001
2018-07-18 20:44:43.900,,,,,,,,,,0.0,,,,,,,0.119999997318,-469.865234375,-394.191101074,-132.2541275024,-1.1259226799000002,-24.281263351399996,16.679740190506,-21.704124450700004,0.11922527104600196,-4.698652267500002
2018-07-18 20:44:43.950,0.179012444746,0.0236410094571,-0.0111717656131,0.794922828674,-0.10380616039,0.161342933774,-0.40207265,0.02941995,13.2978174,0.0,,,,,,,0.119999997318,-469.865234375,-394.191101074,-132.2541275024,-1.1259226799000002,-24.281263351399996,16.524592876434,-21.644315719600005,0.18882602453200198,-4.698652267500002
2018-07-18 20:44:44.000,0.179012444746,0.0236410094571,-0.0111717656131,0.794922828674,-0.10380616039,0.161342933774,-0.40207265,0.02941995,13.2978174,0.0,,,,,,,0.119999997318,-469.865234375,-394.191101074,-132.2541275024,-1.1859226226800001,-24.281263351399996,16.385741233826,-21.588708877600002,0.21784968674200197,-4.698652267500002
2018-07-18 20:44:44.050,0.179012444746,0.0236410094571,-0.0111717656131,0.794922828674,-0.10380616039,0.161342933774,-0.40207265,0.02941995,13.2978174,0.0,21.620759964,-0.463721603155,0.188816934824,0.794922828674,-0.10380616039,0.161342933774,0.0999999940395,-464.632995605,-396.397369385,-132.2541275024,0.38407731055999994,-24.281263351399996,16.237243711948,-21.531188964800002,0.24527531862300198,-4.6463298798
2018-07-18 20:44:44.100,0.179012444746,0.0236410094571,-0.0111717656131,0.794922828674,-0.10380616039,0.161342933774,-0.40207265,0.02941995,13.2978174,0.0,21.620759964,-0.463721603155,0.188816934824,0.794922828674,-0.10380616039,0.161342933774,0.0599999986589,-456.756958008,-398.578338623,-132.2541275024,0.9240772724199999,-24.281263351399996,15.9232492744923,-21.426685333300004,0.26423177123100194,-4.567569732700001
2018-07-18 20:44:44.150,0.179012444746,0.0236410094571,-0.0111717656131,0.794922828674,-0.10380616039,0.161342933774,-0.40207265,0.02941995,13.2978174,0.0,21.620759964,-0.463721603155,0.188816934824,0.794922828674,-0.10380616039,0.161342933774,0.0599999986589,-456.756958008,-398.578338623,-132.2541275024,0.9240772724199999,-24.281263351399996,15.9232492744923,-21.426685333300004,0.26423177123100194,-4.567569732700001
2018-07-18 20:44:44.200,0.179012444746,0.0236410094571,-0.0111717656131,0.794922828674,-0.10380616039,0.161342933774,-0.40207265,0.02941995,13.2978174,0.0,21.2804298401,0.544393181801,0.338252067566,0.794922828674,-0.10380616039,0.161342933774,0.0599999986589,-456.756958008,-398.578338623,-132.2541275024,0.9040772914899997,-24.271261215200003,15.54096326232,-21.303085327100003,0.31883728504200193,-4.567569732700001
2018-07-18 20:44:44.250,0.179012444746,0.0236410094571,-0.0111717656131,0.794922828674,-0.10380616039,0.161342933774,-0.40207265,0.02941995,13.2978174,0.0,21.2804298401,0.544393181801,0.338252067566,0.794922828674,-0.10380616039,0.161342933774,0.00999999977648,-439.842987061,-400.72543335,-132.2541275024,2.0140771865900002,-24.261262893699996,15.338085651398,-21.236360549900002,0.3669405579570019,-4.398429870600001
2018-07-18 20:44:44.300,0.245106344672,0.0411244688947,-0.05993169821,-0.489966362715,-0.10565020144,0.205346032977,-0.40207265,0.10787315,11.16977435,0.0,21.2804298401,0.544393181801,0.338252067566,0.794922828674,-0.10380616039,0.161342933774,-0.0499999970198,-438.871582031,-402.872558594,-126.1713409424,2.4661941528299995,-16.280246734599995,14.95589864254,-21.129596710200005,0.34018680453300193,-4.388715743999999
2018-07-18 20:44:44.350,0.245106344672,0.0411244688947,-0.05993169821,-0.489966362715,-0.10565020144,0.205346032977,-0.40207265,0.10787315,11.16977435,0.0,21.2804298401,0.544393181801,0.338252067566,0.794922828674,-0.10380616039,0.161342933774,-0.0499999970198,-438.871582031,-402.872558594,-126.1713409424,2.4661941528299995,-16.280246734599995,14.95589864254,-21.129596710200005,0.34018680453300193,-4.388715743999999
2018-07-18 20:44:44.400,0.245106344672,0.0411244688947,-0.05993169821,-0.489966362715,-0.10565020144,0.205346032977,-0.40207265,0.10787315,11.16977435,0.0,21.2804298401,0.544393181801,0.338252067566,0.794922828674,-0.10380616039,0.161342933774,-0.0499999970198,-438.871582031,-402.872558594,-126.1713409424,2.5061945915199995,-16.2702445983,14.52945864201,-21.004943847700005,0.33621060848200196,-4.388715743999999
2018-07-18 20:44:44.450,0.245106344672,0.0411244688947,-0.05993169821,-0.489966362715,-0.10565020144,0.205346032977,-0.40207265,0.10787315,11.16977435,0.0,20.9042835236,1.81366145611,0.341262847185,-0.489966362715,-0.10565020144,0.205346032977,-0.109999999404,-423.044006348,-405.0027771,-126.1713409424,3.1561942100500002,-16.2502441406,14.29032385349,-20.930889129600004,0.32893496751800194,-4.230440139799999
2018-07-18 20:44:44.500,0.245106344672,0.0411244688947,-0.05993169821,-0.489966362715,-0.10565020144,0.205346032977,-0.40207265,0.10787315,11.16977435,0.0,20.9042835236,1.81366145611,0.341262847185,-0.489966362715,-0.10565020144,0.205346032977,-0.170000001788,-415.653045654,-407.124542236,-126.1713409424,3.68619441986,-16.220245361299998,13.800798416140001,-20.784915924100005,0.36958158016200193,-4.1565303801999995
2018-07-18 20:44:44.550,0.245106344672,0.0411244688947,-0.05993169821,-0.489966362715,-0.10565020144,0.205346032977,-0.40207265,0.10787315,11.16977435,0.0,20.9042835236,1.81366145611,0.341262847185,-0.489966362715,-0.10565020144,0.205346032977,-0.170000001788,-415.653045654,-407.124542236,-126.1713409424,3.7161941528299995,-16.190246581999997,13.800798416140001,-20.784915924100005,0.36958158016200193,-4.1565303801999995
2018-07-18 20:44:44.600,0.245106344672,0.0411244688947,-0.05993169821,-0.489966362715,-0.10565020144,0.205346032977,-0.40207265,0.10787315,11.16977435,0.0,20.9042835236,1.81366145611,0.341262847185,-0.489966362715,-0.10565020144,0.205346032977,-0.170000001788,-415.653045654,-407.124542236,-126.1713409424,3.7161941528299995,-16.190246581999997,13.24103665352,-20.622129440300004,0.521167099476002,-4.187332153300002
2018-07-18 20:44:44.650,0.245106344672,0.0411244688947,-0.05993169821,-0.489966362715,-0.10565020144,0.205346032977,-0.40207265,0.10787315,11.16977435,0.0,20.9042835236,1.81366145611,0.341262847185,-0.489966362715,-0.10565020144,0.205346032977,-0.239999994636,-418.733215332,-409.212493896,-126.1713409424,4.246194362640001,-16.150245666500002,12.78249669075,-20.490789413500003,0.629701077938002,-4.187332153300002
2018-07-18 20:44:44.700,0.302395013349,0.0827665432886,-0.10565745513,-0.00553274061531,-0.330323964357,0.24470846355,0.8629852,-0.5295591,14.24906245,0.0,20.443529129,3.37221121788,0.678006529808,-0.489966362715,-0.10565020144,0.205346032977,-0.329999983311,-422.695922852,-411.29196167,-119.4904708862,3.613445758820001,-8.5701713562,12.62778878212,-20.443529129000005,0.678006529808002,-4.187332153300002
2018-07-18 20:44:44.750,0.302395013349,0.0827665432886,-0.10565745513,-0.00553274061531,-0.330323964357,0.24470846355,0.8629852,-0.5295591,14.24906245,0.0,20.443529129,3.37221121788,0.678006529808,-0.489966362715,-0.10565020144,0.205346032977,-0.329999983311,-422.695922852,-411.29196167,-119.4904708862,3.613445758820001,-8.5701713562,12.15567374229,-20.301649093600002,0.836001217365002,-4.2269592285
2018-07-18 20:44:44.800,0.302395013349,0.0827665432886,-0.10565745513,-0.00553274061531,-0.330323964357,0.24470846355,0.8629852,-0.5295591,14.24906245,0.0,20.443529129,3.37221121788,0.678006529808,-0.489966362715,-0.10565020144,0.205346032977,-0.329999983311,-422.695922852,-411.29196167,-119.4904708862,3.6234459877000003,-8.550170898399998,11.62103128433,-20.134334564200003,1.031016349790002,-4.2269592285
2018-07-18 20:44:44.850,0.302395013349,0.0827665432886,-0.10565745513,-0.00553274061531,-0.330323964357,0.24470846355,0.8629852,-0.5295591,14.24906245,0.0,20.443529129,3.37221121788,0.678006529808,-0.489966362715,-0.10565020144,0.205346032977,-0.329999983311,-422.695922852,-411.29196167,-119.4904708862,3.6234459877000003,-8.550170898399998,11.62103128433,-20.134334564200003,1.031016349790002,-4.2269592285
2018-07-18 20:44:44.900,0.302395013349,0.0827665432886,-0.10565745513,-0.00553274061531,-0.330323964357,0.24470846355,0.8629852,-0.5295591,14.24906245,0.0,20.443529129,3.37221121788,0.678006529808,-0.489966362715,-0.10565020144,0.205346032977,-0.579999983311,-456.405456543,-415.349517822,-119.4904708862,7.24344587331,-8.530170440699997,10.512475967410001,-19.713106155400002,1.442733407020002,-4.564054489099998
2018-07-18 20:44:44.950,0.302395013349,0.0827665432886,-0.10565745513,-0.00553274061531,-0.330323964357,0.24470846355,0.8629852,-0.5295591,14.24906245,0.0,19.5658321381,5.80155849457,1.53937768936,-0.00553274061531,-0.330323964357,0.24470846355,-0.579999983311,-456.405456543,-415.349517822,-119.4904708862,7.27344560621,-8.530170440699997,10.512475967410001,-19.713106155400002,1.442733407020002,-4.564054489099998
2018-07-18 20:44:45.000,0.302395013349,0.0827665432886,-0.10565745513,-0.00553274061531,-0.330323964357,0.24470846355,0.8629852,-0.5295591,14.24906245,0.0,19.5658321381,5.80155849457,1.53937768936,-0.00553274061531,-0.330323964357,0.24470846355,-0.75,-453.372009277,-417.310668945,-119.4904708862,9.08344602581,-8.530170440699997,9.73569869995,-19.315507888800003,1.592206358910002,-4.5337200164999985
2018-07-18 20:44:45.050,0.335861444297,0.117714836757,-0.173597087936,-0.16565656662,-0.296660363674,0.346757948399,0.1372931,-0.3726527,12.7682583,0.0,19.5658321381,5.80155849457,1.53937768936,-0.00553274061531,-0.330323964357,0.24470846355,-0.75,-453.372009277,-417.310668945,-110.4296798706,8.6851930618,-3.3759269713999984,9.31503725052,-19.060789108300003,1.591202378270002,-4.5337200164999985
2018-07-18 20:44:45.100,0.335861444297,0.117714836757,-0.173597087936,-0.16565656662,-0.296660363674,0.346757948399,0.1372931,-0.3726527,12.7682583,0.0,19.5658321381,5.80155849457,1.53937768936,-0.00553274061531,-0.330323964357,0.24470846355,-0.75,-453.372009277,-417.310668945,-110.4296798706,8.6851930618,-3.3759269713999984,9.31503725052,-19.060789108300003,1.591202378270002,-4.5337200164999985
2018-07-18 20:44:45.150,0.335861444297,0.117714836757,-0.173597087936,-0.16565656662,-0.296660363674,0.346757948399,0.1372931,-0.3726527,12.7682583,0.0,19.5658321381,5.80155849457,1.53937768936,-0.00553274061531,-0.330323964357,0.24470846355,-0.939999997616,-441.089050293,-419.246276855,-110.4296798706,10.3151922226,-3.3559265135999965,8.62052726746,-18.603641510000003,1.572393059730002,-4.4108905792
2018-07-18 20:44:45.200,0.335861444297,0.117714836757,-0.173597087936,-0.16565656662,-0.296660363674,0.346757948399,0.1372931,-0.3726527,12.7682583,0.0,18.2421073914,7.85530996323,1.6291885376,-0.16565656662,-0.296660363674,0.346757948399,-1.11000001431,-428.252593994,-421.139831543,-110.4296798706,10.525193214399998,-3.3359260558999964,8.62052726746,-18.603641510000003,1.572393059730002,-4.4108905792
2018-07-18 20:44:45.250,0.335861444297,0.117714836757,-0.173597087936,-0.16565656662,-0.296660363674,0.346757948399,0.1372931,-0.3726527,12.7682583,0.0,18.2421073914,7.85530996323,1.6291885376,-0.16565656662,-0.296660363674,0.346757948399,-1.11000001431,-428.252593994,-421.139831543,-110.4296798706,10.525193214399998,-3.3359260558999964,8.013934612269999,-18.139652252200005,1.598645210270002,-4.2825260161999985
2018-07-18 20:44:45.300,0.335861444297,0.117714836757,-0.173597087936,-0.16565656662,-0.296660363674,0.346757948399,0.1372931,-0.3726527,12.7682583,0.0,18.2421073914,7.85530996323,1.6291885376,-0.16565656662,-0.296660363674,0.346757948399,-1.28999996185,-421.032897949,-422.974182129,-110.4296798706,10.5451936722,-3.325927734299995,7.7199954986599995,-17.901844024700004,1.617266535760002,-4.210329055799999
2018-07-18 20:44:45.350,0.335861444297,0.117714836757,-0.173597087936,-0.16565656662,-0.296660363674,0.346757948399,0.1372931,-0.3726527,12.7682583,0.0,18.2421073914,7.85530996323,1.6291885376,-0.16565656662,-0.296660363674,0.346757948399,-1.28999996185,-421.032897949,-422.974182129,-110.4296798706,10.785193443299999,-3.2959251402999996,7.2578153610200005,-17.534717559800004,1.637054920200002,-4.210329055799999
2018-07-18 20:44:45.400,0.335861444297,0.117714836757,-0.173597087936,-0.16565656662,-0.296660363674,0.346757948399,0.1372931,-0.3726527,12.7682583,0.0,18.2421073914,7.85530996323,1.6291885376,-0.16565656662,-0.296660363674,0.346757948399,-1.28999996185,-421.032897949,-422.974182129,-110.4296798706,10.8151922226,-3.2559242247999975,6.9270200729399996,-17.259815216100005,1.684084057810002,-4.210329055799999
2018-07-18 20:44:45.450,0.335861444297,0.117714836757,-0.173597087936,-0.16565656662,-0.296660363674,0.346757948399,0.1372931,-0.3726527,12.7682583,0.0,16.7928981781,9.60934257507,1.79932129383,-0.16565656662,-0.296660363674,0.346757948399,-1.48000001907,-420.531066895,-424.740875244,-110.4296798706,11.345192909199998,-3.205924987799996,6.563611030580001,-16.940071106000005,1.776535391810002,-4.2053108214999995
2018-07-18 20:44:45.500,0.352063997265,0.183419604033,-0.264812802971,-0.191445186734,-0.54195690155,0.264933288097,0.59820565,-0.08825985,16.44575205,0.0,16.7928981781,9.60934257507,1.79932129383,-0.16565656662,-0.296660363674,0.346757948399,-1.67999994755,-430.147155762,-426.431518555,-97.1191558838,9.858483314519999,1.7823982238000013,5.874035835300001,-16.328887939500003,1.920621156690002,-4.301471710200001
2018-07-18 20:44:45.550,0.352063997265,0.183419604033,-0.264812802971,-0.191445186734,-0.54195690155,0.264933288097,0.59820565,-0.08825985,16.44575205,0.0,16.7928981781,9.60934257507,1.79932129383,-0.16565656662,-0.296660363674,0.346757948399,-1.67999994755,-430.147155762,-426.431518555,-97.1191558838,9.858483314519999,1.7823982238000013,5.874035835300001,-16.328887939500003,1.920621156690002,-4.301471710200001
2018-07-18 20:44:45.600,0.352063997265,0.183419604033,-0.264812802971,-0.191445186734,-0.54195690155,0.264933288097,0.59820565,-0.08825985,16.44575205,0.0,16.7928981781,9.60934257507,1.79932129383,-0.16565656662,-0.296660363674,0.346757948399,-1.67999994755,-430.147155762,-426.431518555,-97.1191558838,9.88848209382,1.8323974608999976,5.145669937099999,-15.631044387800003,2.0863900184600017,-4.301471710200001
2018-07-18 20:44:45.650,0.352063997265,0.183419604033,-0.264812802971,-0.191445186734,-0.54195690155,0.264933288097,0.59820565,-0.08825985,16.44575205,0.0,16.7928981781,9.60934257507,1.79932129383,-0.16565656662,-0.296660363674,0.346757948399,-1.90999996662,-435.025390625,-428.037567139,-97.1191558838,10.428483009319999,1.862396240199999,4.5554914474,-15.045316696200004,2.2385234832800016,-4.350254058800001
2018-07-18 20:44:45.700,0.352063997265,0.183419604033,-0.264812802971,-0.191445186734,-0.54195690155,0.264933288097,0.59820565,-0.08825985,16.44575205,0.0,14.6364574432,11.8416185379,2.34561777115,-0.191445186734,-0.54195690155,0.264933288097,-2.15999984741,-449.952514648,-429.55065918,-97.1191558838,10.528483390819998,1.8823966980000009,3.962384223899999,-14.431343078600003,2.3984940052000017,-4.499525070200001
2018-07-18 20:44:45.750,0.352063997265,0.183419604033,-0.264812802971,-0.191445186734,-0.54195690155,0.264933288097,0.59820565,-0.08825985,16.44575205,0.0,14.6364574432,11.8416185379,2.34561777115,-0.191445186734,-0.54195690155,0.264933288097,-2.15999984741,-449.952514648,-429.55065918,-97.1191558838,10.528483390819998,1.8823966980000009,3.962384223899999,-14.431343078600003,2.3984940052000017,-4.499525070200001
2018-07-18 20:44:45.800,0.352063997265,0.183419604033,-0.264812802971,-0.191445186734,-0.54195690155,0.264933288097,0.59820565,-0.08825985,16.44575205,0.0,14.6364574432,11.8416185379,2.34561777115,-0.191445186734,-0.54195690155,0.264933288097,-2.41999983788,-443.905456543,-430.945404053,-97.1191558838,10.548481941219999,1.8923988342000015,3.1085872650000006,-13.507042884800004,2.490557909010002,-4.439054489099998
2018-07-18 20:44:45.850,0.352063997265,0.183419604033,-0.264812802971,-0.191445186734,-0.54195690155,0.264933288097,0.59820565,-0.08825985,16.44575205,0.0,14.6364574432,11.8416185379,2.34561777115,-0.191445186734,-0.54195690155,0.264933288097,-2.41999983788,-443.905456543,-430.945404053,-97.1191558838,10.55848217012,1.902397155700001,2.8101739883000008,-13.170590400700004,2.4825050830800017,-4.439054489099998
2018-07-18 20:44:45.900,0.356573836658,0.245625309567,-0.348726702986,0.0646941736341,-0.536648273468,0.311211079359,1.5298374,0.0588399,15.3768272,0.0,12.613158226,13.647778511,2.46591615677,0.0646941736341,-0.536648273468,0.311211079359,-2.41999983788,-443.905456543,-430.945404053,-84.1191864014,9.18401813509,6.365852356000005,2.5057344436999998,-12.805013656600003,2.4723322391500018,-4.439054489099998
2018-07-18 20:44:45.950,0.356573836658,0.245625309567,-0.348726702986,0.0646941736341,-0.536648273468,0.311211079359,1.5298374,0.0588399,15.3768272,0.0,12.613158226,13.647778511,2.46591615677,0.0646941736341,-0.536648273468,0.311211079359,-2.69000005722,-428.218444824,-432.264007568,-84.1191864014,9.18401813509,6.395851135299999,2.2099542618,-12.433010101300004,2.4702639579800016,-4.282184600800001
2018-07-18 20:44:46.000,0.356573836658,0.245625309567,-0.348726702986,0.0646941736341,-0.536648273468,0.311211079359,1.5298374,0.0588399,15.3768272,0.0,12.613158226,13.647778511,2.46591615677,0.0646941736341,-0.536648273468,0.311211079359,-2.95000004768,-408.096313477,-433.481262207,-84.1191864014,9.19401836399,6.495853424100005,1.6710891724000003,-11.704073905900003,2.4700148105600017,-4.080963134800001
2018-07-18 20:44:46.050,0.356573836658,0.245625309567,-0.348726702986,0.0646941736341,-0.536648273468,0.311211079359,1.5298374,0.0588399,15.3768272,0.0,12.613158226,13.647778511,2.46591615677,0.0646941736341,-0.536648273468,0.311211079359,-2.95000004768,-408.096313477,-433.481262207,-84.1191864014,9.19401836399,6.535850524900006,1.6710891724000003,-11.704073905900003,2.4700148105600017,-4.080963134800001
2018-07-18 20:44:46.100,0.356573836658,0.245625309567,-0.348726702986,0.0646941736341,-0.536648273468,0.311211079359,1.5298374,0.0588399,15.3768272,0.0,12.613158226,13.647778511,2.46591615677,0.0646941736341,-0.536648273468,0.311211079359,-3.21000003815,-399.012390137,-434.60534668,-84.1191864014,9.19401836399,6.545852661200001,1.0201911926000005,-10.680940628100004,2.515797853470002,-3.9901237487999985
2018-07-18 20:44:46.150,0.356573836658,0.245625309567,-0.348726702986,0.0646941736341,-0.536648273468,0.311211079359,1.5298374,0.0588399,15.3768272,0.0,10.3046770096,15.1973218918,2.51561045647,0.0646941736341,-0.536648273468,0.311211079359,-3.21000003815,-399.012390137,-434.60534668,-84.1191864014,9.19401836399,6.545852661200001,1.0201911926000005,-10.680940628100004,2.515797853470002,-3.9901237487999985
2018-07-18 20:44:46.200,0.356573836658,0.245625309567,-0.348726702986,0.0646941736341,-0.536648273468,0.311211079359,1.5298374,0.0588399,15.3768272,0.0,10.3046770096,15.1973218918,2.51561045647,0.0646941736341,-0.536648273468,0.311211079359,-3.46000003815,-398.119171143,-435.619750977,-84.1191864014,8.81401920319,6.535850524900006,1.0201911926000005,-10.680940628100004,2.515797853470002,-3.9901237487999985
2018-07-18 20:44:46.250,0.325660495431,0.290726009813,-0.428028588795,0.159065037966,-0.417463392019,0.336534112692,1.69655045,-0.85317855,14.56287525,0.0,10.3046770096,15.1973218918,2.51561045647,0.0646941736341,-0.536648273468,0.311211079359,-3.46000003815,-398.119171143,-435.619750977,-84.1191864014,8.81401920319,6.535850524900006,0.48055267330000007,-9.666538238530004,2.5174963474300016,-3.9811916351
2018-07-18 20:44:46.300,0.325660495431,0.290726009813,-0.428028588795,0.159065037966,-0.417463392019,0.336534112692,1.69655045,-0.85317855,14.56287525,0.0,10.3046770096,15.1973218918,2.51561045647,0.0646941736341,-0.536648273468,0.311211079359,-3.72000002861,-393.793884277,-436.53237915,-72.1883525848,7.022130012599998,6.802936554000006,0.03281021119999927,-8.666267395020004,2.5092370510100017,-3.9379386901999993
2018-07-18 20:44:46.350,0.325660495431,0.290726009813,-0.428028588795,0.159065037966,-0.417463392019,0.336534112692,1.69655045,-0.85317855,14.56287525,0.0,10.3046770096,15.1973218918,2.51561045647,0.0646941736341,-0.536648273468,0.311211079359,-3.72000002861,-393.793884277,-436.53237915,-72.1883525848,7.022130012599998,6.782939910900005,0.03281021119999927,-8.666267395020004,2.5092370510100017,-3.9379386901999993
2018-07-18 20:44:46.400,0.325660495431,0.290726009813,-0.428028588795,0.159065037966,-0.417463392019,0.336534112692,1.69655045,-0.85317855,14.56287525,0.0,7.7863535881,16.2926998138,2.54061174393,0.159065037966,-0.417463392019,0.336534112692,-3.97000002861,-392.248352051,-437.335449219,-72.1883525848,6.4921312333,6.762939453100003,-0.29269981379999876,-7.786353588100003,2.5406117439300018,-3.9379386901999993
2018-07-18 20:44:46.450,0.325660495431,0.290726009813,-0.428028588795,0.159065037966,-0.417463392019,0.336534112692,1.69655045,-0.85317855,14.56287525,0.0,7.7863535881,16.2926998138,2.54061174393,0.159065037966,-0.417463392019,0.336534112692,-3.97000002861,-392.248352051,-437.335449219,-72.1883525848,6.4921312333,6.762939453100003,-0.29269981379999876,-7.786353588100003,2.5406117439300018,-3.9379386901999993
2018-07-18 20:44:46.500,0.325660495431,0.290726009813,-0.428028588795,0.159065037966,-0.417463392019,0.336534112692,1.69655045,-0.85317855,14.56287525,0.0,7.7863535881,16.2926998138,2.54061174393,0.159065037966,-0.417463392019,0.336534112692,-3.97000002861,-392.248352051,-437.335449219,-72.1883525848,6.5021295548,6.7129364014,-0.6217784882000004,-6.679042339320003,2.523489713670002,-3.922483444200001
2018-07-18 20:44:46.550,0.325660495431,0.290726009813,-0.428028588795,0.159065037966,-0.417463392019,0.336534112692,1.69655045,-0.85317855,14.56287525,0.0,7.7863535881,16.2926998138,2.54061174393,0.159065037966,-0.417463392019,0.336534112692,-3.97000002861,-392.248352051,-437.335449219,-72.1883525848,6.5021295548,6.7129364014,-0.6217784882000004,-6.679042339320003,2.523489713670002,-3.922483444200001
2018-07-18 20:44:46.600,0.325660495431,0.290726009813,-0.428028588795,0.159065037966,-0.417463392019,0.336534112692,1.69655045,-0.85317855,14.56287525,0.0,7.7863535881,16.2926998138,2.54061174393,0.159065037966,-0.417463392019,0.336534112692,-4.23000001907,-384.421539307,-438.020172119,-72.1883525848,6.042130470299998,6.662937164300004,-0.8809757233000006,-5.5651373863200035,2.5023131370500016,-3.8442153931000007
2018-07-18 20:44:46.650,0.299435355003,0.33252304922,-0.535280066577,-0.156014338136,-0.45055270195,0.424937605858,1.0983448,0.1765197,15.1806942,0.0,5.06015539169,16.9717922211,2.49978947639,0.159065037966,-0.417463392019,0.336534112692,-4.5,-383.185974121,-438.594818115,-72.1883525848,5.672129631099999,6.632938385000003,-1.0148258209000005,-4.8078799247700035,2.486255168910002,-3.8318595886000004
2018-07-18 20:44:46.700,0.299435355003,0.33252304922,-0.535280066577,-0.156014338136,-0.45055270195,0.424937605858,1.0983448,0.1765197,15.1806942,0.0,5.06015539169,16.9717922211,2.49978947639,0.159065037966,-0.417463392019,0.336534112692,-4.5,-383.185974121,-438.594818115,-56.0259284973,7.182070732090001,8.240467071600001,-1.0874404907000006,-4.330568313600003,2.450017690660002,-3.8318595886000004
2018-07-18 20:44:46.750,0.299435355003,0.33252304922,-0.535280066577,-0.156014338136,-0.45055270195,0.424937605858,1.0983448,0.1765197,15.1806942,0.0,5.06015539169,16.9717922211,2.49978947639,0.159065037966,-0.417463392019,0.336534112692,-4.75999975204,-378.241333008,-439.051300049,-56.0259284973,6.822071075489999,8.200466156000005,-1.1950988769999995,-3.6096870899200035,2.3890342712400017,-3.782413482700001
2018-07-18 20:44:46.800,0.299435355003,0.33252304922,-0.535280066577,-0.156014338136,-0.45055270195,0.424937605858,1.0983448,0.1765197,15.1806942,0.0,5.06015539169,16.9717922211,2.49978947639,0.159065037966,-0.417463392019,0.336534112692,-5.01999998093,-368.51940918,-439.380645752,-56.0259284973,6.622070312489999,8.180465698300004,-1.1950988769999995,-3.6096870899200035,2.3890342712400017,-3.782413482700001
2018-07-18 20:44:46.850,0.299435355003,0.33252304922,-0.535280066577,-0.156014338136,-0.45055270195,0.424937605858,1.0983448,0.1765197,15.1806942,0.0,2.3162689209,17.3084793091,2.16246771812,-0.156014338136,-0.45055270195,0.424937605858,-5.01999998093,-368.51940918,-439.380645752,-56.0259284973,6.63207054139,8.160469055200004,-1.2961235046000006,-2.5061364173900036,2.218364477160002,-3.6851940154999987
2018-07-18 20:44:46.900,0.299435355003,0.33252304922,-0.535280066577,-0.156014338136,-0.45055270195,0.424937605858,1.0983448,0.1765197,15.1806942,0.0,2.3162689209,17.3084793091,2.16246771812,-0.156014338136,-0.45055270195,0.424937605858,-5.26999998093,-345.741088867,-439.60043335,-56.0259284973,6.63207054139,8.150466919000003,-1.3322582244999985,-1.9392157793000036,2.0390481948900017,-3.457410812399999
2018-07-18 20:44:46.950,0.299435355003,0.33252304922,-0.535280066577,-0.156014338136,-0.45055270195,0.424937605858,1.0983448,0.1765197,15.1806942,0.0,2.3162689209,17.3084793091,2.16246771812,-0.156014338136,-0.45055270195,0.424937605858,-5.26999998093,-345.741088867,-439.60043335,-56.0259284973,6.17207050319,8.160469055200004,-1.3429164886000002,-1.7452220916700036,1.982982754710002,-3.457410812399999
2018-07-18 20:44:47.000,0.299435355003,0.33252304922,-0.535280066577,-0.156014338136,-0.45055270195,0.424937605858,1.0983448,0.1765197,15.1806942,0.0,2.3162689209,17.3084793091,2.16246771812,-0.156014338136,-0.45055270195,0.424937605858,-5.48999977112,-334.126464844,-439.718597412,-56.0259284973,5.952071189889999,8.180465698300004,-1.349882125899999,-1.1020338535300036,1.851595997810002,-3.3412647247000002
2018-07-18 20:44:47.050,0.299435355003,0.33252304922,-0.535280066577,-0.156014338136,-0.45055270195,0.424937605858,1.0983448,0.1765197,15.1806942,0.0,2.3162689209,17.3084793091,2.16246771812,-0.156014338136,-0.45055270195,0.424937605858,-5.48999977112,-334.126464844,-439.718597412,-56.0259284973,5.982070922889999,8.190467834499998,-1.3295764922999993,-0.20218306779900355,1.731909155850002,-3.3412647247000002
2018-07-18 20:44:47.100,0.299435355003,0.33252304922,-0.535280066577,-0.156014338136,-0.45055270195,0.424937605858,1.0983448,0.1765197,15.1806942,0.0,-0.022708479315,17.3185787201,1.70151603222,-0.156014338136,-0.45055270195,0.424937605858,-5.69000005722,-327.215209961,-439.727081299,-56.0259284973,5.822071075489999,8.190467834499998,-1.3068485259999996,0.24878156185199646,1.668591260910002,-3.272151947000001
2018-07-18 20:44:47.150,0.278570565641,0.391460441997,-0.617196428228,0.0324937961996,-0.439645379782,0.341724961996,1.4513842,-0.6864655,13.77834325,0.0,-0.022708479315,17.3185787201,1.70151603222,-0.156014338136,-0.45055270195,0.424937605858,-5.69000005722,-327.215209961,-439.727081299,-56.0259284973,5.822071075489999,8.190467834499998,-1.3068485259999996,0.24878156185199646,1.668591260910002,-3.272151947000001
2018-07-18 20:44:47.200,0.278570565641,0.391460441997,-0.617196428228,0.0324937961996,-0.439645379782,0.341724961996,1.4513842,-0.6864655,13.77834325,0.0,-0.022708479315,17.3185787201,1.70151603222,-0.156014338136,-0.45055270195,0.424937605858,-5.8799996376,-324.521057129,-439.625518799,-40.03972697258,6.33323097231,12.554992675800001,-1.3068485259999996,0.24878156185199646,1.668591260910002,-3.272151947000001
2018-07-18 20:44:47.250,0.278570565641,0.391460441997,-0.617196428228,0.0324937961996,-0.439645379782,0.341724961996,1.4513842,-0.6864655,13.77834325,0.0,-0.022708479315,17.3185787201,1.70151603222,-0.156014338136,-0.45055270195,0.424937605858,-5.8799996376,-324.521057129,-439.625518799,-40.03972697258,6.33323097231,12.554992675800001,-1.2030715942000008,1.4159852266299964,1.499800562860002,-3.2452106476000004
2018-07-18 20:44:47.300,0.278570565641,0.391460441997,-0.617196428228,0.0324937961996,-0.439645379782,0.341724961996,1.4513842,-0.6864655,13.77834325,0.0,-0.022708479315,17.3185787201,1.70151603222,-0.156014338136,-0.45055270195,0.424937605858,-6.03999996185,-317.160217285,-439.405731201,-40.03972697258,6.233230590810001,13.754989624099998,-1.0897579192999984,2.3315932750699964,1.361636161800002,-3.2452106476000004
2018-07-18 20:44:47.350,0.278570565641,0.391460441997,-0.617196428228,0.0324937961996,-0.439645379782,0.341724961996,1.4513842,-0.6864655,13.77834325,0.0,-2.77048635483,17.0240039825,1.28499996662,0.0324937961996,-0.439645379782,0.341724961996,-6.03999996185,-317.160217285,-439.405731201,-40.03972697258,6.233230590810001,13.754989624099998,-1.0570869446000017,2.5564830303199964,1.325880885120002,-3.171602249100001
2018-07-18 20:44:47.400,0.278570565641,0.391460441997,-0.617196428228,0.0324937961996,-0.439645379782,0.341724961996,1.4513842,-0.6864655,13.77834325,0.0,-2.77048635483,17.0240039825,1.28499996662,0.0324937961996,-0.439645379782,0.341724961996,-6.21000003815,-330.998809814,-439.084503174,-40.03972697258,6.2232313156100005,16.344989776700004,-0.8949909210000015,3.4498338699299964,1.176241874690002,-3.171602249100001
2018-07-18 20:44:47.450,0.278570565641,0.391460441997,-0.617196428228,0.0324937961996,-0.439645379782,0.341724961996,1.4513842,-0.6864655,13.77834325,0.0,-2.77048635483,17.0240039825,1.28499996662,0.0324937961996,-0.439645379782,0.341724961996,-6.21000003815,-330.998809814,-439.084503174,-40.03972697258,6.183231353710001,16.334991455100003,-0.6344985962000003,4.476189136509997,1.095468401910002,-3.3099880219000006
2018-07-18 20:44:47.500,0.278570565641,0.391460441997,-0.617196428228,0.0324937961996,-0.439645379782,0.341724961996,1.4513842,-0.6864655,13.77834325,0.0,-2.77048635483,17.0240039825,1.28499996662,0.0324937961996,-0.439645379782,0.341724961996,-6.34999990463,-334.658233643,-438.627685547,-40.03972697258,6.233230590810001,19.854991912899997,-0.6344985962000003,4.476189136509997,1.095468401910002,-3.3099880219000006
2018-07-18 20:44:47.550,0.278570565641,0.391460441997,-0.617196428228,0.0324937961996,-0.439645379782,0.341724961996,1.4513842,-0.6864655,13.77834325,0.0,-2.77048635483,17.0240039825,1.28499996662,0.0324937961996,-0.439645379782,0.341724961996,-6.34999990463,-334.658233643,-438.627685547,-40.03972697258,6.20323085781,19.854991912899997,-0.2047805786000012,5.774676322939997,1.127614140510002,-3.3465824126999983
2018-07-18 20:44:47.600,0.278570565641,0.391460441997,-0.617196428228,0.0324937961996,-0.439645379782,0.341724961996,1.4513842,-0.6864655,13.77834325,0.0,-6.05966281891,16.0874233246,1.14424407482,0.0324937961996,-0.439645379782,0.341724961996,-6.48000001907,-348.293304443,-438.044372559,-40.03972697258,6.14323139191,24.2949905396,0.01985549930000019,6.317349910739996,1.178582906720002,-3.4829330443999993
2018-07-18 20:44:47.650,0.202209216519,0.406332069843,-0.732467548181,0.347518861294,-0.649617135525,0.496384710073,1.8240369,-0.48052585,17.8873296,0.0,-6.05966281891,16.0874233246,1.14424407482,0.0324937961996,-0.439645379782,0.341724961996,-6.48000001907,-348.293304443,-438.044372559,-20.0476341248,7.729681491820001,20.949604034399997,0.3918132782000008,7.107836246489996,1.251406073570002,-3.4829330443999993
2018-07-18 20:44:47.700,0.202209216519,0.406332069843,-0.732467548181,0.347518861294,-0.649617135525,0.496384710073,1.8240369,-0.48052585,17.8873296,0.0,-6.05966281891,16.0874233246,1.14424407482,0.0324937961996,-0.439645379782,0.341724961996,-6.48000001907,-348.293304443,-438.044372559,-20.0476341248,7.729681491820001,20.949604034399997,0.3918132782000008,7.107836246489996,1.251406073570002,-3.4829330443999993
2018-07-18 20:44:47.750,0.202209216519,0.406332069843,-0.732467548181,0.347518861294,-0.649617135525,0.496384710073,1.8240369,-0.48052585,17.8873296,0.0,-6.05966281891,16.0874233246,1.14424407482,0.0324937961996,-0.439645379782,0.341724961996,-6.63999986649,-366.020019531,-437.342651367,-20.0476341248,7.48968172072,26.239604949899995,0.6797180176000008,7.628597259519997,1.307364583020002,-3.660200118999999
2018-07-18 20:44:47.800,0.202209216519,0.406332069843,-0.732467548181,0.347518861294,-0.649617135525,0.496384710073,1.8240369,-0.48052585,17.8873296,0.0,-6.05966281891,16.0874233246,1.14424407482,0.0324937961996,-0.439645379782,0.341724961996,-6.63999986649,-366.020019531,-437.342651367,-20.0476341248,7.48968172072,26.239604949899995,1.0943756104000002,8.325410842899997,1.356236100200002,-3.660200118999999
2018-07-18 20:44:47.850,0.202209216519,0.406332069843,-0.732467548181,0.347518861294,-0.649617135525,0.496384710073,1.8240369,-0.48052585,17.8873296,0.0,-6.05966281891,16.0874233246,1.14424407482,0.0324937961996,-0.439645379782,0.341724961996,-6.81999969482,-368.743713379,-436.497192383,-20.0476341248,7.11968183522,31.979604720999998,1.6879997252999992,9.181810379029997,1.411136507990002,-3.6874370574999986
2018-07-18 20:44:47.900,0.202209216519,0.406332069843,-0.732467548181,0.347518861294,-0.649617135525,0.496384710073,1.8240369,-0.48052585,17.8873296,0.0,-9.38781261444,14.1481962204,1.42756009102,0.347518861294,-0.649617135525,0.496384710073,-7.00999975204,-359.88293457,-435.54196167,-20.0476341248,6.699681758920001,37.62960433959999,2.1241464615000005,9.728796958919997,1.421601295470002,-3.5988292693999995
2018-07-18 20:44:47.950,0.202209216519,0.406332069843,-0.732467548181,0.347518861294,-0.649617135525,0.496384710073,1.8240369,-0.48052585,17.8873296,0.0,-9.38781261444,14.1481962204,1.42756009102,0.347518861294,-0.649617135525,0.496384710073,-7.00999975204,-359.88293457,-435.54196167,-20.0476341248,6.639681339220001,37.62960433959999,2.5582904816000003,10.209978103599996,1.420374274250002,-3.5988292693999995
2018-07-18 20:44:48.000,0.12721977956,0.377569929262,-0.816844902468,0.612461328506,-0.473887562752,0.395507603884,0.6276256,-0.32361945,14.70016835,0.0,-9.38781261444,14.1481962204,1.42756009102,0.347518861294,-0.649617135525,0.496384710073,-7.21000003815,-358.014678955,-434.510559082,-5.451370239299997,6.66752529142,35.9489870071,2.886049270599999,10.537412643399996,1.456638693810002,-3.5801467896000005
2018-07-18 20:44:48.050,0.12721977956,0.377569929262,-0.816844902468,0.612461328506,-0.473887562752,0.395507603884,0.6276256,-0.32361945,14.70016835,0.0,-10.7155609131,12.9395446777,1.49735510349,0.612461328506,-0.473887562752,0.395507603884,-7.21000003815,-358.014678955,-434.510559082,-5.451370239299997,6.59752559662,35.9489870071,2.886049270599999,10.537412643399996,1.456638693810002,-3.5801467896000005
2018-07-18 20:44:48.100,0.12721977956,0.377569929262,-0.816844902468,0.612461328506,-0.473887562752,0.395507603884,0.6276256,-0.32361945,14.70016835,0.0,-10.7155609131,12.9395446777,1.49735510349,0.612461328506,-0.473887562752,0.395507603884,-7.41999959946,-352.103240967,-433.377868652,-5.451370239299997,6.277524948119999,41.8989868164,3.725725174000001,11.309498786899997,1.666563868520002,-3.521032333400001
2018-07-18 20:44:48.150,0.12721977956,0.377569929262,-0.816844902468,0.612461328506,-0.473887562752,0.395507603884,0.6276256,-0.32361945,14.70016835,0.0,-10.7155609131,12.9395446777,1.49735510349,0.612461328506,-0.473887562752,0.395507603884,-7.41999959946,-352.103240967,-433.377868652,-5.451370239299997,6.277524948119999,41.8989868164,3.725725174000001,11.309498786899997,1.666563868520002,-3.521032333400001
2018-07-18 20:44:48.200,0.12721977956,0.377569929262,-0.816844902468,0.612461328506,-0.473887562752,0.395507603884,0.6276256,-0.32361945,14.70016835,0.0,-10.7155609131,12.9395446777,1.49735510349,0.612461328506,-0.473887562752,0.395507603884,-7.41999959946,-352.103240967,-433.377868652,-5.451370239299997,6.21752548222,41.8989868164,4.2520341873,11.713914871199997,1.814226388930002,-3.521032333400001
2018-07-18 20:44:48.250,0.12721977956,0.377569929262,-0.816844902468,0.612461328506,-0.473887562752,0.395507603884,0.6276256,-0.32361945,14.70016835,0.0,-10.7155609131,12.9395446777,1.49735510349,0.612461328506,-0.473887562752,0.395507603884,-7.63999986649,-343.70022583,-432.202789307,-5.451370239299997,5.727525711019999,47.228986799710995,4.9200086594000005,12.169849395799996,2.0294146537800017,-3.4370021820000005
2018-07-18 20:44:48.300,0.12721977956,0.377569929262,-0.816844902468,0.612461328506,-0.473887562752,0.395507603884,0.6276256,-0.32361945,14.70016835,0.0,-12.2748069763,10.926566124,2.11159825325,0.612461328506,-0.473887562752,0.395507603884,-7.89999961853,-337.618255615,-430.96862793,-5.451370239299997,5.18752574922,52.31898689269,5.418855667100001,12.474574089099997,2.273730039600002,-3.3761825562
2018-07-18 20:44:48.350,0.040444797819,0.297479634725,-0.888091828554,0.820576965809,-0.374171793461,0.370810240507,0.30400615,0.0980665,15.81812645,0.0,-12.2748069763,10.926566124,2.11159825325,0.612461328506,-0.473887562752,0.395507603884,-7.89999961853,-337.618255615,-430.96862793,-5.451370239299997,5.18752574922,52.31898689269,5.418855667100001,12.474574089099997,2.273730039600002,-3.3761825562
2018-07-18 20:44:48.400,0.040444797819,0.297479634725,-0.888091828554,0.820576965809,-0.374171793461,0.370810240507,0.30400615,0.0980665,15.81812645,0.0,-12.2748069763,10.926566124,2.11159825325,0.612461328506,-0.473887562752,0.395507603884,-7.89999961853,-337.618255615,-430.96862793,5.5877304077000005,3.48641061782,39.84321784969,6.01596736908,12.750748634299997,2.476285696030002,-3.3761825562
2018-07-18 20:44:48.450,0.040444797819,0.297479634725,-0.888091828554,0.820576965809,-0.374171793461,0.370810240507,0.30400615,0.0980665,15.81812645,0.0,-12.2748069763,10.926566124,2.11159825325,0.612461328506,-0.473887562752,0.395507603884,-7.89999961853,-337.618255615,-430.96862793,5.5877304077000005,3.48641061782,39.84321784969,6.01596736908,12.750748634299997,2.476285696030002,-3.3761825562
2018-07-18 20:44:48.500,0.040444797819,0.297479634725,-0.888091828554,0.820576965809,-0.374171793461,0.370810240507,0.30400615,0.0980665,15.81812645,0.0,-13.0275716782,9.15072059631,2.81028103828,0.820576965809,-0.374171793461,0.370810240507,-8.18999958038,-325.156219482,-429.692199707,5.5877304077000005,2.6264109611200004,43.90321731564,6.72805595398,12.989563941999997,2.757205486300002,-3.2515621185000008
2018-07-18 20:44:48.550,0.040444797819,0.297479634725,-0.888091828554,0.820576965809,-0.374171793461,0.370810240507,0.30400615,0.0980665,15.81812645,0.0,-13.0275716782,9.15072059631,2.81028103828,0.820576965809,-0.374171793461,0.370810240507,-8.52999973297,-310.27355957,-428.381622314,5.5877304077000005,1.836410999299999,47.203217506399994,7.1053276061999995,13.084571838399997,2.915836334230002,-3.1027355193999995
2018-07-18 20:44:48.600,0.040444797819,0.297479634725,-0.888091828554,0.820576965809,-0.374171793461,0.370810240507,0.30400615,0.0980665,15.81812645,0.0,-13.0275716782,9.15072059631,2.81028103828,0.820576965809,-0.374171793461,0.370810240507,-8.88999938965,-290.266784668,-427.079864502,5.5877304077000005,0.9864115714999988,49.7332172393,7.4662694931,13.136002540599996,3.0847499370600016,-2.9026679993
2018-07-18 20:44:48.650,0.040444797819,0.297479634725,-0.888091828554,0.820576965809,-0.374171793461,0.370810240507,0.30400615,0.0980665,15.81812645,0.0,-13.0275716782,9.15072059631,2.81028103828,0.820576965809,-0.374171793461,0.370810240507,-8.88999938965,-290.266784668,-427.079864502,5.5877304077000005,0.9864115714999988,49.7332172393,7.4662694931,13.136002540599996,3.0847499370600016,-2.9026679993
2018-07-18 20:44:48.700,-0.0401153452242,0.173883813923,-0.94236225488,0.819851160049,-0.24003110826,0.216154709458,-0.0196133,0.44129925,13.26839745,0.0,-13.0275716782,9.15072059631,2.81028103828,0.820576965809,-0.374171793461,0.370810240507,-8.88999938965,-290.266784668,-427.079864502,5.5877304077000005,0.9464116096500002,49.703217506399994,7.789031982419999,13.150498390199996,3.247511148450002,-2.9026679993
2018-07-18 20:44:48.750,-0.0401153452242,0.173883813923,-0.94236225488,0.819851160049,-0.24003110826,0.216154709458,-0.0196133,0.44129925,13.26839745,0.0,-13.1264343262,7.83644533157,3.45717668533,0.819851160049,-0.24003110826,0.216154709458,-9.28999996185,-280.093017578,-425.778015137,14.160469055199997,-2.17260122297,35.4136791229,8.06836652756,13.135140418999997,3.400882005690002,-2.8009300231999994
2018-07-18 20:44:48.800,-0.0401153452242,0.173883813923,-0.94236225488,0.819851160049,-0.24003110826,0.216154709458,-0.0196133,0.44129925,13.26839745,0.0,-13.1264343262,7.83644533157,3.45717668533,0.819851160049,-0.24003110826,0.216154709458,-9.28999996185,-280.093017578,-425.778015137,14.160469055199997,-2.17260122297,35.4136791229,8.26570940018,13.110024452199996,3.5240123271900017,-2.8009300231999994
2018-07-18 20:44:48.850,-0.0401153452242,0.173883813923,-0.94236225488,0.819851160049,-0.24003110826,0.216154709458,-0.0196133,0.44129925,13.26839745,0.0,-13.1264343262,7.83644533157,3.45717668533,0.819851160049,-0.24003110826,0.216154709458,-9.71000003815,-262.4168396,-424.46774292,14.160469055199997,-3.11260128019,36.6936798095,8.68250370026,12.988881111099996,3.836848020550002,-2.6241683960000017
2018-07-18 20:44:48.900,-0.0401153452242,0.173883813923,-0.94236225488,0.819851160049,-0.24003110826,0.216154709458,-0.0196133,0.44129925,13.26839745,0.0,-13.1264343262,7.83644533157,3.45717668533,0.819851160049,-0.24003110826,0.216154709458,-9.71000003815,-262.4168396,-424.46774292,14.160469055199997,-3.11260128019,36.6936798095,8.68250370026,12.988881111099996,3.836848020550002,-2.6241683960000017
2018-07-18 20:44:48.950,-0.0401153452242,0.173883813923,-0.94236225488,0.819851160049,-0.24003110826,0.216154709458,-0.0196133,0.44129925,13.26839745,0.0,-13.1264343262,7.83644533157,3.45717668533,0.819851160049,-0.24003110826,0.216154709458,-10.1799993515,-251.511962891,-423.16583252,14.160469055199997,-4.0426011085299995,37.543680191,8.87196969986,12.895912170399997,3.965622186660002,-2.5151195526000016
2018-07-18 20:44:49.000,-0.0401153452242,0.173883813923,-0.94236225488,0.819851160049,-0.24003110826,0.216154709458,-0.0196133,0.44129925,13.26839745,0.0,-13.1264343262,7.83644533157,3.45717668533,0.819851160049,-0.24003110826,0.216154709458,-10.6499996185,-220.843887329,-421.906341553,14.160469055199997,-4.05260133741,37.533679962099995,9.04526519775,12.783287048299997,4.057475090030001,-2.2084388733000004
2018-07-18 20:44:49.050,-0.0401153452242,0.173883813923,-0.94236225488,0.819851160049,-0.24003110826,0.216154709458,-0.0196133,0.44129925,13.26839745,0.0,-12.7438564301,6.90266132355,4.0818696022,0.819851160049,-0.24003110826,0.216154709458,-10.6499996185,-220.843887329,-421.906341553,14.160469055199997,-5.08260107038,37.8736801147,9.181964874270001,12.662589073199996,4.105734825130002,-2.2084388733000004
2018-07-18 20:44:49.100,-0.0401153452242,0.173883813923,-0.94236225488,0.819851160049,-0.24003110826,0.216154709458,-0.0196133,0.44129925,13.26839745,0.0,-12.7438564301,6.90266132355,4.0818696022,0.819851160049,-0.24003110826,0.216154709458,-11.1399993896,-189.882080078,-420.655273438,14.160469055199997,-6.13260126111,37.8436794281,9.28713846207,12.524336814899996,4.147300243380002,-1.8988208771000004
2018-07-18 20:44:49.150,-0.0401153452242,0.173883813923,-0.94236225488,0.819851160049,-0.24003110826,0.216154709458,-0.0196133,0.44129925,13.26839745,0.0,-12.7438564301,6.90266132355,4.0818696022,0.819851160049,-0.24003110826,0.216154709458,-11.1399993896,-189.882080078,-420.655273438,14.160469055199997,-6.13260126111,37.8436794281,9.28713846207,12.524336814899996,4.147300243380002,-1.8988208771000004
2018-07-18 20:44:49.200,-0.0401153452242,0.173883813923,-0.94236225488,0.819851160049,-0.24003110826,0.216154709458,-0.0196133,0.44129925,13.26839745,0.0,-12.7438564301,6.90266132355,4.0818696022,0.819851160049,-0.24003110826,0.216154709458,-11.6300001144,-150.388153076,-419.429504395,14.160469055199997,-7.2226011752799995,37.653678893999995,9.42806053162,12.306103706399997,4.101304054260002,-1.5038814545
2018-07-18 20:44:49.250,-0.0401153452242,0.173883813923,-0.94236225488,0.819851160049,-0.24003110826,0.216154709458,-0.0196133,0.44129925,13.26839745,0.0,-12.7438564301,6.90266132355,4.0818696022,0.819851160049,-0.24003110826,0.216154709458,-11.6300001144,-150.388153076,-419.429504395,14.160469055199997,-7.2226011752799995,37.653678893999995,9.42806053162,12.306103706399997,4.101304054260002,-1.5038814545
2018-07-18 20:44:49.300,-0.108235819082,-0.00713762315571,-0.965633224127,0.537581622601,0.0534859411418,-0.0130252586678,-0.42168595,0.46091255,8.63965865,0.0,-12.1602621078,6.53306674957,4.03026390076,0.819851160049,-0.24003110826,0.216154709458,-11.6300001144,-150.388153076,-419.429504395,14.160469055199997,-7.2226011752799995,37.6636791229,9.47701215744,12.111216545099996,4.006064891820002,-1.5038814545
2018-07-18 20:44:49.350,-0.108235819082,-0.00713762315571,-0.965633224127,0.537581622601,0.0534859411418,-0.0130252586678,-0.42168595,0.46091255,8.63965865,0.0,-12.1602621078,6.53306674957,4.03026390076,0.819851160049,-0.24003110826,0.216154709458,-12.1099996567,-117.905235291,-418.229156494,18.1154212952,-10.15816795826,15.30669665336,9.519109725949999,11.922074317899996,3.910907983780002,-1.1790523529000012
2018-07-18 20:44:49.400,-0.108235819082,-0.00713762315571,-0.965633224127,0.537581622601,0.0534859411418,-0.0130252586678,-0.42168595,0.46091255,8.63965865,0.0,-12.1602621078,6.53306674957,4.03026390076,0.819851160049,-0.24003110826,0.216154709458,-12.5599994659,-86.0641479492,-417.06237793,18.1154212952,-12.408167839053,14.726696729660002,9.531966209410001,11.829725265499997,3.8447234630600016,-0.8606414794999999
2018-07-18 20:44:49.450,-0.108235819082,-0.00713762315571,-0.965633224127,0.537581622601,0.0534859411418,-0.0130252586678,-0.42168595,0.46091255,8.63965865,0.0,-12.1602621078,6.53306674957,4.03026390076,0.819851160049,-0.24003110826,0.216154709458,-12.5599994659,-86.0641479492,-417.06237793,18.1154212952,-12.398167848589999,14.75669741626,9.531966209410001,11.829725265499997,3.8447234630600016,-0.8606414794999999
2018-07-18 20:44:49.500,-0.108235819082,-0.00713762315571,-0.965633224127,0.537581622601,0.0534859411418,-0.0130252586678,-0.42168595,0.46091255,8.63965865,0.0,-11.6940498352,6.47217464447,3.72470974922,0.537581622601,0.0534859411418,-0.0130252586678,-12.9899997711,-46.8997955322,-415.904296875,18.1154212952,-12.208167880776,14.01669764516,9.52782535553,11.694049835199996,3.724709749220002,-0.8606414794999999
2018-07-18 20:44:49.550,-0.108235819082,-0.00713762315571,-0.965633224127,0.537581622601,0.0534859411418,-0.0130252586678,-0.42168595,0.46091255,8.63965865,0.0,-11.6940498352,6.47217464447,3.72470974922,0.537581622601,0.0534859411418,-0.0130252586678,-12.9899997711,-46.8997955322,-415.904296875,18.1154212952,-12.208167880776,14.01669764516,9.5142083168,11.601346969599996,3.6311657428700017,-0.46899795530000077
2018-07-18 20:44:49.600,-0.108235819082,-0.00713762315571,-0.965633224127,0.537581622601,0.0534859411418,-0.0130252586678,-0.42168595,0.46091255,8.63965865,0.0,-11.6940498352,6.47217464447,3.72470974922,0.537581622601,0.0534859411418,-0.0130252586678,-13.3899993896,-17.794418335,-414.771575928,18.1154212952,-13.078167796139999,13.24669718746,9.485759735110001,11.389199256899996,3.396799564360002,-0.17794418329999928
2018-07-18 20:44:49.650,-0.105532304934,-0.0747445033141,-0.96372272136,0.271187871695,0.121390961111,-0.0545255690813,-0.2745862,0.5491724,7.4922806,0.0,-11.6940498352,6.47217464447,3.72470974922,0.537581622601,0.0534859411418,-0.0130252586678,-13.3899993896,-17.794418335,-414.771575928,18.1154212952,-13.078167796139999,13.24669718746,9.485759735110001,11.389199256899996,3.396799564360002,-0.17794418329999928
2018-07-18 20:44:49.700,-0.105532304934,-0.0747445033141,-0.96372272136,0.271187871695,0.121390961111,-0.0545255690813,-0.2745862,0.5491724,7.4922806,0.0,-11.6940498352,6.47217464447,3.72470974922,0.537581622601,0.0534859411418,-0.0130252586678,-13.7599992752,9.46416854858,-413.681121826,17.7993659973,-11.78087806702,4.978034019499999,9.43066453934,11.185799598699996,3.158169269560002,0.09464168549999918
2018-07-18 20:44:49.750,-0.105532304934,-0.0747445033141,-0.96372272136,0.271187871695,0.121390961111,-0.0545255690813,-0.2745862,0.5491724,7.4922806,0.0,-11.09907341,6.60666561127,3.0967271328,0.271187871695,0.121390961111,-0.0545255690813,-13.7599992752,9.46416854858,-413.681121826,17.7993659973,-11.78087806702,4.978034019499999,9.43066453934,11.185799598699996,3.158169269560002,0.09464168549999918
2018-07-18 20:44:49.800,-0.105532304934,-0.0747445033141,-0.96372272136,0.271187871695,0.121390961111,-0.0545255690813,-0.2745862,0.5491724,7.4922806,0.0,-11.09907341,6.60666561127,3.0967271328,0.271187871695,0.121390961111,-0.0545255690813,-14.0900001526,23.6977577209,-412.590698242,17.7993659973,-11.77087807655,5.0080347061,9.36991071701,11.014343261699997,3.029806375500002,0.23697757719999935
2018-07-18 20:44:49.850,-0.105532304934,-0.0747445033141,-0.96372272136,0.271187871695,0.121390961111,-0.0545255690813,-0.2745862,0.5491724,7.4922806,0.0,-11.09907341,6.60666561127,3.0967271328,0.271187871695,0.121390961111,-0.0545255690813,-14.0900001526,23.6977577209,-412.590698242,17.7993659973,-12.45087814331,4.058034896900001,9.33355236053,10.906510353099996,2.901782512660002,0.23697757719999935
2018-07-18 20:44:49.900,-0.105532304934,-0.0747445033141,-0.96372272136,0.271187871695,0.121390961111,-0.0545255690813,-0.2745862,0.5491724,7.4922806,0.0,-11.09907341,6.60666561127,3.0967271328,0.271187871695,0.121390961111,-0.0545255690813,-14.3999996185,37.6651763916,-411.52545166,17.7993659973,-12.45087814331,4.0780344009,9.28546333313,10.807518958999996,2.724078655240002,0.3766517639
2018-07-18 20:44:49.950,-0.0872301604141,-0.120791466556,-0.958710278786,0.132114067674,0.254575580359,-0.155742868781,-0.0588399,0.1765197,8.237586,0.0,-10.7485275269,6.74867677689,2.60643291473,0.132114067674,0.254575580359,-0.155742868781,-14.3999996185,37.6651763916,-411.52545166,16.762920379599997,-9.63260030747,-1.3818740843999997,9.270055294039999,10.779033660899996,2.6679131984700017,0.3766517639
2018-07-18 20:44:50.000,-0.0872301604141,-0.120791466556,-0.958710278786,0.132114067674,0.254575580359,-0.155742868781,-0.0588399,0.1765197,8.237586,0.0,-10.7485275269,6.74867677689,2.60643291473,0.132114067674,0.254575580359,-0.155742868781,-14.3999996185,37.6651763916,-411.52545166,16.762920379599997,-9.622600317,-1.3618736266999996,9.22432327271,10.685771942099997,2.4603953361500017,0.3766517639
2018-07-18 20:44:50.050,-0.0872301604141,-0.120791466556,-0.958710278786,0.132114067674,0.254575580359,-0.155742868781,-0.0588399,0.1765197,8.237586,0.0,-10.7485275269,6.74867677689,2.60643291473,0.132114067674,0.254575580359,-0.155742868781,-14.6700000763,62.963104248,-410.468811035,16.762920379599997,-10.152600288390001,-2.1618738173999983,9.20382833481,10.635621070899996,2.300187826160002,0.6296310424999998
2018-07-18 20:44:50.100,-0.0872301604141,-0.120791466556,-0.958710278786,0.132114067674,0.254575580359,-0.155742868781,-0.0588399,0.1765197,8.237586,0.0,-10.7485275269,6.74867677689,2.60643291473,0.132114067674,0.254575580359,-0.155742868781,-14.9099998474,92.4844741821,-409.437469482,16.762920379599997,-10.70260047913,-2.7618741988999993,9.14491271973,10.541185378999996,1.980270862580002,0.9248447417999994
2018-07-18 20:44:50.150,-0.0872301604141,-0.120791466556,-0.958710278786,0.132114067674,0.254575580359,-0.155742868781,-0.0588399,0.1765197,8.237586,0.0,-10.7485275269,6.74867677689,2.60643291473,0.132114067674,0.254575580359,-0.155742868781,-14.9099998474,92.4844741821,-409.437469482,16.762920379599997,-10.70260047913,-2.7618741988999993,9.14491271973,10.541185378999996,1.980270862580002,0.9248447417999994
2018-07-18 20:44:50.200,-0.0872301604141,-0.120791466556,-0.958710278786,0.132114067674,0.254575580359,-0.155742868781,-0.0588399,0.1765197,8.237586,0.0,-10.4595298767,6.92600488663,1.76534080505,0.132114067674,0.254575580359,-0.155742868781,-14.9099998474,92.4844741821,-409.437469482,16.762920379599997,-10.69260025025,-2.7618741988999993,9.07399511337,10.459529876699996,1.765340805050002,0.9248447417999994
2018-07-18 20:44:50.250,-0.0872301604141,-0.120791466556,-0.958710278786,0.132114067674,0.254575580359,-0.155742868781,-0.0588399,0.1765197,8.237586,0.0,-10.4595298767,6.92600488663,1.76534080505,0.132114067674,0.254575580359,-0.155742868781,-15.0999994278,108.583740234,-408.423095703,16.762920379599997,-11.09260034561,-3.6318740843999997,9.07399511337,10.459529876699996,1.765340805050002,0.9248447417999994
2018-07-18 20:44:50.300,-0.0465246065238,-0.145425301185,-0.946595090182,0.0824631750584,0.20259514451,-0.299718409777,-0.1765197,-0.1176798,5.491724,0.0,-10.4595298767,6.92600488663,1.76534080505,0.132114067674,0.254575580359,-0.155742868781,-15.25,121.669769287,-407.408630371,12.5528030396,-5.154220193624,-5.202527046200002,8.9567899704,10.323277473399996,1.345745444300002,1.0858373641999997
2018-07-18 20:44:50.350,-0.0465246065238,-0.145425301185,-0.946595090182,0.0824631750584,0.20259514451,-0.299718409777,-0.1765197,-0.1176798,5.491724,0.0,-10.4595298767,6.92600488663,1.76534080505,0.132114067674,0.254575580359,-0.155742868781,-15.25,121.669769287,-407.408630371,12.5528030396,-5.414220422504,-6.032526969900001,8.903860568999999,10.263306617699996,1.078718304630002,1.2166976929000004
2018-07-18 20:44:50.400,-0.0465246065238,-0.145425301185,-0.946595090182,0.0824631750584,0.20259514451,-0.299718409777,-0.1765197,-0.1176798,5.491724,0.0,-10.4595298767,6.92600488663,1.76534080505,0.132114067674,0.254575580359,-0.155742868781,-15.3499994278,131.792739868,-406.402709961,12.5528030396,-5.644220441584,-6.702527046200002,8.832112789149999,10.182973861699997,0.679770410061002,1.3179273605000006
2018-07-18 20:44:50.450,-0.0465246065238,-0.145425301185,-0.946595090182,0.0824631750584,0.20259514451,-0.299718409777,-0.1765197,-0.1176798,5.491724,0.0,-10.163851738,7.18818187714,0.565519571304,0.0824631750584,0.20259514451,-0.299718409777,-15.3499994278,131.792739868,-406.402709961,12.5528030396,-5.644220441584,-6.712527275100001,8.832112789149999,10.182973861699997,0.679770410061002,1.3179273605000006
2018-07-18 20:44:50.500,-0.0465246065238,-0.145425301185,-0.946595090182,0.0824631750584,0.20259514451,-0.299718409777,-0.1765197,-0.1176798,5.491724,0.0,-10.163851738,7.18818187714,0.565519571304,0.0824631750584,0.20259514451,-0.299718409777,-15.3899993896,148.861022949,-405.413665771,12.5528030396,-5.6242204606540005,-7.412527084400001,8.730611801150001,10.087369918799997,0.12014345079700196,1.4886102676000004
2018-07-18 20:44:50.550,-0.0465246065238,-0.145425301185,-0.946595090182,0.0824631750584,0.20259514451,-0.299718409777,-0.1765197,-0.1176798,5.491724,0.0,-10.163851738,7.18818187714,0.565519571304,0.0824631750584,0.20259514451,-0.299718409777,-15.3899993896,148.861022949,-405.413665771,12.5528030396,-5.6242204606540005,-7.412527084400001,8.730611801150001,10.087369918799997,0.12014345079700196,1.4886102676000004
2018-07-18 20:44:50.600,-0.0465246065238,-0.145425301185,-0.946595090182,0.0824631750584,0.20259514451,-0.299718409777,-0.1765197,-0.1176798,5.491724,0.0,-10.163851738,7.18818187714,0.565519571304,0.0824631750584,0.20259514451,-0.299718409777,-15.3800001144,152.636627197,-404.424499512,12.5528030396,-5.6242204606540005,-7.432526588500002,8.64803123474,10.017569541899997,-0.26918047666499806,1.5263662337999993
2018-07-18 20:44:50.650,-0.00445297187638,-0.153113388842,-0.933121025303,-0.019743386656,0.0773332118988,-0.19353197515,-0.2745862,-0.0196133,6.38412915,0.0,-10.163851738,7.18818187714,0.565519571304,0.0824631750584,0.20259514451,-0.299718409777,-15.3800001144,152.636627197,-404.424499512,8.337520599400001,0.028742790220000813,-7.40924739842,8.64803123474,10.017569541899997,-0.26918047666499806,1.5263662337999993
2018-07-18 20:44:50.700,-0.00445297187638,-0.153113388842,-0.933121025303,-0.019743386656,0.0773332118988,-0.19353197515,-0.2745862,-0.0196133,6.38412915,0.0,-9.92171764374,7.50208520889,-0.620821177959,-0.019743386656,0.0773332118988,-0.19353197515,-15.3199996948,143.187240601,-403.452392578,8.337520599400001,0.19874286651999995,-8.28924751286,8.53490924835,9.942718505859997,-0.561599016189998,1.5263662337999993
2018-07-18 20:44:50.750,-0.00445297187638,-0.153113388842,-0.933121025303,-0.019743386656,0.0773332118988,-0.19353197515,-0.2745862,-0.0196133,6.38412915,0.0,-9.92171764374,7.50208520889,-0.620821177959,-0.019743386656,0.0773332118988,-0.19353197515,-15.3199996948,143.187240601,-403.452392578,8.337520599400001,0.19874286651999995,-8.28924751286,8.420977592469999,9.877629280089996,-0.747107803821998,1.4318723679000005
2018-07-18 20:44:50.800,-0.00445297187638,-0.153113388842,-0.933121025303,-0.019743386656,0.0773332118988,-0.19353197515,-0.2745862,-0.0196133,6.38412915,0.0,-9.92171764374,7.50208520889,-0.620821177959,-0.019743386656,0.0773332118988,-0.19353197515,-15.3199996948,143.187240601,-403.452392578,8.337520599400001,0.18874311447000025,-8.29924678807,8.31280899048,9.809484481809996,-0.946113467215998,1.4318723679000005
2018-07-18 20:44:50.850,-0.00445297187638,-0.153113388842,-0.933121025303,-0.019743386656,0.0773332118988,-0.19353197515,-0.2745862,-0.0196133,6.38412915,0.0,-9.92171764374,7.50208520889,-0.620821177959,-0.019743386656,0.0773332118988,-0.19353197515,-15.2299995422,139.923187256,-402.488739014,8.337520599400001,0.4887428283700004,-9.369246959729999,8.31280899048,9.809484481809996,-0.946113467215998,1.4318723679000005
2018-07-18 20:44:50.900,-0.00445297187638,-0.153113388842,-0.933121025303,-0.019743386656,0.0773332118988,-0.19353197515,-0.2745862,-0.0196133,6.38412915,0.0,-9.92171764374,7.50208520889,-0.620821177959,-0.019743386656,0.0773332118988,-0.19353197515,-15.0999994278,139.617248535,-401.541992188,8.337520599400001,0.8087430000300007,-10.25924730305,8.18818330765,9.732272148129997,-1.219916462899998,1.3992319106999993
2018-07-18 20:44:50.950,-0.00445297187638,-0.153113388842,-0.933121025303,-0.019743386656,0.0773332118988,-0.19353197515,-0.2745862,-0.0196133,6.38412915,0.0,-9.66858863831,7.95095443726,-1.42067682743,-0.019743386656,0.0773332118988,-0.19353197515,-15.0999994278,139.617248535,-401.541992188,8.337520599400001,0.8087430000300007,-10.25924730305,8.08843326569,9.684225082399996,-1.386733412739998,1.3961725235000007
2018-07-18 20:44:51.000,-0.00445297187638,-0.153113388842,-0.933121025303,-0.019743386656,0.0773332118988,-0.19353197515,-0.2745862,-0.0196133,6.38412915,0.0,-9.66858863831,7.95095443726,-1.42067682743,-0.019743386656,0.0773332118988,-0.19353197515,-15.0999994278,139.617248535,-401.541992188,8.337520599400001,0.8087430000300007,-10.25924730305,8.00623416901,9.650689125059996,-1.451075792309998,1.3961725235000007
2018-07-18 20:44:51.050,-0.00445297187638,-0.153113388842,-0.933121025303,-0.019743386656,0.0773332118988,-0.19353197515,-0.2745862,-0.0196133,6.38412915,0.0,-9.66858863831,7.95095443726,-1.42067682743,-0.019743386656,0.0773332118988,-0.19353197515,-14.9499998093,123.209671021,-400.612091064,8.337520599400001,1.2287430763300007,-11.27924728398,7.85712432861,9.594451904299996,-1.485559821129998,1.2320966721000008
2018-07-18 20:44:51.100,-0.00445297187638,-0.153113388842,-0.933121025303,-0.019743386656,0.0773332118988,-0.19353197515,-0.2745862,-0.0196133,6.38412915,0.0,-9.66858863831,7.95095443726,-1.42067682743,-0.019743386656,0.0773332118988,-0.19353197515,-14.7899999619,97.8387832642,-399.682189941,8.337520599400001,1.9187428951300003,-12.569247245829999,7.63657855988,9.525240898129997,-1.463578701019998,0.9783878325999993
