%time,field.orientation.x,field.orientation.y,field.orientation.z,field.angular_velocity.x,field.angular_velocity.y,field.angular_velocity.z,field.linear_acceleration.x,field.linear_acceleration.y,field.linear_acceleration.z,field.data,field.twist.linear.x,field.twist.linear.y,field.twist.linear.z,field.twist.angular.x,field.twist.angular.y,field.twist.angular.z,field.alt_error,field.aspd_error,field.xtrack_error,delta_yaw,delta_pitch,delta_roll,delta_x,delta_y,delta_z,delta_roll_airspeed
2018-09-11 16:03:18.850,,,,,,,,,,0.0,,,,,,,16.8099994659,-285.433776855,29.2140598297,60.5745239258,0.9212951660000002,4.648689269999998,,,,
2018-09-11 16:03:18.900,,,,,,,,,,0.0,,,,,,,17.3199996948,-310.863677979,30.0931854248,61.5745239258,0.9212951660000002,4.668685913099999,-2.5321197509999998,9.658343315119996,-5.596247673029998,16.0
2018-09-11 16:03:18.950,-0.0119670504425,-0.350184049424,-0.772559086031,0.099484667182,-0.147398293018,-0.205262422562,-2.67721545,0.81395195,11.4345539,0.0,,,,,,,17.3199996948,-310.863677979,30.0931854248,53.971660614,0.5317993164000008,5.7423934937,-2.751152038600001,9.188360214229997,-5.563839912409998,16.0
2018-09-11 16:03:19.000,-0.0119670504425,-0.350184049424,-0.772559086031,0.099484667182,-0.147398293018,-0.205262422562,-2.67721545,0.81395195,11.4345539,0.0,,,,,,,17.8299999237,-310.863677979,30.9638462067,54.971660614,0.5618000031000001,5.812393188499996,-2.9317970275999983,8.804898262019996,-5.489160537719998,16.0
2018-09-11 16:03:19.050,-0.0119670504425,-0.350184049424,-0.772559086031,0.099484667182,-0.147398293018,-0.205262422562,-2.67721545,0.81395195,11.4345539,0.0,-8.93124198914,18.8800640106,-5.52243566513,0.099484667182,-0.147398293018,-0.205262422562,17.8299999237,-310.863677979,30.9638462067,54.971660614,0.6018009185999986,5.8823928833,-3.0643081664999983,8.516165733339996,-5.402396678919998,16.0
2018-09-11 16:03:19.100,-0.0119670504425,-0.350184049424,-0.772559086031,0.099484667182,-0.147398293018,-0.205262422562,-2.67721545,0.81395195,11.4345539,0.0,-8.93124198914,18.8800640106,-5.52243566513,0.099484667182,-0.147398293018,-0.205262422562,18.3400001526,-355.245025635,31.7499885559,54.971660614,0.5517997741999991,5.952392578099996,-3.3432483672999993,7.928062438959996,-5.215253829959998,16.0
2018-09-11 16:03:19.150,-0.0119670504425,-0.350184049424,-0.772559086031,0.099484667182,-0.147398293018,-0.205262422562,-2.67721545,0.81395195,11.4345539,0.0,-8.93124198914,18.8800640106,-5.52243566513,0.099484667182,-0.147398293018,-0.205262422562,18.3400001526,-355.245025635,31.7499885559,54.971660614,0.5317993164000008,5.952392578099996,-3.4028663634999994,7.791242599489997,-5.183717727659999,16.0
2018-09-11 16:03:19.200,-0.0119670504425,-0.350184049424,-0.772559086031,0.099484667182,-0.147398293018,-0.205262422562,-2.67721545,0.81395195,11.4345539,0.0,-7.28036642075,19.5723361969,-5.12146186829,0.099484667182,-0.147398293018,-0.205262422562,18.8199996948,-355.245025635,32.4769363403,55.971660614,0.5118007660000004,5.942390441899995,-3.540393829300001,7.406507015229996,-5.132306575779999,16.0
2018-09-11 16:03:19.250,-0.0119670504425,-0.350184049424,-0.772559086031,0.099484667182,-0.147398293018,-0.205262422562,-2.67721545,0.81395195,11.4345539,0.0,-7.28036642075,19.5723361969,-5.12146186829,0.099484667182,-0.147398293018,-0.205262422562,18.8199996948,-355.245025635,32.4769363403,55.971660614,0.4617996216000009,5.952392578099996,-3.6029701233000004,7.160661697389997,-5.1125135421799985,16.0
2018-09-11 16:03:19.300,-0.0119670504425,-0.350184049424,-0.772559086031,0.099484667182,-0.147398293018,-0.205262422562,-2.67721545,0.81395195,11.4345539,0.0,-7.28036642075,19.5723361969,-5.12146186829,0.099484667182,-0.147398293018,-0.205262422562,18.8199996948,-355.245025635,32.4769363403,55.971660614,0.4617996216000009,5.952392578099996,-3.6029701233000004,7.160661697389997,-5.1125135421799985,16.0
2018-09-11 16:03:19.350,-0.0374963903325,-0.341096202742,-0.74340139902,0.0598651468754,-0.0657651126385,-0.20919649303,-2.7850886,-0.02941995,10.93441475,0.0,-7.28036642075,19.5723361969,-5.12146186829,0.099484667182,-0.147398293018,-0.205262422562,19.2799987793,-379.139892578,33.1193771362,56.971660614,0.4118003845000011,5.972393035899998,-3.7048473358000003,6.636693477629996,-5.182985305789998,16.0
2018-09-11 16:03:19.400,-0.0374963903325,-0.341096202742,-0.74340139902,0.0598651468754,-0.0657651126385,-0.20919649303,-2.7850886,-0.02941995,10.93441475,0.0,-7.28036642075,19.5723361969,-5.12146186829,0.099484667182,-0.147398293018,-0.205262422562,19.7600002289,-379.139892578,33.7279930115,50.0286083221,-0.6125164032000008,6.4479293823000035,-3.788162231400001,6.303866386409997,-5.185373306269998,16.0
2018-09-11 16:03:19.450,-0.0374963903325,-0.341096202742,-0.74340139902,0.0598651468754,-0.0657651126385,-0.20919649303,-2.7850886,-0.02941995,10.93441475,0.0,-7.28036642075,19.5723361969,-5.12146186829,0.099484667182,-0.147398293018,-0.205262422562,19.7600002289,-379.139892578,33.7279930115,50.0286083221,-0.6925163269000016,6.3979301452,-3.8785896300999987,5.947031974789996,-5.151776313779998,16.0
2018-09-11 16:03:19.500,-0.0374963903325,-0.341096202742,-0.74340139902,0.0598651468754,-0.0657651126385,-0.20919649303,-2.7850886,-0.02941995,10.93441475,0.0,-5.94703197479,19.8785896301,-5.15177631378,0.0598651468754,-0.0657651126385,-0.20919649303,20.2299995422,-413.236816406,34.2689933777,51.0286083221,-0.6925163269000016,6.347930908199999,-3.941171646099999,5.712178230289997,-5.1328649520899985,16.0
2018-09-11 16:03:19.550,-0.0374963903325,-0.341096202742,-0.74340139902,0.0598651468754,-0.0657651126385,-0.20919649303,-2.7850886,-0.02941995,10.93441475,0.0,-5.94703197479,19.8785896301,-5.15177631378,0.0598651468754,-0.0657651126385,-0.20919649303,20.2299995422,-413.236816406,34.2689933777,51.0286083221,-0.6925163269000016,6.347930908199999,-3.941171646099999,5.712178230289997,-5.1328649520899985,16.0
2018-09-11 16:03:19.600,-0.0374963903325,-0.341096202742,-0.74340139902,0.0598651468754,-0.0657651126385,-0.20919649303,-2.7850886,-0.02941995,10.93441475,0.0,-5.94703197479,19.8785896301,-5.15177631378,0.0598651468754,-0.0657651126385,-0.20919649303,20.7099990845,-413.236816406,34.7761535645,52.0286083221,-0.4525165558000026,4.847930908199999,-4.063787460299999,5.151260852809997,-5.153861999509998,16.0
2018-09-11 16:03:19.650,-0.0374963903325,-0.341096202742,-0.74340139902,0.0598651468754,-0.0657651126385,-0.20919649303,-2.7850886,-0.02941995,10.93441475,0.0,-5.94703197479,19.8785896301,-5.15177631378,0.0598651468754,-0.0657651126385,-0.20919649303,20.7099990845,-413.236816406,34.7761535645,52.0286083221,-0.32251548770000227,4.457931518499997,-4.154302597000001,4.786922931669997,-5.145470142359998,16.0
2018-09-11 16:03:19.700,-0.0474688729547,-0.35386450907,-0.709693994414,0.234220087528,-0.0401463210583,-0.264757484198,-2.6281822,0.8629852,10.8853815,0.0,-4.48854732513,20.2041816711,-5.22919464111,0.234220087528,-0.0401463210583,-0.264757484198,21.1800003052,-450.637054443,35.2241706848,47.0560913086,1.391038894700003,4.854007721000002,-4.191156387300001,4.580004692079997,-5.193234443659998,16.0
2018-09-11 16:03:19.750,-0.0474688729547,-0.35386450907,-0.709693994414,0.234220087528,-0.0401463210583,-0.264757484198,-2.6281822,0.8629852,10.8853815,0.0,-4.48854732513,20.2041816711,-5.22919464111,0.234220087528,-0.0401463210583,-0.264757484198,21.1800003052,-450.637054443,35.2241706848,47.0560913086,1.5010375977000017,4.8140068055,-4.2078609466999986,4.4055442810099965,-5.281988620759998,16.0
2018-09-11 16:03:19.800,-0.0474688729547,-0.35386450907,-0.709693994414,0.234220087528,-0.0401463210583,-0.264757484198,-2.6281822,0.8629852,10.8853815,0.0,-4.48854732513,20.2041816711,-5.22919464111,0.234220087528,-0.0401463210583,-0.264757484198,21.6800003052,-450.637054443,35.6299209595,48.0560913086,1.6910381318000027,4.784008026199999,-4.2007961272999985,4.162713527679997,-5.468028068539998,16.0
2018-09-11 16:03:19.850,-0.0474688729547,-0.35386450907,-0.709693994414,0.234220087528,-0.0401463210583,-0.264757484198,-2.6281822,0.8629852,10.8853815,0.0,-4.48854732513,20.2041816711,-5.22919464111,0.234220087528,-0.0401463210583,-0.264757484198,21.6800003052,-450.637054443,35.6299209595,48.0560913086,1.8210372925000016,4.774009704599997,-4.167823791499998,4.016895294189997,-5.628479003909998,16.0
2018-09-11 16:03:19.900,-0.0474688729547,-0.35386450907,-0.709693994414,0.234220087528,-0.0401463210583,-0.264757484198,-2.6281822,0.8629852,10.8853815,0.0,-4.48854732513,20.2041816711,-5.22919464111,0.234220087528,-0.0401463210583,-0.264757484198,22.1999988556,-479.604736328,35.9933853149,48.0560913086,1.9010372162000024,4.774009704599997,-4.143564224199999,3.7750396728499966,-5.825798511509999,16.0
2018-09-11 16:03:19.950,-0.0474688729547,-0.35386450907,-0.709693994414,0.234220087528,-0.0401463210583,-0.264757484198,-2.6281822,0.8629852,10.8853815,0.0,-4.48854732513,20.2041816711,-5.22919464111,0.234220087528,-0.0401463210583,-0.264757484198,22.7600002289,-479.604736328,36.3315124512,49.0560913086,1.951038360600002,4.754009246899997,-4.143564224199999,3.7750396728499966,-5.825798511509999,16.0
2018-09-11 16:03:20.000,-0.0474688729547,-0.35386450907,-0.709693994414,0.234220087528,-0.0401463210583,-0.264757484198,-2.6281822,0.8629852,10.8853815,0.0,-4.48854732513,20.2041816711,-5.22919464111,0.234220087528,-0.0401463210583,-0.264757484198,22.7600002289,-479.604736328,36.3315124512,49.0560913086,1.951038360600002,4.754009246899997,-4.1838951111,3.2410712242099966,-6.013592720029998,16.0
2018-09-11 16:03:20.050,-0.0474688729547,-0.35386450907,-0.709693994414,0.234220087528,-0.0401463210583,-0.264757484198,-2.6281822,0.8629852,10.8853815,0.0,-3.10786175728,20.1980514526,-6.02676010132,0.234220087528,-0.0401463210583,-0.264757484198,22.7600002289,-479.604736328,36.3315124512,49.0560913086,2.0710372925000016,4.724006652900002,-4.1838951111,3.2410712242099966,-6.013592720029998,16.0
2018-09-11 16:03:20.100,-0.0474688729547,-0.35386450907,-0.709693994414,0.234220087528,-0.0401463210583,-0.264757484198,-2.6281822,0.8629852,10.8853815,0.0,-3.10786175728,20.1980514526,-6.02676010132,0.234220087528,-0.0401463210583,-0.264757484198,23.3500003815,-481.074707031,36.6104660034,49.0560913086,2.3410377503,4.7140083313000005,-4.314569473300001,2.3501317501099965,-5.9998054504399985,16.0
2018-09-11 16:03:20.150,-0.0920375314953,-0.374041826028,-0.647832959713,0.295003771782,-0.164485394955,-0.230037942529,-2.8047019,-0.10787315,12.48386545,0.0,-3.10786175728,20.1980514526,-6.02676010132,0.234220087528,-0.0401463210583,-0.264757484198,23.3500003815,-481.074707031,36.6104660034,49.0560913086,2.3410377503,4.7140083313000005,-4.314569473300001,2.3501317501099965,-5.9998054504399985,16.0
2018-09-11 16:03:20.200,-0.0920375314953,-0.374041826028,-0.647832959713,0.295003771782,-0.164485394955,-0.230037942529,-2.8047019,-0.10787315,12.48386545,0.0,-3.10786175728,20.1980514526,-6.02676010132,0.234220087528,-0.0401463210583,-0.264757484198,23.9399986267,-481.074707031,36.821762085,40.37872266769,3.193920135500001,0.8560409545999974,-4.414266586299998,1.6774802207899964,-5.956879615779998,16.0
2018-09-11 16:03:20.250,-0.0920375314953,-0.374041826028,-0.647832959713,0.295003771782,-0.164485394955,-0.230037942529,-2.8047019,-0.10787315,12.48386545,0.0,-1.35798847675,20.4460849762,-5.97252559662,0.295003771782,-0.164485394955,-0.230037942529,23.9399986267,-481.074707031,36.821762085,40.37872266769,3.3639202118,0.8360404968000026,-4.457000732400001,1.2053756713899964,-5.991704940799998,16.0
2018-09-11 16:03:20.300,-0.0920375314953,-0.374041826028,-0.647832959713,0.295003771782,-0.164485394955,-0.230037942529,-2.8047019,-0.10787315,12.48386545,0.0,-1.35798847675,20.4460849762,-5.97252559662,0.295003771782,-0.164485394955,-0.230037942529,23.9399986267,-481.074707031,36.821762085,40.37872266769,3.5839214324999986,0.8460388183999967,-4.457000732400001,1.2053756713899964,-5.991704940799998,16.0
2018-09-11 16:03:20.350,-0.0920375314953,-0.374041826028,-0.647832959713,0.295003771782,-0.164485394955,-0.230037942529,-2.8047019,-0.10787315,12.48386545,0.0,-1.35798847675,20.4460849762,-5.97252559662,0.295003771782,-0.164485394955,-0.230037942529,24.5299987793,-500.637817383,36.9401054382,40.37872266769,3.6539211272999985,0.8960380553999983,-4.468114852900001,0.5355443358419965,-6.168395519259998,16.0
2018-09-11 16:03:20.400,-0.0920375314953,-0.374041826028,-0.647832959713,0.295003771782,-0.164485394955,-0.230037942529,-2.8047019,-0.10787315,12.48386545,0.0,-1.35798847675,20.4460849762,-5.97252559662,0.295003771782,-0.164485394955,-0.230037942529,25.1399993896,-500.637817383,36.9992485046,40.37872266769,3.543920517,1.0060386657999985,-4.459489822399998,0.15067844092799645,-6.273127079009998,16.0
2018-09-11 16:03:20.450,-0.0920375314953,-0.374041826028,-0.647832959713,0.295003771782,-0.164485394955,-0.230037942529,-2.8047019,-0.10787315,12.48386545,0.0,-1.35798847675,20.4460849762,-5.97252559662,0.295003771782,-0.164485394955,-0.230037942529,25.1399993896,-500.637817383,36.9992485046,40.37872266769,3.4739208222,1.076038360600002,-4.4567050934,-0.11792875826400355,-6.318680763239998,16.0
2018-09-11 16:03:20.500,-0.0920375314953,-0.374041826028,-0.647832959713,0.295003771782,-0.164485394955,-0.230037942529,-2.8047019,-0.10787315,12.48386545,0.0,0.260273724794,20.4612140656,-6.33265924454,0.295003771782,-0.164485394955,-0.230037942529,25.75,-546.025085449,36.9823417664,40.37872266769,3.3139209747000002,1.1660385132000002,-4.483728408800001,-0.5728134512900036,-6.315667629239998,16.0
2018-09-11 16:03:20.550,-0.0920375314953,-0.374041826028,-0.647832959713,0.295003771782,-0.164485394955,-0.230037942529,-2.8047019,-0.10787315,12.48386545,0.0,0.260273724794,20.4612140656,-6.33265924454,0.295003771782,-0.164485394955,-0.230037942529,25.75,-546.025085449,36.9823417664,40.37872266769,3.3139209747000002,1.1660385132000002,-4.483728408800001,-0.5728134512900036,-6.315667629239998,16.0
2018-09-11 16:03:20.600,-0.125092021447,-0.360133961608,-0.607490133659,-0.0135229760781,-0.25072440505,-0.148613646626,-2.57914895,1.4709975,9.1005712,0.0,0.260273724794,20.4612140656,-6.33265924454,0.295003771782,-0.164485394955,-0.230037942529,26.3799991608,-546.025085449,36.90625,40.37872266769,3.0639209747000002,0.25603866579999845,-4.4691333771,-1.0787947177900035,-6.400449752809998,16.0
2018-09-11 16:03:20.650,-0.125092021447,-0.360133961608,-0.607490133659,-0.0135229760781,-0.25072440505,-0.148613646626,-2.57914895,1.4709975,9.1005712,0.0,0.260273724794,20.4612140656,-6.33265924454,0.295003771782,-0.164485394955,-0.230037942529,26.3799991608,-546.025085449,36.90625,32.845958709717,1.593658447300001,0.2567825317000043,-4.454677581799999,-1.3474735021600035,-6.418582439419998,16.0
2018-09-11 16:03:20.700,-0.125092021447,-0.360133961608,-0.607490133659,-0.0135229760781,-0.25072440505,-0.148613646626,-2.57914895,1.4709975,9.1005712,0.0,0.260273724794,20.4612140656,-6.33265924454,0.295003771782,-0.164485394955,-0.230037942529,26.3799991608,-546.025085449,36.90625,32.845958709717,1.593658447300001,0.2567825317000043,-4.454677581799999,-1.3474735021600035,-6.418582439419998,16.0
2018-09-11 16:03:20.750,-0.125092021447,-0.360133961608,-0.607490133659,-0.0135229760781,-0.25072440505,-0.148613646626,-2.57914895,1.4709975,9.1005712,0.0,2.17205691338,20.4897460938,-6.26165676117,-0.0135229760781,-0.25072440505,-0.148613646626,27.0199985504,-556.614685059,36.7540931702,32.845958709717,1.173658371000002,-1.223220825199995,-4.496173858599999,-2.3344473838800037,-6.224552631379998,16.0
2018-09-11 16:03:20.800,-0.125092021447,-0.360133961608,-0.607490133659,-0.0135229760781,-0.25072440505,-0.148613646626,-2.57914895,1.4709975,9.1005712,0.0,2.17205691338,20.4897460938,-6.26165676117,-0.0135229760781,-0.25072440505,-0.148613646626,27.6399993896,-556.614685059,36.5427703857,32.845958709717,0.9536590575999995,-3.4332199097,-4.504514694200001,-2.6700072288500034,-6.1440773010299985,16.0
2018-09-11 16:03:20.850,-0.125092021447,-0.360133961608,-0.607490133659,-0.0135229760781,-0.25072440505,-0.148613646626,-2.57914895,1.4709975,9.1005712,0.0,2.17205691338,20.4897460938,-6.26165676117,-0.0135229760781,-0.25072440505,-0.148613646626,28.25,-591.13104248,36.236618042,31.845958709717,0.8336582184000001,-3.4332199097,-4.494802475,-3.15395881608021,-6.042756557459998,16.0
2018-09-11 16:03:20.900,-0.125092021447,-0.360133961608,-0.607490133659,-0.0135229760781,-0.25072440505,-0.148613646626,-2.57914895,1.4709975,9.1005712,0.0,2.17205691338,20.4897460938,-6.26165676117,-0.0135229760781,-0.25072440505,-0.148613646626,28.25,-591.13104248,36.236618042,31.845958709717,0.8336582184000001,-3.4332199097,-4.494802475,-3.15395881608021,-6.042756557459998,16.0
2018-09-11 16:03:20.950,-0.125092021447,-0.360133961608,-0.607490133659,-0.0135229760781,-0.25072440505,-0.148613646626,-2.57914895,1.4709975,9.1005712,0.0,2.17205691338,20.4897460938,-6.26165676117,-0.0135229760781,-0.25072440505,-0.148613646626,28.25,-591.13104248,36.236618042,31.845958709717,0.8336582184000001,-3.4332199097,-4.494802475,-3.15395881608021,-6.042756557459998,16.0
2018-09-11 16:03:21.000,-0.129265129281,-0.337028580541,-0.570039463563,0.0606563836336,-0.0758081451058,-0.293529927731,-2.6674088,-0.1372931,13.11149105,0.0,4.07504796982,20.4612503052,-5.89456510544,-0.0135229760781,-0.25072440505,-0.148613646626,28.8499984741,-591.13104248,35.8648109436,31.845958709717,0.8536586761000002,-8.813219070399999,-4.4612503052,-4.07369996980021,-5.894565105439998,16.0
2018-09-11 16:03:21.050,-0.129265129281,-0.337028580541,-0.570039463563,0.0606563836336,-0.0758081451058,-0.293529927731,-2.6674088,-0.1372931,13.11149105,0.0,4.07504796982,20.4612503052,-5.89456510544,-0.0135229760781,-0.25072440505,-0.148613646626,29.4299983978,-638.712890625,35.4084777832,23.45868492126,0.7954788207999997,-5.983146667500002,-4.4612503052,-4.07369996980021,-5.894565105439998,16.0
2018-09-11 16:03:21.100,-0.129265129281,-0.337028580541,-0.570039463563,0.0606563836336,-0.0758081451058,-0.293529927731,-2.6674088,-0.1372931,13.11149105,0.0,4.07504796982,20.4612503052,-5.89456510544,-0.0135229760781,-0.25072440505,-0.148613646626,29.4299983978,-638.712890625,35.4084777832,23.45868492126,0.6954784393000004,-9.1131458282,-4.396848678600001,-4.84844114259021,-5.7742433547999985,16.0
2018-09-11 16:03:21.150,-0.129265129281,-0.337028580541,-0.570039463563,0.0606563836336,-0.0758081451058,-0.293529927731,-2.6674088,-0.1372931,13.11149105,0.0,4.07504796982,20.4612503052,-5.89456510544,-0.0135229760781,-0.25072440505,-0.148613646626,29.4299983978,-638.712890625,35.4084777832,23.45868492126,0.6354789734000015,-9.123146057100001,-4.3664417267,-5.078571990135,-5.737044811249998,16.0
2018-09-11 16:03:21.200,-0.129265129281,-0.337028580541,-0.570039463563,0.0606563836336,-0.0758081451058,-0.293529927731,-2.6674088,-0.1372931,13.11149105,0.0,5.66111660004,20.2929668427,-5.70398235321,0.0606563836336,-0.0758081451058,-0.293529927731,30.0,-638.712890625,34.7944335938,22.45868492126,0.3854789734000015,-12.203145980800002,-4.293083191000001,-5.600123599174999,-5.703982353209998,16.0
2018-09-11 16:03:21.250,-0.129265129281,-0.337028580541,-0.570039463563,0.0606563836336,-0.0758081451058,-0.293529927731,-2.6674088,-0.1372931,13.11149105,0.0,5.66111660004,20.2929668427,-5.70398235321,0.0606563836336,-0.0758081451058,-0.293529927731,30.0,-638.712890625,34.7944335938,22.45868492126,0.3154773712000001,-12.203145980800002,-4.2721004486,-5.731447890405,-5.692255973819998,16.0
2018-09-11 16:03:21.300,-0.129265129281,-0.337028580541,-0.570039463563,0.0606563836336,-0.0758081451058,-0.293529927731,-2.6674088,-0.1372931,13.11149105,0.0,5.66111660004,20.2929668427,-5.70398235321,0.0606563836336,-0.0758081451058,-0.293529927731,30.5599994659,-682.755493164,34.2101402283,22.45868492126,-0.07452201839999972,-15.5931472778,-4.172122001600002,-6.227702707053,-5.626031398769999,16.0
2018-09-11 16:03:21.350,-0.11618389264,-0.315606407455,-0.544791311749,-0.211683422327,-0.0913807749748,-0.17789119482,-2.6674088,1.0787315,12.1210194,0.0,5.66111660004,20.2929668427,-5.70398235321,0.0606563836336,-0.0758081451058,-0.293529927731,30.5599994659,-682.755493164,34.2101402283,22.45868492126,-0.07452201839999972,-15.5931472778,-4.172122001600002,-6.227702707053,-5.626031398769999,16.0
2018-09-11 16:03:21.400,-0.11618389264,-0.315606407455,-0.544791311749,-0.211683422327,-0.0913807749748,-0.17789119482,-2.6674088,1.0787315,12.1210194,0.0,5.66111660004,20.2929668427,-5.70398235321,0.0606563836336,-0.0758081451058,-0.293529927731,31.109998703,-682.755493164,33.3604125977,16.1779603958,0.18530273440000045,-14.8130226135,-4.1121435165000015,-6.577886670822999,-5.597373962399998,16.0
2018-09-11 16:03:21.450,-0.11618389264,-0.315606407455,-0.544791311749,-0.211683422327,-0.0913807749748,-0.17789119482,-2.6674088,1.0787315,12.1210194,0.0,7.00528526306,20.0609703064,-5.56640434265,-0.211683422327,-0.0913807749748,-0.17789119482,31.109998703,-682.755493164,33.3604125977,15.1779603958,-0.2146968842000021,-18.3630218506,-4.062188148500002,-6.807854264973,-5.5664043426499985,16.0
2018-09-11 16:03:21.500,-0.11618389264,-0.315606407455,-0.544791311749,-0.211683422327,-0.0913807749748,-0.17789119482,-2.6674088,1.0787315,12.1210194,0.0,7.00528526306,20.0609703064,-5.56640434265,-0.211683422327,-0.0913807749748,-0.17789119482,31.6599998474,-709.481994629,32.674282074,15.1779603958,-0.2146968842000021,-18.3630218506,-3.9938478470000014,-7.131452649832999,-5.514710903169998,16.0
2018-09-11 16:03:21.550,-0.11618389264,-0.315606407455,-0.544791311749,-0.211683422327,-0.0913807749748,-0.17789119482,-2.6674088,1.0787315,12.1210194,0.0,7.00528526306,20.0609703064,-5.56640434265,-0.211683422327,-0.0913807749748,-0.17789119482,31.6599998474,-709.481994629,32.674282074,15.1779603958,-0.2146968842000021,-18.3630218506,-3.9938478470000014,-7.131452649832999,-5.514710903169998,16.0
2018-09-11 16:03:21.600,-0.11618389264,-0.315606407455,-0.544791311749,-0.211683422327,-0.0913807749748,-0.17789119482,-2.6674088,1.0787315,12.1210194,0.0,7.00528526306,20.0609703064,-5.56640434265,-0.211683422327,-0.0913807749748,-0.17789119482,32.2099990845,-709.481994629,31.2462291718,16.1779603958,-0.7046966553000011,-20.4530220032,-3.9938478470000014,-7.131452649832999,-5.514710903169998,16.0
2018-09-11 16:03:21.650,-0.11618389264,-0.315606407455,-0.544791311749,-0.211683422327,-0.0913807749748,-0.17789119482,-2.6674088,1.0787315,12.1210194,0.0,7.00528526306,20.0609703064,-5.56640434265,-0.211683422327,-0.0913807749748,-0.17789119482,32.2099990845,-709.481994629,31.2462291718,16.1779603958,-0.8946971893000004,-20.4430217743,-3.871489524900001,-7.424519240852,-5.309535026549998,16.0
2018-09-11 16:03:21.700,-0.11618389264,-0.315606407455,-0.544791311749,-0.211683422327,-0.0913807749748,-0.17789119482,-2.6674088,1.0787315,12.1210194,0.0,8.44568920135,19.7772083282,-5.20451164246,-0.211683422327,-0.0913807749748,-0.17789119482,32.7399978638,-745.328918457,30.5201530457,15.1779603958,-1.284696579000002,-24.10302162171,-3.8100919724000004,-7.716791808602,-5.227254390719998,16.0
2018-09-11 16:03:21.750,-0.0797667277203,-0.272163087342,-0.526648551703,-0.306966304779,-0.0437734052539,-0.245550721884,-2.6870221,0.71588545,11.89546645,0.0,8.44568920135,19.7772083282,-5.20451164246,-0.211683422327,-0.0913807749748,-0.17789119482,32.7399978638,-745.328918457,30.5201530457,15.1779603958,-1.284696579000002,-24.10302162171,-3.7466573715999996,-7.965497672562,-5.193327426909998,16.0
2018-09-11 16:03:21.800,-0.0797667277203,-0.272163087342,-0.526648551703,-0.306966304779,-0.0437734052539,-0.245550721884,-2.6870221,0.71588545,11.89546645,0.0,8.44568920135,19.7772083282,-5.20451164246,-0.211683422327,-0.0913807749748,-0.17789119482,33.2599983215,-745.328918457,29.7518520355,8.4894809723,-2.0785121918000016,-19.75856876373,-3.7026948929000003,-8.098725020882,-5.212791442869999,16.0
2018-09-11 16:03:21.850,-0.0797667277203,-0.272163087342,-0.526648551703,-0.306966304779,-0.0437734052539,-0.245550721884,-2.6870221,0.71588545,11.89546645,0.0,8.44568920135,19.7772083282,-5.20451164246,-0.211683422327,-0.0913807749748,-0.17789119482,33.2599983215,-745.328918457,29.7518520355,8.4894809723,-2.0785121918000016,-19.75856876373,-3.6505136489999988,-7.790948390960001,-5.242909908289998,16.0
2018-09-11 16:03:21.900,-0.0797667277203,-0.272163087342,-0.526648551703,-0.306966304779,-0.0437734052539,-0.245550721884,-2.6870221,0.71588545,11.89546645,0.0,8.44568920135,19.7772083282,-5.20451164246,-0.211683422327,-0.0913807749748,-0.17789119482,33.7700004578,-774.103942871,28.2255992889,8.4894809723,-2.5485134125,-20.708568572990004,-3.5734682083000013,-8.06231737137,-5.205987930299998,16.0
2018-09-11 16:03:21.950,-0.0797667277203,-0.272163087342,-0.526648551703,-0.306966304779,-0.0437734052539,-0.245550721884,-2.6870221,0.71588545,11.89546645,0.0,9.25619888306,19.5121593475,-5.2055721283,-0.306966304779,-0.0437734052539,-0.245550721884,33.7700004578,-774.103942871,28.2255992889,8.4894809723,-2.5485134125,-20.708568572990004,-3.5734682083000013,-8.06231737137,-5.205987930299998,16.0
2018-09-11 16:03:22.000,-0.0797667277203,-0.272163087342,-0.526648551703,-0.306966304779,-0.0437734052539,-0.245550721884,-2.6870221,0.71588545,11.89546645,0.0,9.25619888306,19.5121593475,-5.2055721283,-0.306966304779,-0.0437734052539,-0.245550721884,34.2799987793,-774.103942871,27.4644527435,8.4894809723,-2.8585128784000027,-23.69856858253,-3.4968957901,-8.3161110878,-5.192997455599998,16.0
2018-09-11 16:03:22.050,-0.0797667277203,-0.272163087342,-0.526648551703,-0.306966304779,-0.0437734052539,-0.245550721884,-2.6870221,0.71588545,11.89546645,0.0,9.25619888306,19.5121593475,-5.2055721283,-0.306966304779,-0.0437734052539,-0.245550721884,34.2799987793,-774.103942871,27.4644527435,8.4894809723,-2.9385128021,-23.69856858253,-3.6565494536999985,-6.88355183601,-5.181166648859998,16.0
2018-09-11 16:03:22.100,-0.0797667277203,-0.272163087342,-0.526648551703,-0.306966304779,-0.0437734052539,-0.245550721884,-2.6870221,0.71588545,11.89546645,0.0,9.25619888306,19.5121593475,-5.2055721283,-0.306966304779,-0.0437734052539,-0.245550721884,34.2799987793,-774.103942871,27.4644527435,8.4894809723,-2.9385128021,-23.69856858253,-3.6565494536999985,-6.88355183601,-5.181166648859998,16.0
2018-09-11 16:03:22.150,-0.0164731475466,-0.235317563436,-0.505990975622,-0.307787716389,0.0674773156643,-0.156579166651,-2.75566865,-0.50013915,10.95402805,0.0,9.25619888306,19.5121593475,-5.2055721283,-0.306966304779,-0.0437734052539,-0.245550721884,34.7999992371,-791.905212402,24.1673641205,10.4894809723,-3.2585124970000017,-20.75856876373,-3.5848712921000008,-7.1392519474,-5.151134014129998,16.0
2018-09-11 16:03:22.200,-0.0164731475466,-0.235317563436,-0.505990975622,-0.307787716389,0.0674773156643,-0.156579166651,-2.75566865,-0.50013915,10.95402805,0.0,9.91897773743,19.322473526,-5.17514896393,-0.307787716389,0.0674773156643,-0.156579166651,35.3099975586,-791.905212402,23.5434341431,4.0037479400999985,-2.200189590400001,-13.221710205090002,-3.530448913600001,-7.328080415719999,-5.172857761379999,16.0
2018-09-11 16:03:22.250,-0.0164731475466,-0.235317563436,-0.505990975622,-0.307787716389,0.0674773156643,-0.156579166651,-2.75566865,-0.50013915,10.95402805,0.0,9.91897773743,19.322473526,-5.17514896393,-0.307787716389,0.0674773156643,-0.156579166651,35.3099975586,-791.905212402,23.5434341431,4.0037479400999985,-2.3001899719,-13.221710205090002,-3.5117702484000013,-7.404861688639999,-5.1712012290999985,16.0
2018-09-11 16:03:22.300,-0.0164731475466,-0.235317563436,-0.505990975622,-0.307787716389,0.0674773156643,-0.156579166651,-2.75566865,-0.50013915,10.95402805,0.0,9.91897773743,19.322473526,-5.17514896393,-0.307787716389,0.0674773156643,-0.156579166651,35.8299980164,-818.501464844,22.8963165283,4.0037479400999985,-2.4101886748999988,-15.21171009542,-3.679677963299998,-6.51776075361,-5.206827163699998,16.0
2018-09-11 16:03:22.350,-0.0164731475466,-0.235317563436,-0.505990975622,-0.307787716389,0.0674773156643,-0.156579166651,-2.75566865,-0.50013915,10.95402805,0.0,9.91897773743,19.322473526,-5.17514896393,-0.307787716389,0.0674773156643,-0.156579166651,35.8299980164,-818.501464844,22.8963165283,4.0037479400999985,-2.4401893615,-15.21171009542,-3.6720581054999997,-6.546251773809999,-5.218768119809998,16.0
2018-09-11 16:03:22.400,-0.0164731475466,-0.235317563436,-0.505990975622,-0.307787716389,0.0674773156643,-0.156579166651,-2.75566865,-0.50013915,10.95402805,0.0,10.2115278244,19.2106437683,-5.33150100708,-0.307787716389,0.0674773156643,-0.156579166651,36.3600006104,-818.501464844,20.5638313293,5.0037479400999985,-2.5101890564000016,-13.121710062040002,-3.6334514618,-6.61525392531,-5.297664642329998,16.0
2018-09-11 16:03:22.450,-0.0164731475466,-0.235317563436,-0.505990975622,-0.307787716389,0.0674773156643,-0.156579166651,-2.75566865,-0.50013915,10.95402805,0.0,10.2115278244,19.2106437683,-5.33150100708,-0.307787716389,0.0674773156643,-0.156579166651,36.3600006104,-818.501464844,20.5638313293,5.0037479400999985,-2.5501899719,-13.121710062040002,-3.6043186188000007,-6.63493013381,-5.363723754879998,16.0
2018-09-11 16:03:22.500,0.0227516364795,-0.208693385763,-0.500292948699,-0.154773190618,-0.0732100531459,-0.0212145466357,-2.71644205,1.04931155,7.71783355,0.0,10.2115278244,19.2106437683,-5.33150100708,-0.307787716389,0.0674773156643,-0.156579166651,36.8899993896,-807.895874023,20.0304164886,5.0037479400999985,-2.590188980099999,-14.3817100525,-3.582265853900001,-6.6610426903099995,-5.417428970339998,16.0
2018-09-11 16:03:22.550,0.0227516364795,-0.208693385763,-0.500292948699,-0.154773190618,-0.0732100531459,-0.0212145466357,-2.71644205,1.04931155,7.71783355,0.0,10.2115278244,19.2106437683,-5.33150100708,-0.307787716389,0.0674773156643,-0.156579166651,36.8899993896,-807.895874023,20.0304164886,2.6117630005000017,-2.6458454132,-8.3464899063,-4.209475517300001,-4.5472245215900005,-5.486336231229998,16.0
2018-09-11 16:03:22.600,0.0227516364795,-0.208693385763,-0.500292948699,-0.154773190618,-0.0732100531459,-0.0212145466357,-2.71644205,1.04931155,7.71783355,0.0,10.2115278244,19.2106437683,-5.33150100708,-0.307787716389,0.0674773156643,-0.156579166651,37.4399986267,-807.895874023,15.3642444611,6.611763000500002,-2.7058448792000007,-1.2564897537100013,-4.1879892349,-4.56887578959,-5.564139842989999,16.0
2018-09-11 16:03:22.650,0.0227516364795,-0.208693385763,-0.500292948699,-0.154773190618,-0.0732100531459,-0.0212145466357,-2.71644205,1.04931155,7.71783355,0.0,10.3074464798,19.0875968933,-5.65433454514,-0.154773190618,-0.0732100531459,-0.0212145466357,37.4399986267,-807.895874023,15.3642444611,6.611763000500002,-2.7558460236,-1.2564897537100013,-4.143843650799999,-4.59043264389,-5.6543345451399984,16.0
2018-09-11 16:03:22.700,0.0227516364795,-0.208693385763,-0.500292948699,-0.154773190618,-0.0732100531459,-0.0212145466357,-2.71644205,1.04931155,7.71783355,0.0,10.3074464798,19.0875968933,-5.65433454514,-0.154773190618,-0.0732100531459,-0.0212145466357,38.0099983215,-812.779418945,15.1087856293,6.611763000500002,-2.7558460236,-1.9264898300100004,-4.093199729900002,-4.630400180790001,-5.753937721249998,16.0
2018-09-11 16:03:22.750,0.0227516364795,-0.208693385763,-0.500292948699,-0.154773190618,-0.0732100531459,-0.0212145466357,-2.71644205,1.04931155,7.71783355,0.0,10.3074464798,19.0875968933,-5.65433454514,-0.154773190618,-0.0732100531459,-0.0212145466357,38.0099983215,-812.779418945,15.1087856293,6.611763000500002,-2.7558460236,-1.9264898300100004,-4.0609884262,-4.66765832899,-5.806480884549998,16.0
2018-09-11 16:03:22.800,0.030381783681,-0.202240427607,-0.493670124562,0.0648606792092,-0.0150473695248,-0.0181170292199,-3.0008349,-0.6276256,8.36507245,0.0,10.3074464798,19.0875968933,-5.65433454514,-0.154773190618,-0.0732100531459,-0.0212145466357,38.5999984741,-812.779418945,13.7635145187,6.350534439099999,-2.827840805000001,0.5759401321399995,-4.2402048111,-4.2098946571699996,-5.829895496369998,16.0
2018-09-11 16:03:22.850,0.030381783681,-0.202240427607,-0.493670124562,0.0648606792092,-0.0150473695248,-0.0181170292199,-3.0008349,-0.6276256,8.36507245,0.0,10.3074464798,19.0875968933,-5.65433454514,-0.154773190618,-0.0732100531459,-0.0212145466357,38.5999984741,-812.779418945,13.7635145187,6.350534439099999,-2.8178405761,0.5759401321399995,-4.210692405699998,-4.27879381177,-5.843001365659998,16.0
2018-09-11 16:03:22.900,0.030381783681,-0.202240427607,-0.493670124562,0.0648606792092,-0.0150473695248,-0.0181170292199,-3.0008349,-0.6276256,8.36507245,0.0,10.5211009979,18.9427528381,-5.84300136566,0.0648606792092,-0.0150473695248,-0.0181170292199,39.2000007629,-818.018554688,13.5703964233,6.350534439099999,-2.7978401184,-0.3040599823000001,-4.189869880699998,-4.315739154770001,-5.876505851749998,16.0
2018-09-11 16:03:22.950,0.030381783681,-0.202240427607,-0.493670124562,0.0648606792092,-0.0150473695248,-0.0181170292199,-3.0008349,-0.6276256,8.36507245,0.0,10.5211009979,18.9427528381,-5.84300136566,0.0648606792092,-0.0150473695248,-0.0181170292199,39.2000007629,-818.018554688,13.5703964233,6.350534439099999,-2.7978401184,-0.3040599823000001,-4.189869880699998,-4.315739154770001,-5.876505851749998,16.0
2018-09-11 16:03:23.000,0.030381783681,-0.202240427607,-0.493670124562,0.0648606792092,-0.0150473695248,-0.0181170292199,-3.0008349,-0.6276256,8.36507245,0.0,10.5211009979,18.9427528381,-5.84300136566,0.0648606792092,-0.0150473695248,-0.0181170292199,39.8299980164,-818.018554688,13.3591756821,5.350534439099999,-2.4078407286999983,-1.044059753420001,-5.185318946800001,-2.3634328842100008,-5.960304260249998,16.0
2018-09-11 16:03:23.050,0.030381783681,-0.202240427607,-0.493670124562,0.0648606792092,-0.0150473695248,-0.0181170292199,-3.0008349,-0.6276256,8.36507245,0.0,10.5211009979,18.9427528381,-5.84300136566,0.0648606792092,-0.0150473695248,-0.0181170292199,39.8299980164,-818.018554688,13.3591756821,5.350534439099999,-2.4078407286999983,-1.044059753420001,-5.163651466399999,-2.424238204910001,-5.969813346859998,16.0
2018-09-11 16:03:23.100,0.030381783681,-0.202240427607,-0.493670124562,0.0648606792092,-0.0150473695248,-0.0181170292199,-3.0008349,-0.6276256,8.36507245,0.0,10.5211009979,18.9427528381,-5.84300136566,0.0648606792092,-0.0150473695248,-0.0181170292199,39.8299980164,-818.018554688,13.3591756821,5.350534439099999,-2.4078407286999983,-1.044059753420001,-5.163651466399999,-2.424238204910001,-5.969813346859998,16.0
2018-09-11 16:03:23.150,0.030381783681,-0.202240427607,-0.493670124562,0.0648606792092,-0.0150473695248,-0.0181170292199,-3.0008349,-0.6276256,8.36507245,0.0,10.7577838898,18.8351459503,-6.02637290955,0.0648606792092,-0.0150473695248,-0.0181170292199,40.4399986267,-810.308654785,8.96242713928,10.350534439099999,-1.9978408813000001,6.185940742449999,-5.123290062000001,-2.5177726746100006,-6.042616367339998,16.0
2018-09-11 16:03:23.200,0.0200398638437,-0.205553444981,-0.495574045515,0.0762228891253,-0.0843601599336,0.000902813626453,-2.91257505,-0.57859235,9.0809579,0.0,10.7577838898,18.8351459503,-6.02637290955,0.0648606792092,-0.0150473695248,-0.0181170292199,41.0799980164,-810.308654785,9.03576087952,10.350534439099999,-1.5178413390999985,5.875940322849999,-5.101532936099998,-2.5780487060099997,-6.0718388557399985,16.0
2018-09-11 16:03:23.250,0.0200398638437,-0.205553444981,-0.495574045515,0.0762228891253,-0.0843601599336,0.000902813626453,-2.91257505,-0.57859235,9.0809579,0.0,10.7577838898,18.8351459503,-6.02637290955,0.0648606792092,-0.0150473695248,-0.0181170292199,41.0799980164,-810.308654785,9.03576087952,10.865680694600002,-1.8380947112999984,4.5762462616,-5.390954971300001,-2.15272903442,-6.0472412109399984,16.0
2018-09-11 16:03:23.300,0.0200398638437,-0.205553444981,-0.495574045515,0.0762228891253,-0.0843601599336,0.000902813626453,-2.91257505,-0.57859235,9.0809579,0.0,10.7577838898,18.8351459503,-6.02637290955,0.0648606792092,-0.0150473695248,-0.0181170292199,41.7099990845,-815.303039551,8.03606796265,11.865680694600002,-1.4480934143000006,6.096245765699999,-5.3786754608,-2.2269811630199996,-6.012850284579998,16.0
2018-09-11 16:03:23.350,0.0200398638437,-0.205553444981,-0.495574045515,0.0762228891253,-0.0843601599336,0.000902813626453,-2.91257505,-0.57859235,9.0809579,0.0,11.0267095566,18.7652721405,-6.00667572021,0.0762228891253,-0.0843601599336,0.000902813626453,41.7099990845,-815.303039551,8.03606796265,11.865680694600002,-1.4480934143000006,6.1062459946,-5.369255065899999,-2.267477035519999,-6.005725383759998,16.0
2018-09-11 16:03:23.400,0.0200398638437,-0.205553444981,-0.495574045515,0.0762228891253,-0.0843601599336,0.000902813626453,-2.91257505,-0.57859235,9.0809579,0.0,11.0267095566,18.7652721405,-6.00667572021,0.0762228891253,-0.0843601599336,0.000902813626453,42.3299980164,-815.303039551,8.16117858887,11.865680694600002,-1.0880947112999984,5.826247215299999,-5.3542785644999995,-2.32966136932,-5.9711861610399986,16.0
2018-09-11 16:03:23.450,0.0200398638437,-0.205553444981,-0.495574045515,0.0762228891253,-0.0843601599336,0.000902813626453,-2.91257505,-0.57859235,9.0809579,0.0,11.0267095566,18.7652721405,-6.00667572021,0.0762228891253,-0.0843601599336,0.000902813626453,42.3299980164,-815.303039551,8.16117858887,11.865680694600002,-1.0880947112999984,5.826247215299999,-5.346965789799999,-2.37536907192,-5.941070556639998,16.0
2018-09-11 16:03:23.500,0.0200398638437,-0.205553444981,-0.495574045515,0.0762228891253,-0.0843601599336,0.000902813626453,-2.91257505,-0.57859235,9.0809579,0.0,11.0267095566,18.7652721405,-6.00667572021,0.0762228891253,-0.0843601599336,0.000902813626453,42.9500007629,-826.89666748,8.28428459167,11.865680694600002,-0.7780933379999979,5.5562467575,-5.346965789799999,-2.37536907192,-5.941070556639998,16.0
2018-09-11 16:03:23.550,0.0151955340891,-0.199026621166,-0.490696537478,0.00903022382408,0.0296288784593,-0.0940679013729,-2.8831551,-0.1176798,10.65982855,0.0,11.0267095566,18.7652721405,-6.00667572021,0.0762228891253,-0.0843601599336,0.000902813626453,42.9500007629,-826.89666748,8.28428459167,11.0084533691,-1.6481418609999992,5.631610870299999,-6.6903934478,-0.7010231018000006,-5.877923011779998,16.0
2018-09-11 16:03:23.600,0.0151955340891,-0.199026621166,-0.490696537478,0.00903022382408,0.0296288784593,-0.0940679013729,-2.8831551,-0.1176798,10.65982855,0.0,11.0267095566,18.7652721405,-6.00667572021,0.0762228891253,-0.0843601599336,0.000902813626453,43.5599975586,-826.89666748,4.35938024521,16.0084533691,-1.3281421661999993,12.981611251799999,-6.673809051499999,-0.7621202469000004,-5.840423107149999,15.9899997711
2018-09-11 16:03:23.650,0.0151955340891,-0.199026621166,-0.490696537478,0.00903022382408,0.0296288784593,-0.0940679013729,-2.8831551,-0.1176798,10.65982855,0.0,11.324347496,18.7031936646,-5.82811069489,0.00903022382408,0.0296288784593,-0.0940679013729,43.5599975586,-826.89666748,4.35938024521,16.0084533691,-1.3281421661999993,12.9916114807,-6.6576023101000015,-0.8183040618999993,-5.8110003471399985,15.9899997711
2018-09-11 16:03:23.700,0.0151955340891,-0.199026621166,-0.490696537478,0.00903022382408,0.0296288784593,-0.0940679013729,-2.8831551,-0.1176798,10.65982855,0.0,11.324347496,18.7031936646,-5.82811069489,0.00903022382408,0.0296288784593,-0.0940679013729,44.1499977112,-835.718505859,4.76404428482,17.0084533691,-1.0381431580000005,13.1116104126,-6.6445178985,-0.8554267883000009,-5.804822921749998,15.9899997711
2018-09-11 16:03:23.750,0.0151955340891,-0.199026621166,-0.490696537478,0.00903022382408,0.0296288784593,-0.0940679013729,-2.8831551,-0.1176798,10.65982855,0.0,11.324347496,18.7031936646,-5.82811069489,0.00903022382408,0.0296288784593,-0.0940679013729,44.1499977112,-835.718505859,4.76404428482,17.0084533691,-1.0381431580000005,13.101610183699998,-7.812939643800002,0.3304271698000001,-5.8274955749499995,15.9899997711
2018-09-11 16:03:23.800,0.0151955340891,-0.199026621166,-0.490696537478,0.00903022382408,0.0296288784593,-0.0940679013729,-2.8831551,-0.1176798,10.65982855,0.0,11.324347496,18.7031936646,-5.82811069489,0.00903022382408,0.0296288784593,-0.0940679013729,44.75,-835.718505859,1.9134106636,20.0084533691,-0.6781425476000003,18.0316104889,-7.788931846600002,0.30987071990000103,-5.868178844449999,15.9899997711
2018-09-11 16:03:23.850,0.0151955340891,-0.199026621166,-0.490696537478,0.00903022382408,0.0296288784593,-0.0940679013729,-2.8831551,-0.1176798,10.65982855,0.0,11.324347496,18.7031936646,-5.82811069489,0.00903022382408,0.0296288784593,-0.0940679013729,44.75,-835.718505859,1.9134106636,20.0084533691,-0.6781425476000003,18.041610717700003,-7.751484870900002,0.27585315700000024,-5.911818027499999,15.9899997711
2018-09-11 16:03:23.900,0.0151955340891,-0.199026621166,-0.490696537478,0.00903022382408,0.0296288784593,-0.0940679013729,-2.8831551,-0.1176798,10.65982855,0.0,11.5046777725,18.5901947021,-5.90570402145,0.00903022382408,0.0296288784593,-0.0940679013729,45.3600006104,-850.050170898,2.52058434486,21.0084533691,-0.2581424713000011,18.431610107399997,-7.7212743759,0.19571685790000082,-5.864639759059999,15.9899997711
2018-09-11 16:03:23.950,0.0151955340891,-0.199026621166,-0.490696537478,0.00903022382408,0.0296288784593,-0.0940679013729,-2.8831551,-0.1176798,10.65982855,0.0,11.5046777725,18.5901947021,-5.90570402145,0.00903022382408,0.0296288784593,-0.0940679013729,45.3600006104,-850.050170898,2.52058434486,21.0084533691,-0.24814224240000016,18.451610565099998,-7.702420234700002,0.11403751370000137,-5.805861949919999,15.9899997711
2018-09-11 16:03:24.000,0.0151955340891,-0.199026621166,-0.490696537478,0.00903022382408,0.0296288784593,-0.0940679013729,-2.8831551,-0.1176798,10.65982855,0.0,11.5046777725,18.5901947021,-5.90570402145,0.00903022382408,0.0296288784593,-0.0940679013729,45.9599990845,-850.050170898,3.12202143669,21.0084533691,0.06185722349999878,18.561611175499998,-8.53147220615,0.7703475952000005,-5.758673191069999,15.9899997711
2018-09-11 16:03:24.050,-0.0179574927831,-0.211055883077,-0.458523314776,0.363414049149,-0.0285591650754,-0.138204023242,-2.9812216,1.0983448,11.2188076,0.0,11.5046777725,18.5901947021,-5.90570402145,0.00903022382408,0.0296288784593,-0.0940679013729,45.9599990845,-850.050170898,3.12202143669,17.4603004456,-0.2244968414000006,15.1428785324,-8.493371009849998,0.6835002898999996,-5.706864356989999,15.9899997711
2018-09-11 16:03:24.100,-0.0179574927831,-0.211055883077,-0.458523314776,0.363414049149,-0.0285591650754,-0.138204023242,-2.9812216,1.0983448,11.2188076,0.0,11.9338264465,18.4191665649,-5.67224884033,0.363414049149,-0.0285591650754,-0.138204023242,46.5699996948,-837.905517578,1.67694354057,20.4603004456,0.06550407410000147,18.042878150900002,-8.452254295349999,0.5954418181999994,-5.665989875789999,16.0
2018-09-11 16:03:24.150,-0.0179574927831,-0.211055883077,-0.458523314776,0.363414049149,-0.0285591650754,-0.138204023242,-2.9812216,1.0983448,11.2188076,0.0,11.9338264465,18.4191665649,-5.67224884033,0.363414049149,-0.0285591650754,-0.138204023242,46.5699996948,-837.905517578,1.67694354057,20.4603004456,0.0855026245000019,18.012877464299997,-8.452254295349999,0.5954418181999994,-5.665989875789999,16.0
2018-09-11 16:03:24.200,-0.0179574927831,-0.211055883077,-0.458523314776,0.363414049149,-0.0285591650754,-0.138204023242,-2.9812216,1.0983448,11.2188076,0.0,11.9338264465,18.4191665649,-5.67224884033,0.363414049149,-0.0285591650754,-0.138204023242,46.5699996948,-837.905517578,1.67694354057,20.4603004456,0.0855026245000019,18.012877464299997,-8.78290939331,0.8125905991,-5.7911248207099995,16.0
2018-09-11 16:03:24.250,-0.0179574927831,-0.211055883077,-0.458523314776,0.363414049149,-0.0285591650754,-0.138204023242,-2.9812216,1.0983448,11.2188076,0.0,11.9338264465,18.4191665649,-5.67224884033,0.363414049149,-0.0285591650754,-0.138204023242,47.1599998474,-836.905456543,2.37104082108,21.4603004456,0.5255031585999994,18.042878150900002,-8.69133567811,0.7413024902000007,-5.894917964939999,16.0
2018-09-11 16:03:24.300,-0.0179574927831,-0.211055883077,-0.458523314776,0.363414049149,-0.0285591650754,-0.138204023242,-2.9812216,1.0983448,11.2188076,0.0,11.9338264465,18.4191665649,-5.67224884033,0.363414049149,-0.0285591650754,-0.138204023242,47.7799987793,-782.293334961,2.09346604347,23.4603004456,1.0755043029999989,19.472876548799995,-8.59251594541,0.63240242,-6.010985851289999,15.9899997711
2018-09-11 16:03:24.350,-0.0179574927831,-0.211055883077,-0.458523314776,0.363414049149,-0.0285591650754,-0.138204023242,-2.9812216,1.0983448,11.2188076,0.0,12.3450174332,18.0379829407,-6.08365154266,0.363414049149,-0.0285591650754,-0.138204023242,47.7799987793,-782.293334961,2.09346604347,23.4603004456,1.0955028533999993,19.4428777695,-8.495281219510002,0.49775600429999933,-6.083651542659999,15.9899997711
2018-09-11 16:03:24.400,-0.0179574927831,-0.211055883077,-0.458523314776,0.363414049149,-0.0285591650754,-0.138204023242,-2.9812216,1.0983448,11.2188076,0.0,12.3450174332,18.0379829407,-6.08365154266,0.363414049149,-0.0285591650754,-0.138204023242,48.3999977112,-783.293334961,2.81617021561,23.4603004456,1.7055034637999995,19.2928762436,-8.430189132710002,0.40607070919999977,-6.114644050599999,15.9899997711
2018-09-11 16:03:24.450,-0.0888895167212,-0.25059765174,-0.424297129642,0.59056198597,-0.0377145707607,-0.0241089314222,-2.73605535,0.06864655,9.1594111,0.0,12.3450174332,18.0379829407,-6.08365154266,0.363414049149,-0.0285591650754,-0.138204023242,48.3999977112,-783.293334961,2.81617021561,23.4603004456,1.7055034637999995,19.2928762436,-8.370227813710002,0.32272148130000033,-6.149967670439999,15.9899997711
2018-09-11 16:03:24.500,-0.0888895167212,-0.25059765174,-0.424297129642,0.59056198597,-0.0377145707607,-0.0241089314222,-2.73605535,0.06864655,9.1594111,0.0,12.3450174332,18.0379829407,-6.08365154266,0.363414049149,-0.0285591650754,-0.138204023242,49.0499992371,-776.878540039,-0.325807332993,27.567977905299998,2.942327499400001,15.052011489800002,-10.12714576719,1.3348836898999998,-6.230197906489999,16.0
2018-09-11 16:03:24.550,-0.0888895167212,-0.25059765174,-0.424297129642,0.59056198597,-0.0377145707607,-0.0241089314222,-2.73605535,0.06864655,9.1594111,0.0,12.3450174332,18.0379829407,-6.08365154266,0.363414049149,-0.0285591650754,-0.138204023242,49.0499992371,-776.878540039,-0.325807332993,27.567977905299998,2.942327499400001,15.052011489800002,-10.12714576719,1.3348836898999998,-6.230197906489999,16.0
2018-09-11 16:03:24.600,-0.0888895167212,-0.25059765174,-0.424297129642,0.59056198597,-0.0377145707607,-0.0241089314222,-2.73605535,0.06864655,9.1594111,0.0,12.9015617371,17.6445999146,-6.27255773544,0.59056198597,-0.0377145707607,-0.0241089314222,49.7000007629,-775.878540039,0.617174327374,27.567977905299998,3.562326431199999,14.952013015700004,-9.933940887490001,0.9869375228999999,-6.205177307129999,16.0
2018-09-11 16:03:24.650,-0.0888895167212,-0.25059765174,-0.424297129642,0.59056198597,-0.0377145707607,-0.0241089314222,-2.73605535,0.06864655,9.1594111,0.0,12.9015617371,17.6445999146,-6.27255773544,0.59056198597,-0.0377145707607,-0.0241089314222,49.7000007629,-775.878540039,0.617174327374,27.567977905299998,3.562326431199999,14.952013015700004,-9.933940887490001,0.9869375228999999,-6.205177307129999,16.0
2018-09-11 16:03:24.700,-0.0888895167212,-0.25059765174,-0.424297129642,0.59056198597,-0.0377145707607,-0.0241089314222,-2.73605535,0.06864655,9.1594111,0.0,12.9015617371,17.6445999146,-6.27255773544,0.59056198597,-0.0377145707607,-0.0241089314222,50.3600006104,-780.006408691,1.52445447445,28.567977905299998,4.012327194200001,14.692010879500003,-11.27827644349,1.37068367,-6.135798931119999,16.0
2018-09-11 16:03:24.750,-0.124794026067,-0.262328103605,-0.404473708489,0.177292138338,-0.156617388129,-0.101892858744,-2.81450855,0.7649187,11.8464332,0.0,12.9015617371,17.6445999146,-6.27255773544,0.59056198597,-0.0377145707607,-0.0241089314222,50.3600006104,-780.006408691,1.52445447445,28.567977905299998,4.012327194200001,14.722013473499999,-11.23430824279,1.2800655365000004,-6.104048728939999,16.0
2018-09-11 16:03:24.800,-0.124794026067,-0.262328103605,-0.404473708489,0.177292138338,-0.156617388129,-0.101892858744,-2.81450855,0.7649187,11.8464332,0.0,12.9015617371,17.6445999146,-6.27255773544,0.59056198597,-0.0377145707607,-0.0241089314222,51.0,-780.006408691,-0.483878821135,32.0941696167,4.143558502200001,13.630477905300001,-10.99373817439,0.7992172240999995,-5.914258003229999,16.0
2018-09-11 16:03:24.850,-0.124794026067,-0.262328103605,-0.404473708489,0.177292138338,-0.156617388129,-0.101892858744,-2.81450855,0.7649187,11.8464332,0.0,14.0837612152,17.0459651947,-5.87774419785,0.177292138338,-0.156617388129,-0.101892858744,51.6299972534,-792.444580078,0.547826647758,33.0941696167,4.153558731099999,13.690475463899997,-10.90005874629,0.6231336592999988,-5.848390579219999,16.0
2018-09-11 16:03:24.900,-0.124794026067,-0.262328103605,-0.404473708489,0.177292138338,-0.156617388129,-0.101892858744,-2.81450855,0.7649187,11.8464332,0.0,14.0837612152,17.0459651947,-5.87774419785,0.177292138338,-0.156617388129,-0.101892858744,51.6299972534,-792.444580078,0.547826647758,33.0941696167,4.153558731099999,13.690475463899997,-10.90005874629,0.6231336592999988,-5.848390579219999,16.0
2018-09-11 16:03:24.950,-0.124794026067,-0.262328103605,-0.404473708489,0.177292138338,-0.156617388129,-0.101892858744,-2.81450855,0.7649187,11.8464332,0.0,14.0837612152,17.0459651947,-5.87774419785,0.177292138338,-0.156617388129,-0.101892858744,51.6299972534,-792.444580078,0.547826647758,33.0941696167,4.4735584258999985,13.420478820799996,-11.74696683882,0.6373214721,-5.7256703376799996,16.0
2018-09-11 16:03:25.000,-0.124794026067,-0.262328103605,-0.404473708489,0.177292138338,-0.156617388129,-0.101892858744,-2.81450855,0.7649187,11.8464332,0.0,14.0837612152,17.0459651947,-5.87774419785,0.177292138338,-0.156617388129,-0.101892858744,52.2399978638,-792.444580078,-0.369235187769,36.0941696167,4.773558616699999,14.950477600099997,-11.64381170272,0.4484987257999986,-5.654376983639999,16.0
2018-09-11 16:03:25.050,-0.124794026067,-0.262328103605,-0.404473708489,0.177292138338,-0.156617388129,-0.101892858744,-2.81450855,0.7649187,11.8464332,0.0,14.0837612152,17.0459651947,-5.87774419785,0.177292138338,-0.156617388129,-0.101892858744,52.8299980164,-826.633239746,0.706772208214,37.0941696167,5.043559074399999,15.030475616500002,-11.342452526119999,0.00970649719999983,-5.553659439089999,16.0
2018-09-11 16:03:25.100,-0.124794026067,-0.262328103605,-0.404473708489,0.177292138338,-0.156617388129,-0.101892858744,-2.81450855,0.7649187,11.8464332,0.0,15.256477356,16.324213028,-5.53750562668,0.177292138338,-0.156617388129,-0.101892858744,52.8299980164,-826.633239746,0.706772208214,37.0941696167,5.043559074399999,15.090476989799999,-11.22253942492,-0.1570825577000008,-5.508139610289999,16.0
2018-09-11 16:03:25.150,-0.161625442118,-0.251346523407,-0.367093196085,0.199726030231,-0.20021738112,-0.153376579285,-2.87334845,0.6080123,11.6895268,0.0,15.256477356,16.324213028,-5.53750562668,0.177292138338,-0.156617388129,-0.101892858744,52.8299980164,-826.633239746,0.706772208214,37.0941696167,5.043559074399999,15.090476989799999,-11.22253942492,-0.1570825577000008,-5.508139610289999,16.0
2018-09-11 16:03:25.200,-0.161625442118,-0.251346523407,-0.367093196085,0.199726030231,-0.20021738112,-0.153376579285,-2.87334845,0.6080123,11.6895268,0.0,15.256477356,16.324213028,-5.53750562668,0.177292138338,-0.156617388129,-0.101892858744,53.4099998474,-826.633239746,1.74832761288,33.3112945557,5.013944625899999,12.4000778198,-12.46341681476,-0.11873340599999871,-5.45709180832,16.0
2018-09-11 16:03:25.250,-0.161625442118,-0.251346523407,-0.367093196085,0.199726030231,-0.20021738112,-0.153376579285,-2.87334845,0.6080123,11.6895268,0.0,15.256477356,16.324213028,-5.53750562668,0.177292138338,-0.156617388129,-0.101892858744,53.4099998474,-826.633239746,1.74832761288,33.3112945557,5.013944625899999,12.4000778198,-12.46341681476,-0.11873340599999871,-5.45709180832,16.0
2018-09-11 16:03:25.300,-0.161625442118,-0.251346523407,-0.367093196085,0.199726030231,-0.20021738112,-0.153376579285,-2.87334845,0.6080123,11.6895268,0.0,15.256477356,16.324213028,-5.53750562668,0.177292138338,-0.156617388129,-0.101892858744,53.969997406,-850.752624512,0.176393508911,37.3112945557,7.3039445877,12.750076294,-12.13420081136,-0.4698638916000011,-5.49375247955,16.0
2018-09-11 16:03:25.350,-0.161625442118,-0.251346523407,-0.367093196085,0.199726030231,-0.20021738112,-0.153376579285,-2.87334845,0.6080123,11.6895268,0.0,16.1453723907,15.5661096573,-5.50812625885,0.199726030231,-0.20021738112,-0.153376579285,53.969997406,-850.752624512,0.176393508911,37.3112945557,7.3039445877,12.750076294,-12.13420081136,-0.4698638916000011,-5.49375247955,16.0
2018-09-11 16:03:25.400,-0.161625442118,-0.251346523407,-0.367093196085,0.199726030231,-0.20021738112,-0.153376579285,-2.87334845,0.6080123,11.6895268,0.0,16.1453723907,15.5661096573,-5.50812625885,0.199726030231,-0.20021738112,-0.153376579285,54.5499992371,-850.752624512,1.32685673237,38.3112945557,9.62394428255,12.780078888000002,-12.72094273567,-0.6712198256999979,-5.4750328064,16.0
2018-09-11 16:03:25.450,-0.161625442118,-0.251346523407,-0.367093196085,0.199726030231,-0.20021738112,-0.153376579285,-2.87334845,0.6080123,11.6895268,0.0,16.1453723907,15.5661096573,-5.50812625885,0.199726030231,-0.20021738112,-0.153376579285,54.5499992371,-850.752624512,1.32685673237,38.3112945557,9.62394428255,12.780078888000002,-12.72094273567,-0.6712198256999979,-5.4750328064,16.0
2018-09-11 16:03:25.500,-0.161625442118,-0.251346523407,-0.367093196085,0.199726030231,-0.20021738112,-0.153376579285,-2.87334845,0.6080123,11.6895268,0.0,16.1453723907,15.5661096573,-5.50812625885,0.199726030231,-0.20021738112,-0.153376579285,55.1199989319,-844.852233887,0.896431267262,41.3112945557,11.80394458772,12.940078735399997,-12.39020562177,-1.0726690291999983,-5.3653922081,16.0
2018-09-11 16:03:25.550,-0.204856992201,-0.242603331414,-0.318530674903,0.313781648874,-0.307015150785,-0.190624430776,-2.7262487,0.63743225,12.4936721,0.0,16.1453723907,15.5661096573,-5.50812625885,0.199726030231,-0.20021738112,-0.153376579285,55.1199989319,-844.852233887,0.896431267262,41.3112945557,11.81394433977,12.980075836199997,-12.30119442937,-1.167614936799998,-5.33995199203,16.0
2018-09-11 16:03:25.600,-0.204856992201,-0.242603331414,-0.318530674903,0.313781648874,-0.307015150785,-0.190624430776,-2.7262487,0.63743225,12.4936721,0.0,17.3715438843,14.4706258774,-5.2038693428,0.313781648874,-0.307015150785,-0.190624430776,55.6800003052,-844.852233887,2.07793068886,36.5334472656,12.609190463970002,9.857574462899997,-12.030763864570002,-1.4616231917999993,-5.26294660568,16.0
2018-09-11 16:03:25.650,-0.204856992201,-0.242603331414,-0.318530674903,0.313781648874,-0.307015150785,-0.190624430776,-2.7262487,0.63743225,12.4936721,0.0,17.3715438843,14.4706258774,-5.2038693428,0.313781648874,-0.307015150785,-0.190624430776,56.2099990845,-844.833374023,3.19505929947,37.5334472656,14.54919052119,10.017574310299999,-11.71392273907,-1.7924604416000012,-5.11536979675,16.0
2018-09-11 16:03:25.700,-0.204856992201,-0.242603331414,-0.318530674903,0.313781648874,-0.307015150785,-0.190624430776,-2.7262487,0.63743225,12.4936721,0.0,17.3715438843,14.4706258774,-5.2038693428,0.313781648874,-0.307015150785,-0.190624430776,56.2099990845,-844.833374023,3.19505929947,37.5334472656,14.54919052119,10.017574310299999,-12.55165684224,-2.0195150375000015,-4.94693899155,16.0
2018-09-11 16:03:25.750,-0.204856992201,-0.242603331414,-0.318530674903,0.313781648874,-0.307015150785,-0.190624430776,-2.7262487,0.63743225,12.4936721,0.0,17.3715438843,14.4706258774,-5.2038693428,0.313781648874,-0.307015150785,-0.190624430776,56.2099990845,-844.833374023,3.19505929947,37.5334472656,14.54919052119,10.107574462899997,-12.43990910054,-2.1354475021000017,-4.88703727722,16.0
2018-09-11 16:03:25.800,-0.204856992201,-0.242603331414,-0.318530674903,0.313781648874,-0.307015150785,-0.190624430776,-2.7262487,0.63743225,12.4936721,0.0,17.3715438843,14.4706258774,-5.2038693428,0.313781648874,-0.307015150785,-0.190624430776,56.7299995422,-844.833374023,2.47500562668,41.5334472656,16.359190463970002,10.327575683599996,-11.82823097704,-2.7275075912,-4.59337902069,16.0
2018-09-11 16:03:25.850,-0.204856992201,-0.242603331414,-0.318530674903,0.313781648874,-0.307015150785,-0.190624430776,-2.7262487,0.63743225,12.4936721,0.0,18.7849578857,13.0679235458,-4.52571153641,0.313781648874,-0.307015150785,-0.190624430776,56.7299995422,-844.833374023,2.47500562668,41.5334472656,16.359190463970002,10.327575683599996,-11.82823097704,-2.7275075912,-4.59337902069,16.0
2018-09-11 16:03:25.900,-0.204856992201,-0.242603331414,-0.318530674903,0.313781648874,-0.307015150785,-0.190624430776,-2.7262487,0.63743225,12.4936721,0.0,18.7849578857,13.0679235458,-4.52571153641,0.313781648874,-0.307015150785,-0.190624430776,57.2099990845,-862.625671387,3.60187196732,41.5334472656,18.019190430595,10.457572937000002,-11.44321358204,-3.0880365371000007,-4.39948654175,16.0
2018-09-11 16:03:25.950,-0.26279000282,-0.196965619267,-0.261117687805,0.122029192746,-0.340314924717,-0.126398637891,-1.95152335,0.63743225,15.42586045,0.0,18.7849578857,13.0679235458,-4.52571153641,0.313781648874,-0.307015150785,-0.190624430776,57.2099990845,-862.625671387,3.60187196732,41.5334472656,18.029190421058,10.607574462899997,-11.930563509418999,-3.4896478652999985,-4.16227865219,16.0
2018-09-11 16:03:26.000,-0.26279000282,-0.196965619267,-0.261117687805,0.122029192746,-0.340314924717,-0.126398637891,-1.95152335,0.63743225,15.42586045,0.0,18.7849578857,13.0679235458,-4.52571153641,0.313781648874,-0.307015150785,-0.190624430776,57.2099990845,-862.625671387,3.60187196732,41.5334472656,18.029190421058,10.607574462899997,-11.930563509418999,-3.4896478652999985,-4.16227865219,16.0
2018-09-11 16:03:26.050,-0.26279000282,-0.196965619267,-0.261117687805,0.122029192746,-0.340314924717,-0.126398637891,-1.95152335,0.63743225,15.42586045,0.0,18.7849578857,13.0679235458,-4.52571153641,0.313781648874,-0.307015150785,-0.190624430776,57.6599998474,-862.625671387,3.07061743736,37.3075790405,14.73916506766,7.388946533199999,-11.390720903919,-3.9459371566999994,-3.9047806263,16.0
2018-09-11 16:03:26.100,-0.26279000282,-0.196965619267,-0.261117687805,0.122029192746,-0.340314924717,-0.126398637891,-1.95152335,0.63743225,15.42586045,0.0,20.1554508209,11.5026731491,-3.79191946983,0.122029192746,-0.340314924717,-0.126398637891,58.0799980164,-889.057128906,4.18251848221,37.3075790405,16.19916510581,7.478946685799997,-10.859459459819,-4.3767328262,-3.67509841919,16.0
2018-09-11 16:03:26.150,-0.26279000282,-0.196965619267,-0.261117687805,0.122029192746,-0.340314924717,-0.126398637891,-1.95152335,0.63743225,15.42586045,0.0,20.1554508209,11.5026731491,-3.79191946983,0.122029192746,-0.340314924717,-0.126398637891,58.0799980164,-889.057128906,4.18251848221,37.3075790405,16.19916510581,7.508945465099998,-10.719684183619,-4.483122825600001,-3.61434531212,16.0
2018-09-11 16:03:26.200,-0.26279000282,-0.196965619267,-0.261117687805,0.122029192746,-0.340314924717,-0.126398637891,-1.95152335,0.63743225,15.42586045,0.0,20.1554508209,11.5026731491,-3.79191946983,0.122029192746,-0.340314924717,-0.126398637891,58.0799980164,-889.057128906,4.18251848221,37.3075790405,16.19916510581,7.508945465099998,-10.719684183619,-4.483122825600001,-3.61434531212,16.0
2018-09-11 16:03:26.250,-0.26279000282,-0.196965619267,-0.261117687805,0.122029192746,-0.340314924717,-0.126398637891,-1.95152335,0.63743225,15.42586045,0.0,20.1554508209,11.5026731491,-3.79191946983,0.122029192746,-0.340314924717,-0.126398637891,58.4799995422,-889.057128906,5.23740768433,38.3075790405,17.61916494369,7.6689453125,-10.3201040513715,-5.002869605999999,-3.26698422432,16.0
