%time,field.orientation.x,field.orientation.y,field.orientation.z,field.angular_velocity.x,field.angular_velocity.y,field.angular_velocity.z,field.linear_acceleration.x,field.linear_acceleration.y,field.linear_acceleration.z,field.data,field.twist.linear.x,field.twist.linear.y,field.twist.linear.z,field.twist.angular.x,field.twist.angular.y,field.twist.angular.z,field.alt_error,field.aspd_error,field.xtrack_error,delta_yaw,delta_pitch,delta_roll,delta_x,delta_y,delta_z,delta_roll_airspeed
2018-07-18 20:00:31.350,,,,,,,,,,0.0,-17.460647583,-2.47911286354,-0.322096735239,0.651324510574,0.00358069408685,-0.101814813912,0.0799999982119,-80.6444168091,-181.271606445,-24.186035156200006,0.46193921565999996,-36.99778461452,,,,
2018-07-18 20:00:31.400,,,,,,,,,,0.0,-17.460647583,-2.47911286354,-0.322096735239,0.651324510574,0.00358069408685,-0.101814813912,0.0799999982119,-80.6444168091,-181.271606445,-24.186035156200006,-1.84806072712,-38.20778369902,2.194643358489894,1.4708881377999994,-0.296207219362,-0.8064441681000005
2018-07-18 20:00:31.450,,,,,,,,,,0.0,-17.460647583,-2.47911286354,-0.322096735239,0.651324510574,0.00358069408685,-0.101814813912,0.0799999982119,-80.6444168091,-181.271606445,-24.186035156200006,-1.8780606985100001,-38.20778369902,2.061101774479894,1.4807491301999995,-0.242061018944,-0.8064441681000005
2018-07-18 20:00:31.500,0.00789388307323,-0.13958382924,-0.989825601977,-1.05613052845,-0.0465226247907,0.0501267239451,0.4314926,0.196133,11.4737805,0.0,-17.5214214325,-1.90287840366,-0.163218483329,-1.05613052845,-0.0465226247907,0.0501267239451,0.0999999940395,-94.8808670044,-181.093490601,-26.872573852499997,-5.4676111936559995,-49.1165790558,1.9028754036598938,1.5214214324999986,-0.163218483329,-0.9488086699999982
2018-07-18 20:00:31.550,0.00789388307323,-0.13958382924,-0.989825601977,-1.05613052845,-0.0465226247907,0.0501267239451,0.4314926,0.196133,11.4737805,0.0,-17.5214214325,-1.90287840366,-0.163218483329,-1.05613052845,-0.0465226247907,0.0501267239451,0.109999999404,-118.424034119,-180.937652588,-26.872573852499997,-7.777611136436,-50.0765781402,1.7947729628298938,1.5715637206999986,-0.0607614293694,-1.1842403411999989
2018-07-18 20:00:31.600,0.00789388307323,-0.13958382924,-0.989825601977,-1.05613052845,-0.0465226247907,0.0501267239451,0.4314926,0.196133,11.4737805,0.0,-17.5214214325,-1.90287840366,-0.163218483329,-1.05613052845,-0.0465226247907,0.0501267239451,0.109999999404,-118.424034119,-180.937652588,-26.872573852499997,-7.797610640526,-50.0665798187,1.7307613890398938,1.6443119049000003,0.0528990700841,-1.1842403411999989
2018-07-18 20:00:31.650,0.00789388307323,-0.13958382924,-0.989825601977,-1.05613052845,-0.0465226247907,0.0501267239451,0.4314926,0.196133,11.4737805,0.0,-17.5214214325,-1.90287840366,-0.163218483329,-1.05613052845,-0.0465226247907,0.0501267239451,0.0999999940395,-144.964599609,-180.815200806,-26.872573852499997,-10.047610640536,-50.7165775299,1.732422689699894,1.6929607390999983,0.0921251773834,-1.4496459960999992
2018-07-18 20:00:31.700,0.00789388307323,-0.13958382924,-0.989825601977,-1.05613052845,-0.0465226247907,0.0501267239451,0.4314926,0.196133,11.4737805,0.0,-17.5214214325,-1.90287840366,-0.163218483329,-1.05613052845,-0.0465226247907,0.0501267239451,0.0999999940395,-144.964599609,-180.815200806,-26.872573852499997,-10.047610640536,-50.7065792083,1.767991284629894,1.7614421843999999,0.0443494580686,-1.4496459960999992
2018-07-18 20:00:31.750,0.0183624583844,0.0448576874628,-0.998284326755,-0.914347350597,0.200876757503,0.000431870575994,1.10815145,0.5295591,8.2179727,0.0,-17.7614421844,-1.76799428463,0.0443494580686,-1.05613052845,-0.0465226247907,0.0501267239451,0.0899999961257,-150.08392334,-180.681625366,-27.872573852499997,-11.767610907536001,-50.8865795135,1.796080807949894,1.8104629517,-0.0298852380365,-1.5008392334000007
2018-07-18 20:00:31.800,0.0183624583844,0.0448576874628,-0.998284326755,-0.914347350597,0.200876757503,0.000431870575994,1.10815145,0.5295591,8.2179727,0.0,-17.7614421844,-1.76799428463,0.0443494580686,-1.05613052845,-0.0465226247907,0.0501267239451,0.0899999961257,-150.08392334,-180.681625366,-27.331321716299996,-9.95998263355,-29.737021923070003,1.8339127104498938,1.8606433867999996,-0.0922080278397,-1.5008392334000007
2018-07-18 20:00:31.850,0.0183624583844,0.0448576874628,-0.998284326755,-0.914347350597,0.200876757503,0.000431870575994,1.10815145,0.5295591,8.2179727,0.0,-17.7614421844,-1.76799428463,0.0443494580686,-1.05613052845,-0.0465226247907,0.0501267239451,0.0899999961257,-150.08392334,-180.681625366,-27.331321716299996,-9.95998263355,-29.737021923070003,1.8339127104498938,1.8606433867999996,-0.0922080278397,-1.5008392334000007
2018-07-18 20:00:31.900,0.0183624583844,0.0448576874628,-0.998284326755,-0.914347350597,0.200876757503,0.000431870575994,1.10815145,0.5295591,8.2179727,0.0,-17.7614421844,-1.76799428463,0.0443494580686,-1.05613052845,-0.0465226247907,0.0501267239451,0.0899999961257,-151.499755859,-180.525772095,-27.331321716299996,-10.34998297695,-29.747024059270004,1.9957275192898938,1.9510421752999996,-0.189629673958,-1.5149974823
2018-07-18 20:00:31.950,0.0183624583844,0.0448576874628,-0.998284326755,-0.914347350597,0.200876757503,0.000431870575994,1.10815145,0.5295591,8.2179727,0.0,-18.009355545,-2.16430187225,-0.28767362237,-0.914347350597,0.200876757503,0.000431870575994,0.109999999404,-156.121643066,-180.34765625,-27.331321716299996,-8.07998251915,-29.43702268597,2.129584650299894,1.990215301500001,-0.255553632975,-1.561216354399999
2018-07-18 20:00:32.000,0.0183624583844,0.0448576874628,-0.998284326755,-0.914347350597,0.200876757503,0.000431870575994,1.10815145,0.5295591,8.2179727,0.0,-18.009355545,-2.16430187225,-0.28767362237,-0.914347350597,0.200876757503,0.000431870575994,0.109999999404,-156.121643066,-180.34765625,-27.331321716299996,-8.06998324395,-29.41702222827,2.267549137369894,2.023698806799999,-0.366735100746,-1.561216354399999
2018-07-18 20:00:32.050,0.0183624583844,0.0448576874628,-0.998284326755,-0.914347350597,0.200876757503,0.000431870575994,1.10815145,0.5295591,8.2179727,0.0,-18.009355545,-2.16430187225,-0.28767362237,-0.914347350597,0.200876757503,0.000431870575994,0.159999996424,-159.45223999,-180.147293091,-27.331321716299996,-5.9399831295,-28.887023448969998,2.410821298859894,2.0482387543000016,-0.518734931946,-1.5945224762000016
2018-07-18 20:00:32.100,0.0183624583844,0.0448576874628,-0.998284326755,-0.914347350597,0.200876757503,0.000431870575994,1.10815145,0.5295591,8.2179727,0.0,-18.009355545,-2.16430187225,-0.28767362237,-0.914347350597,0.200876757503,0.000431870575994,0.159999996424,-159.45223999,-180.147293091,-27.331321716299996,-5.919982671730001,-28.877025127369997,2.410821298859894,2.0482387543000016,-0.518734931946,-1.5945224762000016
2018-07-18 20:00:32.150,0.0406429043078,0.161946386167,-0.985398777091,-0.458997786045,0.0857608988881,-0.0073194084689,-0.0784532,-0.08825985,7.0215614,0.0,-18.009355545,-2.16430187225,-0.28767362237,-0.914347350597,0.200876757503,0.000431870575994,0.159999996424,-159.45223999,-180.147293091,-27.331321716299996,-5.919982671730001,-28.877025127369997,2.553891996639894,2.0658798217999994,-0.699171900749,-1.5945224762000016
2018-07-18 20:00:32.200,0.0406429043078,0.161946386167,-0.985398777091,-0.458997786045,0.0857608988881,-0.0073194084689,-0.0784532,-0.08825985,7.0215614,0.0,-18.0727596283,-2.76537108421,-0.898255109787,-0.458997786045,0.0857608988881,-0.0073194084689,0.239999994636,-154.279708862,-179.902389526,-27.976959228499993,-0.7949757575899996,-14.861894607499998,2.7653680842098938,2.0727596282999983,-0.898255109787,-1.5427970886000004
2018-07-18 20:00:32.250,0.0406429043078,0.161946386167,-0.985398777091,-0.458997786045,0.0857608988881,-0.0073194084689,-0.0784532,-0.08825985,7.0215614,0.0,-18.0727596283,-2.76537108421,-0.898255109787,-0.458997786045,0.0857608988881,-0.0073194084689,0.34999999404,-162.385742188,-179.624084473,-27.976959228499993,-1.1449756622300002,-14.221895217899998,2.919869045519894,2.0752563477000017,-1.04001247883,-1.6238574981999996
2018-07-18 20:00:32.300,0.0406429043078,0.161946386167,-0.985398777091,-0.458997786045,0.0857608988881,-0.0073194084689,-0.0784532,-0.08825985,7.0215614,0.0,-18.0727596283,-2.76537108421,-0.898255109787,-0.458997786045,0.0857608988881,-0.0073194084689,0.34999999404,-162.385742188,-179.624084473,-27.976959228499993,-1.1449756622300002,-14.221895217899998,2.919869045519894,2.0752563477000017,-1.04001247883,-1.6238574981999996
2018-07-18 20:00:32.350,0.0406429043078,0.161946386167,-0.985398777091,-0.458997786045,0.0857608988881,-0.0073194084689,-0.0784532,-0.08825985,7.0215614,0.0,-18.0727596283,-2.76537108421,-0.898255109787,-0.458997786045,0.0857608988881,-0.0073194084689,0.34999999404,-162.385742188,-179.624084473,-27.976959228499993,-1.1449756622300002,-14.221895217899998,3.0844043295598937,2.0566997528,-1.16416656971,-1.6238574981999996
2018-07-18 20:00:32.400,0.0406429043078,0.161946386167,-0.985398777091,-0.458997786045,0.0857608988881,-0.0073194084689,-0.0784532,-0.08825985,7.0215614,0.0,-18.0727596283,-2.76537108421,-0.898255109787,-0.458997786045,0.0857608988881,-0.0073194084689,0.489999979734,-157.125274658,-179.323532104,-27.976959228499993,-1.8649759292599999,-13.441894531299997,3.0844043295598937,2.0566997528,-1.16416656971,-1.6238574981999996
2018-07-18 20:00:32.450,0.0406429043078,0.161946386167,-0.985398777091,-0.458997786045,0.0857608988881,-0.0073194084689,-0.0784532,-0.08825985,7.0215614,0.0,-17.9948120117,-3.46666717529,-1.3306427002,-0.458997786045,0.0857608988881,-0.0073194084689,0.489999979734,-157.125274658,-179.323532104,-27.976959228499993,-1.8649759292599999,-13.441894531299997,3.402675966519894,2.0064353942999986,-1.29838263988,-1.5712528229
2018-07-18 20:00:32.500,0.0406429043078,0.161946386167,-0.985398777091,-0.458997786045,0.0857608988881,-0.0073194084689,-0.0784532,-0.08825985,7.0215614,0.0,-17.9948120117,-3.46666717529,-1.3306427002,-0.458997786045,0.0857608988881,-0.0073194084689,0.639999985695,-155.825042725,-178.978439331,-27.976959228499993,-2.6349759101799997,-12.441894531299997,3.5200887720798937,1.9843654633000014,-1.36134374142,-1.5582504272000008
2018-07-18 20:00:32.550,0.0406429043078,0.161946386167,-0.985398777091,-0.458997786045,0.0857608988881,-0.0073194084689,-0.0784532,-0.08825985,7.0215614,0.0,-17.9948120117,-3.46666717529,-1.3306427002,-0.458997786045,0.0857608988881,-0.0073194084689,0.639999985695,-155.825042725,-178.978439331,-27.976959228499993,-2.6349759101799997,-12.441894531299997,3.774987081789894,1.9252700806000007,-1.42572009563,-1.5201110839999998
2018-07-18 20:00:32.600,0.0398154535866,0.186552924669,-0.9798134812,-0.0107562839985,-0.0340715125203,0.237903371453,-1.1375714,-0.5099458,9.81645665,0.0,-17.9948120117,-3.46666717529,-1.3306427002,-0.458997786045,0.0857608988881,-0.0073194084689,0.789999961853,-152.011108398,-178.611083984,-28.976959228499993,-3.3949756622299994,-11.421894073499999,3.9846895735498937,1.8762130737000007,-1.46251022816,-1.5201110839999998
2018-07-18 20:00:32.650,0.0398154535866,0.186552924669,-0.9798134812,-0.0107562839985,-0.0340715125203,0.237903371453,-1.1375714,-0.5099458,9.81645665,0.0,-17.9948120117,-3.46666717529,-1.3306427002,-0.458997786045,0.0857608988881,-0.0073194084689,0.789999961853,-152.011108398,-178.611083984,-28.976959228499993,-3.3949756622299994,-11.421894073499999,3.9846895735498937,1.8762130737000007,-1.46251022816,-1.5201110839999998
2018-07-18 20:00:32.700,0.0398154535866,0.186552924669,-0.9798134812,-0.0107562839985,-0.0340715125203,0.237903371453,-1.1375714,-0.5099458,9.81645665,0.0,-17.8039417267,-4.2559967041,-1.50981974602,-0.0107562839985,-0.0340715125203,0.237903371453,0.949999988079,-151.937683105,-178.210342407,-26.094604492200006,-3.51112651825,-7.467523574800001,4.323840955989894,1.7842884064000017,-1.5276132822,-1.5193767547999997
2018-07-18 20:00:32.750,0.0398154535866,0.186552924669,-0.9798134812,-0.0107562839985,-0.0340715125203,0.237903371453,-1.1375714,-0.5099458,9.81645665,0.0,-17.8039417267,-4.2559967041,-1.50981974602,-0.0107562839985,-0.0340715125203,0.237903371453,1.11000001431,-146.507080078,-177.776199341,-26.094604492200006,-4.151126861570001,-6.227523803699999,4.525509695309894,1.7219390869000009,-1.59783446789,-1.4650707244999985
2018-07-18 20:00:32.800,0.0398154535866,0.186552924669,-0.9798134812,-0.0107562839985,-0.0340715125203,0.237903371453,-1.1375714,-0.5099458,9.81645665,0.0,-17.8039417267,-4.2559967041,-1.50981974602,-0.0107562839985,-0.0340715125203,0.237903371453,1.11000001431,-146.507080078,-177.776199341,-26.094604492200006,-4.151126861570001,-6.227523803699999,4.525509695309894,1.7219390869000009,-1.59783446789,-1.4650707244999985
2018-07-18 20:00:32.850,0.0398154535866,0.186552924669,-0.9798134812,-0.0107562839985,-0.0340715125203,0.237903371453,-1.1375714,-0.5099458,9.81645665,0.0,-17.8039417267,-4.2559967041,-1.50981974602,-0.0107562839985,-0.0340715125203,0.237903371453,1.11000001431,-146.507080078,-177.776199341,-26.094604492200006,-4.151126861570001,-6.2075233459999986,4.728782514829894,1.6572742462,-1.67918527126,-1.4650707244999985
2018-07-18 20:00:32.900,0.0398154535866,0.186552924669,-0.9798134812,-0.0107562839985,-0.0340715125203,0.237903371453,-1.1375714,-0.5099458,9.81645665,0.0,-17.8039417267,-4.2559967041,-1.50981974602,-0.0107562839985,-0.0340715125203,0.237903371453,1.26999998093,-133.597747803,-177.297531128,-26.094604492200006,-4.79112720486,-4.897523880000001,5.012813429139894,1.5665454865000008,-1.78688716888,-1.3359775543000012
2018-07-18 20:00:32.950,0.0398154535866,0.186552924669,-0.9798134812,-0.0107562839985,-0.0340715125203,0.237903371453,-1.1375714,-0.5099458,9.81645665,0.0,-17.4952297211,-5.23070192337,-1.87887692451,-0.0107562839985,-0.0340715125203,0.237903371453,1.42999994755,-122.315788269,-176.77432251,-26.094604492200006,-5.411127090459999,-3.4575233459999986,5.012813429139894,1.5665454865000008,-1.78688716888,-1.3359775543000012
2018-07-18 20:00:33.000,0.0398154535866,0.186552924669,-0.9798134812,-0.0107562839985,-0.0340715125203,0.237903371453,-1.1375714,-0.5099458,9.81645665,0.0,-17.4952297211,-5.23070192337,-1.87887692451,-0.0107562839985,-0.0340715125203,0.237903371453,1.42999994755,-122.315788269,-176.77432251,-26.094604492200006,-5.411127090459999,-3.4575233459999986,5.302785734439894,1.4723682404000016,-1.90783119202,-1.2231578827000007
2018-07-18 20:00:33.050,0.047899043541,0.197485840118,-0.972681262781,-0.0116704721004,-0.0104372985661,0.204770073295,-1.40235095,-0.0784532,9.4928372,0.0,-17.4952297211,-5.23070192337,-1.87887692451,-0.0107562839985,-0.0340715125203,0.237903371453,1.42999994755,-122.315788269,-176.77432251,-26.094604492200006,-5.411127090459999,-3.447523117100001,5.447061876559894,1.4291706085000015,-1.94558382034,-1.2231578827000007
2018-07-18 20:00:33.100,0.047899043541,0.197485840118,-0.972681262781,-0.0116704721004,-0.0104372985661,0.204770073295,-1.40235095,-0.0784532,9.4928372,0.0,-17.4952297211,-5.23070192337,-1.87887692451,-0.0107562839985,-0.0340715125203,0.237903371453,1.59999990463,-116.533470154,-176.228866577,-20.385421753000003,-3.8762278557100007,-1.0813198089000018,5.664127687709894,1.3568992615000006,-1.98980784416,-1.1653347015000008
2018-07-18 20:00:33.150,0.047899043541,0.197485840118,-0.972681262781,-0.0116704721004,-0.0104372985661,0.204770073295,-1.40235095,-0.0784532,9.4928372,0.0,-17.4952297211,-5.23070192337,-1.87887692451,-0.0107562839985,-0.0340715125203,0.237903371453,1.77999997139,-118.586540222,-175.638870239,-20.385421753000003,-3.8662276268099998,-1.071319580099999,5.812353472019894,1.3152980804000016,-2.02455639839,-1.185865402200001
2018-07-18 20:00:33.200,0.047899043541,0.197485840118,-0.972681262781,-0.0116704721004,-0.0104372985661,0.204770073295,-1.40235095,-0.0784532,9.4928372,0.0,-17.2196140289,-6.11398410797,-2.13032698631,-0.0116704721004,-0.0104372985661,0.204770073295,1.77999997139,-118.586540222,-175.638870239,-20.385421753000003,-4.446227550510001,0.4586811066000003,6.113981107969894,1.2196140289000006,-2.13032698631,-1.185865402200001
2018-07-18 20:00:33.250,0.047899043541,0.197485840118,-0.972681262781,-0.0116704721004,-0.0104372985661,0.204770073295,-1.40235095,-0.0784532,9.4928372,0.0,-17.2196140289,-6.11398410797,-2.13032698631,-0.0116704721004,-0.0104372985661,0.204770073295,1.95999991894,-112.375450134,-175.004364014,-20.385421753000003,-4.86622762681,2.0786800385,6.313603262209894,1.1526832581000015,-2.21885538101,-1.1237545012999988
2018-07-18 20:00:33.300,0.047899043541,0.197485840118,-0.972681262781,-0.0116704721004,-0.0104372985661,0.204770073295,-1.40235095,-0.0784532,9.4928372,0.0,-17.2196140289,-6.11398410797,-2.13032698631,-0.0116704721004,-0.0104372985661,0.204770073295,1.95999991894,-112.375450134,-175.004364014,-20.385421753000003,-4.86622762681,2.088680267400001,6.435094217559894,1.1152572632000002,-2.27274680138,-1.1237545012999988
2018-07-18 20:00:33.350,0.047899043541,0.197485840118,-0.972681262781,-0.0116704721004,-0.0104372985661,0.204770073295,-1.40235095,-0.0784532,9.4928372,0.0,-17.2196140289,-6.11398410797,-2.13032698631,-0.0116704721004,-0.0104372985661,0.204770073295,2.15999984741,-105.809020996,-174.358703613,-20.385421753000003,-5.39622735981,3.498680114799999,6.720877031589894,1.0273780823000003,-2.38503336906,-1.0580902099999996
2018-07-18 20:00:33.400,0.0557780322388,0.206528366222,-0.967061863957,0.0245228521526,0.0263101682067,0.174155920744,-1.2552512,-0.57859235,8.95347145,0.0,-17.2196140289,-6.11398410797,-2.13032698631,-0.0116704721004,-0.0104372985661,0.204770073295,2.15999984741,-105.809020996,-174.358703613,-20.385421753000003,-3.81108379368,4.286657333299999,6.720877031589894,1.0273780823000003,-2.38503336906,-1.0580902099999996
2018-07-18 20:00:33.450,0.0557780322388,0.206528366222,-0.967061863957,0.0245228521526,0.0263101682067,0.174155920744,-1.2552512,-0.57859235,8.95347145,0.0,-16.9629001617,-6.9115986824,-2.4721364975,0.0245228521526,0.0263101682067,0.174155920744,2.36999988556,-91.4855957031,-173.657394409,-17.692489624000004,-4.31108379368,5.8266563415000014,6.911595682399894,0.9629001616999986,-2.4721364975,-0.9148559570000003
2018-07-18 20:00:33.500,0.0557780322388,0.206528366222,-0.967061863957,0.0245228521526,0.0263101682067,0.174155920744,-1.2552512,-0.57859235,8.95347145,0.0,-16.9629001617,-6.9115986824,-2.4721364975,0.0245228521526,0.0263101682067,0.174155920744,2.36999988556,-91.4855957031,-173.657394409,-17.692489624000004,-4.321084022480001,5.836656570399999,7.0888093512298935,0.8957519530999996,-2.62176799774,-0.9148559570000003
2018-07-18 20:00:33.550,0.0557780322388,0.206528366222,-0.967061863957,0.0245228521526,0.0263101682067,0.174155920744,-1.2552512,-0.57859235,8.95347145,0.0,-16.9629001617,-6.9115986824,-2.4721364975,0.0245228521526,0.0263101682067,0.174155920744,2.36999988556,-91.4855957031,-173.657394409,-17.692489624000004,-4.321084022480001,5.836656570399999,7.0888093512298935,0.8957519530999996,-2.62176799774,-0.9148559570000003
2018-07-18 20:00:33.600,0.0557780322388,0.206528366222,-0.967061863957,0.0245228521526,0.0263101682067,0.174155920744,-1.2552512,-0.57859235,8.95347145,0.0,-16.9629001617,-6.9115986824,-2.4721364975,0.0245228521526,0.0263101682067,0.174155920744,2.59999990463,-75.8159637451,-172.933822632,-17.692489624000004,-4.92108440398,7.266656875599999,7.355065206789894,0.7793025970000009,-2.92025566101,-0.7581596375000004
2018-07-18 20:00:33.650,0.0557780322388,0.206528366222,-0.967061863957,0.0245228521526,0.0263101682067,0.174155920744,-1.2552512,-0.57859235,8.95347145,0.0,-16.9629001617,-6.9115986824,-2.4721364975,0.0245228521526,0.0263101682067,0.174155920744,2.84999990463,-60.6540679932,-172.187988281,-17.692489624000004,-5.53108406068,8.5266571045,7.523332933689894,0.7145690918000014,-3.07797241211,-0.6065406799000002
2018-07-18 20:00:33.700,0.0557780322388,0.206528366222,-0.967061863957,0.0245228521526,0.0263101682067,0.174155920744,-1.2552512,-0.57859235,8.95347145,0.0,-16.6916790009,-7.58215761185,-3.12551450729,0.0245228521526,0.0263101682067,0.174155920744,2.84999990463,-60.6540679932,-172.187988281,-17.692489624000004,-5.5410842895800005,8.5366563797,7.6359199087798935,0.6727256775000008,-3.16861701012,-0.6065406799000002
2018-07-18 20:00:33.750,0.0557780322388,0.206528366222,-0.967061863957,0.0245228521526,0.0263101682067,0.174155920744,-1.2552512,-0.57859235,8.95347145,0.0,-16.6916790009,-7.58215761185,-3.12551450729,0.0245228521526,0.0263101682067,0.174155920744,2.84999990463,-60.6540679932,-172.187988281,-17.692489624000004,-5.5410842895800005,8.5366563797,7.6359199087798935,0.6727256775000008,-3.16861701012,-0.6065406799000002
2018-07-18 20:00:33.800,0.0557780322388,0.206528366222,-0.967061863957,0.0245228521526,0.0263101682067,0.174155920744,-1.2552512,-0.57859235,8.95347145,0.0,-16.6916790009,-7.58215761185,-3.12551450729,0.0245228521526,0.0263101682067,0.174155920744,3.13999986649,-57.9277038574,-171.419891357,-17.692489624000004,-6.02108383178,9.89665699,7.916612486149894,0.5757846831999984,-3.35506939888,-0.5792770386000008
2018-07-18 20:00:33.850,0.0557780322388,0.206528366222,-0.967061863957,0.0245228521526,0.0263101682067,0.174155920744,-1.2552512,-0.57859235,8.95347145,0.0,-16.6916790009,-7.58215761185,-3.12551450729,0.0245228521526,0.0263101682067,0.174155920744,3.4399998188,-59.2626571655,-170.618392944,-17.692489624000004,-6.40108394618,11.2566566467,8.079057554499894,0.5239639282000006,-3.43121433258,-0.5926265716999986
2018-07-18 20:00:33.900,0.0776904346,0.173235630451,-0.967045858498,0.182763427496,0.0470699369907,0.130138039589,-1.34351105,0.28439285,8.34545915,0.0,-16.6916790009,-7.58215761185,-3.12551450729,0.0245228521526,0.0263101682067,0.174155920744,3.4399998188,-59.2626571655,-170.618392944,-14.062751770000006,-3.8342533111000012,6.751220703199998,8.247616628909894,0.4760360717999994,-3.51153659821,-0.7077674866000017
2018-07-18 20:00:33.950,0.0776904346,0.173235630451,-0.967045858498,0.182763427496,0.0470699369907,0.130138039589,-1.34351105,0.28439285,8.34545915,0.0,-16.4454040527,-8.35140323639,-3.55831623077,0.182763427496,0.0470699369907,0.130138039589,3.4399998188,-59.2626571655,-170.618392944,-14.062751770000006,-3.8342533111000012,6.751220703199998,8.247616628909894,0.4760360717999994,-3.51153659821,-0.7077674866000017
2018-07-18 20:00:34.000,0.0776904346,0.173235630451,-0.967045858498,0.182763427496,0.0470699369907,0.130138039589,-1.34351105,0.28439285,8.34545915,0.0,-16.4454040527,-8.35140323639,-3.55831623077,0.182763427496,0.0470699369907,0.130138039589,3.75,-70.7767486572,-169.794631958,-14.062751770000006,-4.1242542267000015,8.051220893899998,8.441545347469894,0.41770172120000026,-3.60887694359,-0.7077674866000017
2018-07-18 20:00:34.050,0.0776904346,0.173235630451,-0.967045858498,0.182763427496,0.0470699369907,0.130138039589,-1.34351105,0.28439285,8.34545915,0.0,-16.4454040527,-8.35140323639,-3.55831623077,0.182763427496,0.0470699369907,0.130138039589,4.07999992371,-76.2533187866,-168.948608398,-14.062751770000006,-4.3042526245,9.201220512429998,8.581477979919894,0.3715934752999992,-3.71780347824,-0.7625331879000008
2018-07-18 20:00:34.100,0.0776904346,0.173235630451,-0.967045858498,0.182763427496,0.0470699369907,0.130138039589,-1.34351105,0.28439285,8.34545915,0.0,-16.4454040527,-8.35140323639,-3.55831623077,0.182763427496,0.0470699369907,0.130138039589,4.07999992371,-76.2533187866,-168.948608398,-14.062751770000006,-4.314252853400001,9.211220741319998,8.581477979919894,0.3715934752999992,-3.71780347824,-0.7625331879000008
2018-07-18 20:00:34.150,0.0776904346,0.173235630451,-0.967045858498,0.182763427496,0.0470699369907,0.130138039589,-1.34351105,0.28439285,8.34545915,0.0,-16.3122215271,-8.79473876953,-3.85868191719,0.182763427496,0.0470699369907,0.130138039589,4.42999982834,-78.2217025757,-168.091461182,-15.062751770000006,-4.314252853400001,10.241220474289998,8.794735769529893,0.3122215271000002,-3.85868191719,-0.7822170258000014
2018-07-18 20:00:34.200,0.0776904346,0.173235630451,-0.967045858498,0.182763427496,0.0470699369907,0.130138039589,-1.34351105,0.28439285,8.34545915,0.0,-16.3122215271,-8.79473876953,-3.85868191719,0.182763427496,0.0470699369907,0.130138039589,4.42999982834,-78.2217025757,-168.091461182,-15.062751770000006,-4.3242530822,10.251220703169999,8.882499555849893,0.28874397279999897,-3.92477846146,-0.7822170258000014
2018-07-18 20:00:34.250,0.0963708569251,0.135538502189,-0.967631358173,0.144799605012,0.0610364563763,0.146597102284,-1.46119085,0.0196133,8.2964259,0.0,-16.3122215271,-8.79473876953,-3.85868191719,0.182763427496,0.0470699369907,0.130138039589,4.77999973297,-86.5356445312,-167.212036133,-15.062751770000006,-3.3542537688999996,11.251220703169999,8.953756193419894,0.267578125,-3.98720645905,-0.8653564453000016
2018-07-18 20:00:34.300,0.0963708569251,0.135538502189,-0.967631358173,0.144799605012,0.0610364563763,0.146597102284,-1.46119085,0.0196133,8.2964259,0.0,-16.3122215271,-8.79473876953,-3.85868191719,0.182763427496,0.0470699369907,0.130138039589,4.77999973297,-86.5356445312,-167.212036133,-12.432006836,-1.6639080047999997,6.2979292869100005,9.032107214229894,0.24426078799999829,-4.06407213211,-0.8653564453000016
2018-07-18 20:00:34.350,0.0963708569251,0.135538502189,-0.967631358173,0.144799605012,0.0610364563763,0.146597102284,-1.46119085,0.0196133,8.2964259,0.0,-16.3122215271,-8.79473876953,-3.85868191719,0.182763427496,0.0470699369907,0.130138039589,5.15000009537,-86.9815826416,-166.310348511,-12.432006836,-0.7539081573999997,7.217929363210001,9.032107214229894,0.24426078799999829,-4.06407213211,-0.8653564453000016
2018-07-18 20:00:34.400,0.0963708569251,0.135538502189,-0.967631358173,0.144799605012,0.0610364563763,0.146597102284,-1.46119085,0.0196133,8.2964259,0.0,-16.1747055054,-9.29528427124,-4.30387115479,0.144799605012,0.0610364563763,0.146597102284,5.15000009537,-86.9815826416,-166.310348511,-12.432006836,-0.7539081573999997,7.217929363210001,9.254727224609894,0.18365859989999933,-4.27149486542,-0.8698158264
2018-07-18 20:00:34.450,0.0963708569251,0.135538502189,-0.967631358173,0.144799605012,0.0610364563763,0.146597102284,-1.46119085,0.0196133,8.2964259,0.0,-16.1747055054,-9.29528427124,-4.30387115479,0.144799605012,0.0610364563763,0.146597102284,5.5499997139,-104.179763794,-165.386413574,-12.432006836,0.2860918044999998,8.10792922969,9.358709196349894,0.16102409359999825,-4.34672641754,-1.0417976379000002
2018-07-18 20:00:34.500,0.0963708569251,0.135538502189,-0.967631358173,0.144799605012,0.0610364563763,0.146597102284,-1.46119085,0.0196133,8.2964259,0.0,-16.1747055054,-9.29528427124,-4.30387115479,0.144799605012,0.0610364563763,0.146597102284,5.5499997139,-104.179763794,-165.386413574,-12.432006836,0.27609157559999886,8.10792922969,9.389954427979895,0.15517997739999956,-4.37544488907,-1.0417976379000002
2018-07-18 20:00:34.550,0.0963708569251,0.135538502189,-0.967631358173,0.144799605012,0.0610364563763,0.146597102284,-1.46119085,0.0196133,8.2964259,0.0,-16.1747055054,-9.29528427124,-4.30387115479,0.144799605012,0.0610364563763,0.146597102284,5.94999980927,-107.367134094,-164.451324463,-12.432006836,1.2360916136999993,8.87792921062,9.532618383669893,0.13254928590000148,-4.47366380692,-1.073671340899999
2018-07-18 20:00:34.600,0.0963708569251,0.135538502189,-0.967631358173,0.144799605012,0.0610364563763,0.146597102284,-1.46119085,0.0196133,8.2964259,0.0,-16.1747055054,-9.29528427124,-4.30387115479,0.144799605012,0.0610364563763,0.146597102284,5.94999980927,-107.367134094,-164.451324463,-12.432006836,1.2360916136999993,8.87792921062,9.558866361879893,0.13135719299999948,-4.48280572891,-1.073671340899999
2018-07-18 20:00:34.650,0.0963708569251,0.135538502189,-0.967631358173,0.144799605012,0.0610364563763,0.146597102284,-1.46119085,0.0196133,8.2964259,0.0,-16.1747055054,-9.29528427124,-4.30387115479,0.144799605012,0.0610364563763,0.146597102284,5.94999980927,-107.367134094,-164.451324463,-12.432006836,1.2360916136999993,8.87792921062,9.558866361879893,0.13135719299999948,-4.48280572891,-1.073671340899999
2018-07-18 20:00:34.700,0.0963708569251,0.135538502189,-0.967631358173,0.144799605012,0.0610364563763,0.146597102284,-1.46119085,0.0196133,8.2964259,0.0,-16.1192646027,-9.72974586487,-4.55175256729,0.144799605012,0.0610364563763,0.146597102284,6.36999988556,-113.549423218,-163.505126953,-12.432006836,2.186091422999999,9.577929258300001,9.729742864869895,0.1192646026999995,-4.55175256729,-1.1354942321999992
2018-07-18 20:00:34.750,0.111510415486,0.0962706883994,-0.966915613172,0.184308096766,-0.00266486406326,0.0676284506917,-1.4513842,0.40207265,8.8652116,0.0,-16.1192646027,-9.72974586487,-4.55175256729,0.144799605012,0.0610364563763,0.146597102284,6.7999997139,-123.297119141,-162.536651611,-9.772605896000002,4.197479247999999,5.100157737730001,9.818339208859895,0.11965179439999929,-4.57876300812,-1.2329711914000008
2018-07-18 20:00:34.800,0.111510415486,0.0962706883994,-0.966915613172,0.184308096766,-0.00266486406326,0.0676284506917,-1.4513842,0.40207265,8.8652116,0.0,-16.1192646027,-9.72974586487,-4.55175256729,0.144799605012,0.0610364563763,0.146597102284,6.7999997139,-123.297119141,-162.536651611,-9.772605896000002,4.197479247999999,5.100157737730001,9.910976270939894,0.12295722960000077,-4.59914922714,-1.2329711914000008
2018-07-18 20:00:34.850,0.111510415486,0.0962706883994,-0.966915613172,0.184308096766,-0.00266486406326,0.0676284506917,-1.4513842,0.40207265,8.8652116,0.0,-16.1192646027,-9.72974586487,-4.55175256729,0.144799605012,0.0610364563763,0.146597102284,6.7999997139,-123.297119141,-162.536651611,-9.772605896000002,4.197479247999999,5.100157737730001,9.936370710629895,0.12664794919999878,-4.59776639938,-1.2329711914000008
2018-07-18 20:00:34.900,0.111510415486,0.0962706883994,-0.966915613172,0.184308096766,-0.00266486406326,0.0676284506917,-1.4513842,0.40207265,8.8652116,0.0,-16.1192646027,-9.72974586487,-4.55175256729,0.144799605012,0.0610364563763,0.146597102284,7.23999977112,-134.857559204,-161.557037354,-9.772605896000002,5.157479286189998,5.710157871250001,10.063919882099894,0.1367473602000011,-4.59120988846,-1.3485755919999995
2018-07-18 20:00:34.950,0.111510415486,0.0962706883994,-0.966915613172,0.184308096766,-0.00266486406326,0.0676284506917,-1.4513842,0.40207265,8.8652116,0.0,-16.15284729,-10.1144342422,-4.55656480789,0.184308096766,-0.00266486406326,0.0676284506917,7.23999977112,-134.857559204,-161.557037354,-9.772605896000002,5.157479286189998,5.710157871250001,10.063919882099894,0.1367473602000011,-4.59120988846,-1.3485755919999995
2018-07-18 20:00:35.000,0.111510415486,0.0962706883994,-0.966915613172,0.184308096766,-0.00266486406326,0.0676284506917,-1.4513842,0.40207265,8.8652116,0.0,-16.15284729,-10.1144342422,-4.55656480789,0.184308096766,-0.00266486406326,0.0676284506917,7.66999959946,-145.757675171,-160.577438354,-9.772605896000002,6.097478866569999,6.280157804490001,10.212073187099893,0.16722488399999946,-4.51620817184,-1.4575767516999996
2018-07-18 20:00:35.050,0.111510415486,0.0962706883994,-0.966915613172,0.184308096766,-0.00266486406326,0.0676284506917,-1.4513842,0.40207265,8.8652116,0.0,-16.15284729,-10.1144342422,-4.55656480789,0.184308096766,-0.00266486406326,0.0676284506917,8.10999965668,-162.446411133,-159.564437866,-9.772605896000002,7.027479171749999,6.82015776634,10.285721639899894,0.19367980959999898,-4.44302129745,-1.624464034999999
2018-07-18 20:00:35.100,0.110505599896,0.0702525950167,-0.967972451398,0.179064929485,-0.0512600839138,0.020480658859,-1.5298374,-0.02941995,10.73828175,0.0,-16.15284729,-10.1144342422,-4.55656480789,0.184308096766,-0.00266486406326,0.0676284506917,8.10999965668,-162.446411133,-159.564437866,-8.694625853999995,6.324470996900001,3.7557771205899995,10.341499189599894,0.20275688170000095,-4.41431522369,-1.624464034999999
2018-07-18 20:00:35.150,0.110505599896,0.0702525950167,-0.967972451398,0.179064929485,-0.0512600839138,0.020480658859,-1.5298374,-0.02941995,10.73828175,0.0,-16.208612442,-10.3646364212,-4.40088653564,0.179064929485,-0.0512600839138,0.020480658859,8.10999965668,-162.446411133,-159.564437866,-8.694625853999995,6.324470996900001,3.7557771205899995,10.341499189599894,0.20275688170000095,-4.41431522369,-1.624464034999999
2018-07-18 20:00:35.200,0.110505599896,0.0702525950167,-0.967972451398,0.179064929485,-0.0512600839138,0.020480658859,-1.5298374,-0.02941995,10.73828175,0.0,-16.208612442,-10.3646364212,-4.40088653564,0.179064929485,-0.0512600839138,0.020480658859,8.51999950409,-189.431381226,-158.551437378,-8.694625853999995,7.294470787090001,4.1757771968899995,10.409396032599894,0.2215270995999994,-4.39039182663,-1.8943138122999983
2018-07-18 20:00:35.250,0.110505599896,0.0702525950167,-0.967972451398,0.179064929485,-0.0512600839138,0.020480658859,-1.5298374,-0.02941995,10.73828175,0.0,-16.208612442,-10.3646364212,-4.40088653564,0.179064929485,-0.0512600839138,0.020480658859,8.93999958038,-187.724121094,-157.53843689,-8.694625853999995,8.104470729870002,4.505777120593,10.474785665799894,0.22147178650000043,-4.40216970444,-1.8772411345999984
2018-07-18 20:00:35.300,0.110505599896,0.0702525950167,-0.967972451398,0.179064929485,-0.0512600839138,0.020480658859,-1.5298374,-0.02941995,10.73828175,0.0,-16.208612442,-10.3646364212,-4.40088653564,0.179064929485,-0.0512600839138,0.020480658859,8.93999958038,-187.724121094,-157.53843689,-8.694625853999995,8.104470729870002,4.505777120593,10.504641393899893,0.2281627654999987,-4.38496255875,-1.8772411345999984
2018-07-18 20:00:35.350,0.110505599896,0.0702525950167,-0.967972451398,0.179064929485,-0.0512600839138,0.020480658859,-1.5298374,-0.02941995,10.73828175,0.0,-16.2440509796,-10.5910816193,-4.32080411911,0.179064929485,-0.0512600839138,0.020480658859,9.3499994278,-202.120788574,-156.503158569,-8.694625853999995,8.92447090153,4.835777133705999,10.568966726599895,0.24061775210000036,-4.34284639359,-2.0212078094
2018-07-18 20:00:35.400,0.110505599896,0.0702525950167,-0.967972451398,0.179064929485,-0.0512600839138,0.020480658859,-1.5298374,-0.02941995,10.73828175,0.0,-16.2440509796,-10.5910816193,-4.32080411911,0.179064929485,-0.0512600839138,0.020480658859,9.3499994278,-202.120788574,-156.503158569,-8.694625853999995,8.92447090153,4.835777133705999,10.606150488199894,0.24901580810000112,-4.29653835297,-2.0212078094
2018-07-18 20:00:35.450,0.110505599896,0.0702525950167,-0.967972451398,0.179064929485,-0.0512600839138,0.020480658859,-1.5298374,-0.02941995,10.73828175,0.0,-16.2440509796,-10.5910816193,-4.32080411911,0.179064929485,-0.0512600839138,0.020480658859,9.3499994278,-202.120788574,-156.503158569,-8.694625853999995,8.92447090153,4.835777133705999,10.606150488199894,0.24901580810000112,-4.29653835297,-2.0212078094
2018-07-18 20:00:35.500,0.0974375508777,0.0484751776701,-0.97094383426,0.0899728164077,-0.113111659884,-0.0538851842284,-1.55925735,0.00980665,10.64021525,0.0,-16.2440509796,-10.5910816193,-4.32080411911,0.179064929485,-0.0512600839138,0.020480658859,9.75,-213.914108276,-155.467895508,-8.694625853999995,9.70447063451,5.1457771360905,10.705146650599893,0.2762794494999987,-4.15288162231,-2.1391410827999984
2018-07-18 20:00:35.550,0.0974375508777,0.0484751776701,-0.97094383426,0.0899728164077,-0.113111659884,-0.0538851842284,-1.55925735,0.00980665,10.64021525,0.0,-16.2440509796,-10.5910816193,-4.32080411911,0.179064929485,-0.0512600839138,0.020480658859,10.1399993896,-226.425170898,-154.410369873,-8.566337585,8.46507143975,3.283882319929,10.746962408299893,0.30897521969999886,-4.00915813446,-2.264251709
2018-07-18 20:00:35.600,0.0974375508777,0.0484751776701,-0.97094383426,0.0899728164077,-0.113111659884,-0.0538851842284,-1.55925735,0.00980665,10.64021525,0.0,-16.2440509796,-10.5910816193,-4.32080411911,0.179064929485,-0.0512600839138,0.020480658859,10.1399993896,-226.425170898,-154.410369873,-8.566337585,8.46507143975,3.283882319929,10.799500326399894,0.3298969268999983,-3.88294696808,-2.264251709
2018-07-18 20:00:35.650,0.0974375508777,0.0484751776701,-0.97094383426,0.0899728164077,-0.113111659884,-0.0538851842284,-1.55925735,0.00980665,10.64021525,0.0,-16.3371009827,-10.8063097,-3.83954262733,0.0899728164077,-0.113111659884,-0.0538851842284,10.5100002289,-233.108703613,-153.363967896,-8.566337585,9.09507131577,3.4738823175449998,10.799500326399894,0.3298969268999983,-3.88294696808,-2.264251709
2018-07-18 20:00:35.700,0.0974375508777,0.0484751776701,-0.97094383426,0.0899728164077,-0.113111659884,-0.0538851842284,-1.55925735,0.00980665,10.64021525,0.0,-16.3371009827,-10.8063097,-3.83954262733,0.0899728164077,-0.113111659884,-0.0538851842284,10.5100002289,-233.108703613,-153.363967896,-8.566337585,9.09507131577,3.4738823175449998,10.834029058699894,0.35801696780000114,-3.70594644547,-2.3310871123999988
2018-07-18 20:00:35.750,0.0974375508777,0.0484751776701,-0.97094383426,0.0899728164077,-0.113111659884,-0.0538851842284,-1.55925735,0.00980665,10.64021525,0.0,-16.3371009827,-10.8063097,-3.83954262733,0.0899728164077,-0.113111659884,-0.0538851842284,10.8599996567,-241.159439087,-152.295318604,-8.566337585,9.62507128716,3.61388230324,10.864238599999894,0.37489128109999825,-3.57523298264,-2.4115943908999995
2018-07-18 20:00:35.800,0.0974375508777,0.0484751776701,-0.97094383426,0.0899728164077,-0.113111659884,-0.0538851842284,-1.55925735,0.00980665,10.64021525,0.0,-16.3371009827,-10.8063097,-3.83954262733,0.0899728164077,-0.113111659884,-0.0538851842284,10.8599996567,-241.159439087,-152.295318604,-8.566337585,9.62507128716,3.61388230324,10.870061735399894,0.39677810670000113,-3.43660926819,-2.4115943908999995
2018-07-18 20:00:35.850,0.0974375508777,0.0484751776701,-0.97094383426,0.0899728164077,-0.113111659884,-0.0538851842284,-1.55925735,0.00980665,10.64021525,0.0,-16.405134201,-10.8870134354,-3.34853386879,0.0899728164077,-0.113111659884,-0.0538851842284,11.1799993515,-243.430145264,-151.226654053,-8.566337585,10.09507131577,3.603882312777,10.887010435399894,0.4051342009999992,-3.34853386879,-2.4343013762999988
2018-07-18 20:00:35.900,0.0785916104509,0.0201075095121,-0.974704466213,0.0818703770638,-0.13241353631,0.0207717679441,-1.4709975,-0.06864655,11.6895268,0.0,-16.405134201,-10.8870134354,-3.34853386879,0.0899728164077,-0.113111659884,-0.0538851842284,11.1799993515,-243.430145264,-151.226654053,-8.566337585,10.09507131577,3.603882312777,10.888323644899893,0.42899131769999954,-3.15878534317,-2.4343013762999988
2018-07-18 20:00:35.950,0.0785916104509,0.0201075095121,-0.974704466213,0.0818703770638,-0.13241353631,0.0207717679441,-1.4709975,-0.06864655,11.6895268,0.0,-16.405134201,-10.8870134354,-3.34853386879,0.0899728164077,-0.113111659884,-0.0538851842284,11.1799993515,-243.430145264,-151.226654053,-8.566337585,10.09507131577,3.603882312777,10.888323644899893,0.42899131769999954,-3.15878534317,-2.4343013762999988
2018-07-18 20:00:36.000,0.0785916104509,0.0201075095121,-0.974704466213,0.0818703770638,-0.13241353631,0.0207717679441,-1.4709975,-0.06864655,11.6895268,0.0,-16.405134201,-10.8870134354,-3.34853386879,0.0899728164077,-0.113111659884,-0.0538851842284,11.4799995422,-256.155212402,-150.157989502,-8.909576415999993,7.75874328614,0.8152667582040001,10.888323644899893,0.42899131769999954,-3.15878534317,-2.4343013762999988
2018-07-18 20:00:36.050,0.0785916104509,0.0201075095121,-0.974704466213,0.0818703770638,-0.13241353631,0.0207717679441,-1.4709975,-0.06864655,11.6895268,0.0,-16.405134201,-10.8870134354,-3.34853386879,0.0899728164077,-0.113111659884,-0.0538851842284,11.75,-265.394592285,-149.100463867,-8.909576415999993,8.1587432623,0.725266754628,10.874940733199894,0.4723663330000001,-2.67920947075,-2.6539459229
2018-07-18 20:00:36.100,0.0785916104509,0.0201075095121,-0.974704466213,0.0818703770638,-0.13241353631,0.0207717679441,-1.4709975,-0.06864655,11.6895268,0.0,-16.405134201,-10.8870134354,-3.34853386879,0.0899728164077,-0.113111659884,-0.0538851842284,11.75,-265.394592285,-149.100463867,-8.909576415999993,8.1587432623,0.725266754628,10.874940733199894,0.4723663330000001,-2.67920947075,-2.6539459229
2018-07-18 20:00:36.150,0.0785916104509,0.0201075095121,-0.974704466213,0.0818703770638,-0.13241353631,0.0207717679441,-1.4709975,-0.06864655,11.6895268,0.0,-16.4744033813,-10.8697366714,-2.52573513985,0.0818703770638,-0.13241353631,0.0207717679441,11.9899997711,-262.94519043,-148.031799316,-8.909576415999993,8.468743264679,0.635266751051,10.848299841199895,0.4796485900999983,-2.41106343269,-2.6294517516999996
2018-07-18 20:00:36.200,0.0785916104509,0.0201075095121,-0.974704466213,0.0818703770638,-0.13241353631,0.0207717679441,-1.4709975,-0.06864655,11.6895268,0.0,-16.4744033813,-10.8697366714,-2.52573513985,0.0818703770638,-0.13241353631,0.0207717679441,11.9899997711,-262.94519043,-148.031799316,-8.909576415999993,8.468743264679,0.635266751051,10.841062406799894,0.4804821013999998,-2.3616194725,-2.6294517516999996
2018-07-18 20:00:36.250,0.0785916104509,0.0201075095121,-0.974704466213,0.0818703770638,-0.13241353631,0.0207717679441,-1.4709975,-0.06864655,11.6895268,0.0,-16.4744033813,-10.8697366714,-2.52573513985,0.0818703770638,-0.13241353631,0.0207717679441,11.9899997711,-262.94519043,-148.031799316,-8.909576415999993,8.468743264679,0.635266751051,10.839789251599894,0.47337722780000036,-2.26190257072,-2.6294517516999996
2018-07-18 20:00:36.300,0.0569793586555,0.00379548002264,-0.974629618651,-0.0661617070436,-0.106709443033,0.0327750407159,-1.3533177,0.36284605,11.99353295,0.0,-16.4744033813,-10.8697366714,-2.52573513985,0.0818703770638,-0.13241353631,0.0207717679441,12.1999998093,-261.513519287,-146.996536255,-8.909576415999993,8.698743283753,0.50526675582,10.814377645799894,0.4661350249999998,-2.10823082924,-2.6151351928999986
2018-07-18 20:00:36.350,0.0569793586555,0.00379548002264,-0.974629618651,-0.0661617070436,-0.106709443033,0.0327750407159,-1.3533177,0.36284605,11.99353295,0.0,-16.447719574,-10.7987718582,-1.97549152374,-0.0661617070436,-0.106709443033,0.0327750407159,12.3999996185,-254.874237061,-145.950134277,-7.904922485,5.9915790855890005,-0.995557069778,10.798707823099894,0.45563125609999844,-2.01686048508,-2.5487422942999984
2018-07-18 20:00:36.400,0.0569793586555,0.00379548002264,-0.974629618651,-0.0661617070436,-0.106709443033,0.0327750407159,-1.3533177,0.36284605,11.99353295,0.0,-16.447719574,-10.7987718582,-1.97549152374,-0.0661617070436,-0.106709443033,0.0327750407159,12.3999996185,-254.874237061,-145.950134277,-7.904922485,5.9915790855890005,-0.995557069778,10.776180128399893,0.42863082890000115,-1.80926167965,-2.5487422942999984
2018-07-18 20:00:36.450,0.0569793586555,0.00379548002264,-0.974629618651,-0.0661617070436,-0.106709443033,0.0327750407159,-1.3533177,0.36284605,11.99353295,0.0,-16.447719574,-10.7987718582,-1.97549152374,-0.0661617070436,-0.106709443033,0.0327750407159,12.5599994659,-266.655334473,-144.903747559,-7.904922485,6.171579092741,-1.0455570667978,10.761417249899894,0.40561866759999887,-1.65237438679,-2.6665534973000007
2018-07-18 20:00:36.500,0.0569793586555,0.00379548002264,-0.974629618651,-0.0661617070436,-0.106709443033,0.0327750407159,-1.3533177,0.36284605,11.99353295,0.0,-16.447719574,-10.7987718582,-1.97549152374,-0.0661617070436,-0.106709443033,0.0327750407159,12.5599994659,-266.655334473,-144.903747559,-7.904922485,6.171579092741,-1.0455570667978,10.753336767499894,0.38415908809999877,-1.55331623554,-2.6665534973000007
2018-07-18 20:00:36.550,0.0569793586555,0.00379548002264,-0.974629618651,-0.0661617070436,-0.106709443033,0.0327750407159,-1.3533177,0.36284605,11.99353295,0.0,-16.447719574,-10.7987718582,-1.97549152374,-0.0661617070436,-0.106709443033,0.0327750407159,12.7100000381,-258.231170654,-143.857345581,-7.904922485,6.171579092741,-1.0455570667978,10.729583601299893,0.3653831481999994,-1.45424580574,-2.5823116301999995
2018-07-18 20:00:36.600,0.0414843512986,0.00768604518972,-0.975208749248,-0.00760418968275,-0.0686805471778,-0.0154473064467,-1.40235095,-0.1372931,12.24850585,0.0,-16.3382816315,-10.7155838013,-1.39104986191,-0.0661617070436,-0.106709443033,0.0327750407159,12.7100000381,-258.231170654,-143.857345581,-7.904922485,6.271579086781,-1.0255570691073999,10.712768415699895,0.32413482669999993,-1.36300897598,-2.5823116301999995
2018-07-18 20:00:36.650,0.0414843512986,0.00768604518972,-0.975208749248,-0.00760418968275,-0.0686805471778,-0.0154473064467,-1.40235095,-0.1372931,12.24850585,0.0,-16.3382816315,-10.7155838013,-1.39104986191,-0.0661617070436,-0.106709443033,0.0327750407159,12.7100000381,-258.231170654,-143.857345581,-7.877410889000004,4.632958710191,-0.2043468188494,10.709508756899893,0.3091030120999996,-1.32597148418,-2.5823116301999995
2018-07-18 20:00:36.700,0.0414843512986,0.00768604518972,-0.975208749248,-0.00760418968275,-0.0686805471778,-0.0154473064467,-1.40235095,-0.1372931,12.24850585,0.0,-16.3382816315,-10.7155838013,-1.39104986191,-0.0661617070436,-0.106709443033,0.0327750407159,12.8400001526,-248.586090088,-142.82208252,-7.877410889000004,4.652958706019,-0.17434681952,10.666360716099893,0.2570114136000008,-1.1804972887,-2.4858608245999996
2018-07-18 20:00:36.750,0.0414843512986,0.00768604518972,-0.975208749248,-0.00760418968275,-0.0686805471778,-0.0154473064467,-1.40235095,-0.1372931,12.24850585,0.0,-16.3382816315,-10.7155838013,-1.39104986191,-0.0661617070436,-0.106709443033,0.0327750407159,12.8400001526,-248.586090088,-142.82208252,-7.877410889000004,4.652958706019,-0.17434681952,10.666360716099893,0.2570114136000008,-1.1804972887,-2.4858608245999996
2018-07-18 20:00:36.800,0.0414843512986,0.00768604518972,-0.975208749248,-0.00760418968275,-0.0686805471778,-0.0154473064467,-1.40235095,-0.1372931,12.24850585,0.0,-16.1861019135,-10.6401958466,-1.09189379215,-0.00760418968275,-0.0686805471778,-0.0154473064467,12.9499998093,-236.431884766,-141.786819458,-7.877410889000004,4.602958708999,-0.18434681929648,10.626106123199893,0.17033958440000063,-1.06479871273,-2.3643188477000017
2018-07-18 20:00:36.850,0.0414843512986,0.00768604518972,-0.975208749248,-0.00760418968275,-0.0686805471778,-0.0154473064467,-1.40235095,-0.1372931,12.24850585,0.0,-16.1861019135,-10.6401958466,-1.09189379215,-0.00760418968275,-0.0686805471778,-0.0154473064467,12.9499998093,-236.431884766,-141.786819458,-7.877410889000004,4.602958708999,-0.18434681929648,10.626106123199893,0.17033958440000063,-1.06479871273,-2.3643188477000017
2018-07-18 20:00:36.900,0.0414843512986,0.00768604518972,-0.975208749248,-0.00760418968275,-0.0686805471778,-0.0154473064467,-1.40235095,-0.1372931,12.24850585,0.0,-16.1861019135,-10.6401958466,-1.09189379215,-0.00760418968275,-0.0686805471778,-0.0154473064467,13.0499992371,-226.03817749,-140.74041748,-7.877410889000004,4.5229586958859995,-0.17434681952,10.581581930399894,0.08569908140000138,-0.95582485199,-2.2603816986
2018-07-18 20:00:36.950,0.0328839697564,-0.000162331838461,-0.976718150694,0.053730469197,-0.0484297946095,-0.0341391786933,-1.28467115,0.08825985,10.97364135,0.0,-16.1861019135,-10.6401958466,-1.09189379215,-0.00760418968275,-0.0686805471778,-0.0154473064467,13.0499992371,-226.03817749,-140.74041748,-7.877410889000004,4.5229586958859995,-0.17434681952,10.581581930399894,0.08569908140000138,-0.95582485199,-2.2603816986
2018-07-18 20:00:37.000,0.0328839697564,-0.000162331838461,-0.976718150694,0.053730469197,-0.0484297946095,-0.0341391786933,-1.28467115,0.08825985,10.97364135,0.0,-16.1861019135,-10.6401958466,-1.09189379215,-0.00760418968275,-0.0686805471778,-0.0154473064467,13.1300001144,-216.981124878,-139.716278076,-8.482116699000002,3.32907834649,-0.7687145024542,10.504169325099895,0.008543014499998947,-0.846398174763,-2.1698112487999985
2018-07-18 20:00:37.050,0.0328839697564,-0.000162331838461,-0.976718150694,0.053730469197,-0.0484297946095,-0.0341391786933,-1.28467115,0.08825985,10.97364135,0.0,-15.9903287888,-10.4907121658,-0.829199612141,0.053730469197,-0.0484297946095,-0.0341391786933,13.1300001144,-216.981124878,-139.716278076,-8.482116699000002,3.32907834649,-0.7687145024542,10.504169325099895,0.008543014499998947,-0.846398174763,-2.1698112487999985
2018-07-18 20:00:37.100,0.0328839697564,-0.000162331838461,-0.976718150694,0.053730469197,-0.0484297946095,-0.0341391786933,-1.28467115,0.08825985,10.97364135,0.0,-15.9903287888,-10.4907121658,-0.829199612141,0.053730469197,-0.0484297946095,-0.0341391786933,13.2100000381,-205.445098877,-138.692153931,-8.482116699000002,3.209078341722,-0.8787144981329,10.463589529299893,-0.0641899108999997,-0.815997362137,-2.0544509887999993
2018-07-18 20:00:37.150,0.0328839697564,-0.000162331838461,-0.976718150694,0.053730469197,-0.0484297946095,-0.0341391786933,-1.28467115,0.08825985,10.97364135,0.0,-15.9903287888,-10.4907121658,-0.829199612141,0.053730469197,-0.0484297946095,-0.0341391786933,13.2100000381,-205.445098877,-138.692153931,-8.482116699000002,3.209078341722,-0.8787144981329,10.450467924399893,-0.08280658720000034,-0.806209862232,-2.0544509887999993
2018-07-18 20:00:37.200,0.0328839697564,-0.000162331838461,-0.976718150694,0.053730469197,-0.0484297946095,-0.0341391786933,-1.28467115,0.08825985,10.97364135,0.0,-15.9903287888,-10.4907121658,-0.829199612141,0.053730469197,-0.0484297946095,-0.0341391786933,13.2899999619,-189.53036499,-137.679153442,-8.482116699000002,3.1190783381459997,-0.888714499772,10.374601225199894,-0.14775943759999954,-0.753146469593,-1.8953037262000016
2018-07-18 20:00:37.250,0.0328839697564,-0.000162331838461,-0.976718150694,0.053730469197,-0.0484297946095,-0.0341391786933,-1.28467115,0.08825985,10.97364135,0.0,-15.9903287888,-10.4907121658,-0.829199612141,0.053730469197,-0.0484297946095,-0.0341391786933,13.3599996567,-184.033782959,-136.666152954,-8.482116699000002,2.9990783333769997,-1.0687144994739999,10.312134603799894,-0.2127532959000007,-0.708562791348,-1.8403377532999983
2018-07-18 20:00:37.300,0.0328839697564,-0.000162331838461,-0.976718150694,0.053730469197,-0.0484297946095,-0.0341391786933,-1.28467115,0.08825985,10.97364135,0.0,-15.7697811127,-10.2974071503,-0.704308450222,0.053730469197,-0.0484297946095,-0.0341391786933,13.3599996567,-184.033782959,-136.666152954,-8.482116699000002,2.9990783333769997,-1.0687144994739999,10.312134603799894,-0.2127532959000007,-0.708562791348,-1.8403377532999983
2018-07-18 20:00:37.350,0.0328839697564,-0.000162331838461,-0.976718150694,0.053730469197,-0.0484297946095,-0.0341391786933,-1.28467115,0.08825985,10.97364135,0.0,-15.7697811127,-10.2974071503,-0.704308450222,0.053730469197,-0.0484297946095,-0.0341391786933,13.4299993515,-169.881256104,-135.664276123,-8.482116699000002,2.92907834053,-1.098714500666,10.241820196399894,-0.3008966445999999,-0.697604835033,-1.6988124846999995
2018-07-18 20:00:37.400,0.0328839697564,-0.000162331838461,-0.976718150694,0.053730469197,-0.0484297946095,-0.0341391786933,-1.28467115,0.08825985,10.97364135,0.0,-15.7697811127,-10.2974071503,-0.704308450222,0.053730469197,-0.0484297946095,-0.0341391786933,13.4299993515,-169.881256104,-135.664276123,-8.482116699000002,2.92907834053,-1.098714500666,10.211782316499894,-0.3347444534000008,-0.698451340199,-1.6988124846999995
2018-07-18 20:00:37.450,0.0328839697564,-0.000162331838461,-0.976718150694,0.053730469197,-0.0484297946095,-0.0341391786933,-1.28467115,0.08825985,10.97364135,0.0,-15.7697811127,-10.2974071503,-0.704308450222,0.053730469197,-0.0484297946095,-0.0341391786933,13.5,-156.60723877,-134.673538208,-8.482116699000002,2.879078388214,-1.198714494706,10.166377882299894,-0.38176441190000077,-0.688205838203,-1.5660724640000012
2018-07-18 20:00:37.500,0.028790648174,-0.0181521539038,-0.978374596034,0.0214884839952,-0.0420151427388,0.000255375169218,-1.1179581,0.65704555,9.44380395,0.0,-15.7697811127,-10.2974071503,-0.704308450222,0.053730469197,-0.0484297946095,-0.0341391786933,13.5,-156.60723877,-134.673538208,-8.482116699000002,2.879078388214,-1.198714494706,10.166377882299894,-0.38176441190000077,-0.688205838203,-1.5660724640000012
2018-07-18 20:00:37.550,0.028790648174,-0.0181521539038,-0.978374596034,0.0214884839952,-0.0420151427388,0.000255375169218,-1.1179581,0.65704555,9.44380395,0.0,-15.5438508987,-10.0854301453,-0.646902382374,0.0214884839952,-0.0420151427388,0.000255375169218,13.5799999237,-141.381256104,-133.682800293,-9.375305175999998,1.9145575761749998,-3.232462167737,10.101959089499895,-0.44197654719999946,-0.657145678997,-1.4138126373000013
2018-07-18 20:00:37.600,0.028790648174,-0.0181521539038,-0.978374596034,0.0214884839952,-0.0420151427388,0.000255375169218,-1.1179581,0.65704555,9.44380395,0.0,-15.5438508987,-10.0854301453,-0.646902382374,0.0214884839952,-0.0420151427388,0.000255375169218,13.5799999237,-141.381256104,-133.682800293,-9.375305175999998,1.9145575761749998,-3.232462167737,10.052832464499893,-0.48279666900000073,-0.624764084816,-1.4138126373000013
2018-07-18 20:00:37.650,0.028790648174,-0.0181521539038,-0.978374596034,0.0214884839952,-0.0420151427388,0.000255375169218,-1.1179581,0.65704555,9.44380395,0.0,-15.5438508987,-10.0854301453,-0.646902382374,0.0214884839952,-0.0420151427388,0.000255375169218,13.6499996185,-132.369415283,-132.703201294,-9.375305175999998,1.8345575928639999,-3.4024621844259997,10.052832464499893,-0.48279666900000073,-0.624764084816,-1.4138126373000013
2018-07-18 20:00:37.700,0.028790648174,-0.0181521539038,-0.978374596034,0.0214884839952,-0.0420151427388,0.000255375169218,-1.1179581,0.65704555,9.44380395,0.0,-15.5438508987,-10.0854301453,-0.646902382374,0.0214884839952,-0.0420151427388,0.000255375169218,13.6499996185,-132.369415283,-132.703201294,-9.375305175999998,1.8345575928639999,-3.4024621844259997,9.968856672549894,-0.5407409667999996,-0.562521874905,-1.3236942290999991
2018-07-18 20:00:37.750,0.028790648174,-0.0181521539038,-0.978374596034,0.0214884839952,-0.0420151427388,0.000255375169218,-1.1179581,0.65704555,9.44380395,0.0,-15.5438508987,-10.0854301453,-0.646902382374,0.0214884839952,-0.0420151427388,0.000255375169218,13.7199993134,-116.040611267,-131.734725952,-9.375305175999998,1.7445576190899998,-3.6024621725049997,9.968856672549894,-0.5407409667999996,-0.562521874905,-1.3236942290999991
2018-07-18 20:00:37.800,0.028790648174,-0.0181521539038,-0.978374596034,0.0214884839952,-0.0420151427388,0.000255375169218,-1.1179581,0.65704555,9.44380395,0.0,-15.408159256,-9.91128253937,-0.525820493698,0.0214884839952,-0.0420151427388,0.000255375169218,13.7199993134,-116.040611267,-131.734725952,-9.375305175999998,1.7445576190899998,-3.6024621725049997,9.903730253479894,-0.6060686110999995,-0.518421649933,-1.1604061126999987
2018-07-18 20:00:37.850,0.028790648174,-0.0181521539038,-0.978374596034,0.0214884839952,-0.0420151427388,0.000255375169218,-1.1179581,0.65704555,9.44380395,0.0,-15.408159256,-9.91128253937,-0.525820493698,0.0214884839952,-0.0420151427388,0.000255375169218,13.7199993134,-116.040611267,-131.734725952,-9.375305175999998,1.7445576190899998,-3.6024621725049997,9.903730253479894,-0.6060686110999995,-0.518421649933,-1.1604061126999987
2018-07-18 20:00:37.900,0.028790648174,-0.0181521539038,-0.978374596034,0.0214884839952,-0.0420151427388,0.000255375169218,-1.1179581,0.65704555,9.44380395,0.0,-15.408159256,-9.91128253937,-0.525820493698,0.0214884839952,-0.0420151427388,0.000255375169218,13.779999733,-103.047180176,-130.76625061,-9.375305175999998,1.5745575427999998,-3.662462174889,9.877277235289894,-0.6785459518000003,-0.469045490026,-1.030471801800001
2018-07-18 20:00:37.950,0.028790648174,-0.0181521539038,-0.978374596034,0.0214884839952,-0.0420151427388,0.000255375169218,-1.1179581,0.65704555,9.44380395,0.0,-15.408159256,-9.91128253937,-0.525820493698,0.0214884839952,-0.0420151427388,0.000255375169218,13.8299999237,-92.3658370972,-129.808898926,-9.375305175999998,1.4945576190899998,-3.642462193963,9.877277235289894,-0.6785459518000003,-0.469045490026,-1.030471801800001
2018-07-18 20:00:38.000,0.0173444251485,0.00639061636692,-0.979649992433,-0.205603986979,0.00406767241657,-0.0210479367524,-0.73549875,0.36284605,9.83606995,0.0,-15.408159256,-9.91128253937,-0.525820493698,0.0214884839952,-0.0420151427388,0.000255375169218,13.8299999237,-92.3658370972,-129.808898926,-9.944259643999999,0.7839047908800001,-0.6096039414409999,9.839173177979895,-0.7468519210999993,-0.470401912928,-0.9236583709999984
2018-07-18 20:00:38.050,0.0173444251485,0.00639061636692,-0.979649992433,-0.205603986979,0.00406767241657,-0.0210479367524,-0.73549875,0.36284605,9.83606995,0.0,-15.408159256,-9.91128253937,-0.525820493698,0.0214884839952,-0.0420151427388,0.000255375169218,13.8299999237,-92.3658370972,-129.808898926,-9.944259643999999,0.7839047908800001,-0.6096039414409999,9.839173177979895,-0.7468519210999993,-0.470401912928,-0.9236583709999984
2018-07-18 20:00:38.100,0.0173444251485,0.00639061636692,-0.979649992433,-0.205603986979,0.00406767241657,-0.0210479367524,-0.73549875,0.36284605,9.83606995,0.0,-15.2119693756,-9.83077144623,-0.477259486914,-0.205603986979,0.00406767241657,-0.0210479367524,13.8899993896,-82.9675674438,-128.884963989,-9.944259643999999,0.6339048147200002,-0.5196039080620001,9.819952825809894,-0.8140420913999993,-0.449512481689,-0.8296756744000007
2018-07-18 20:00:38.150,0.0173444251485,0.00639061636692,-0.979649992433,-0.205603986979,0.00406767241657,-0.0210479367524,-0.73549875,0.36284605,9.83606995,0.0,-15.2119693756,-9.83077144623,-0.477259486914,-0.205603986979,0.00406767241657,-0.0210479367524,13.9399995804,-72.5578308105,-127.938751221,-9.944259643999999,0.5839047432,-0.429603934288,9.819952825809894,-0.8140420913999993,-0.449512481689,-0.8296756744000007
2018-07-18 20:00:38.200,0.0173444251485,0.00639061636692,-0.979649992433,-0.205603986979,0.00406767241657,-0.0210479367524,-0.73549875,0.36284605,9.83606995,0.0,-15.2119693756,-9.83077144623,-0.477259486914,-0.205603986979,0.00406767241657,-0.0210479367524,13.9399995804,-72.5578308105,-127.938751221,-9.944259643999999,0.5839047432,-0.429603934288,9.826053480409893,-0.8643503188999997,-0.360200852156,-0.7255783081000011
2018-07-18 20:00:38.250,0.0173444251485,0.00639061636692,-0.979649992433,-0.205603986979,0.00406767241657,-0.0210479367524,-0.73549875,0.36284605,9.83606995,0.0,-15.2119693756,-9.83077144623,-0.477259486914,-0.205603986979,0.00406767241657,-0.0210479367524,13.9899997711,-80.4527282715,-126.981407166,-9.944259643999999,0.6339048147200002,-0.27960389852499995,9.821590284609893,-0.9093551636000008,-0.317950457335,-0.8045272827000005
2018-07-18 20:00:38.300,0.0173444251485,0.00639061636692,-0.979649992433,-0.205603986979,0.00406767241657,-0.0210479367524,-0.73549875,0.36284605,9.83606995,0.0,-15.0822401047,-9.8174943924,-0.314177811146,-0.205603986979,0.00406767241657,-0.0210479367524,13.9899997711,-80.4527282715,-126.981407166,-9.944259643999999,0.6339048147200002,-0.27960389852499995,9.806381086609894,-0.9292478560999999,-0.302185595036,-0.8045272827000005
2018-07-18 20:00:38.350,0.0173444251485,0.00639061636692,-0.979649992433,-0.205603986979,0.00406767241657,-0.0210479367524,-0.73549875,0.36284605,9.83606995,0.0,-15.0822401047,-9.8174943924,-0.314177811146,-0.205603986979,0.00406767241657,-0.0210479367524,14.029999733,-67.777633667,-126.02406311,-9.944259643999999,0.5939047336600001,-0.20960390567799997,9.806381086609894,-0.9292478560999999,-0.302185595036,-0.8045272827000005
2018-07-18 20:00:38.400,0.0168449169079,-0.00325287007267,-0.979857731059,0.129648789763,0.00367664173245,0.0246933996677,-0.4707192,-0.04903325,10.58137535,0.0,-15.0822401047,-9.8174943924,-0.314177811146,-0.205603986979,0.00406767241657,-0.0210479367524,14.029999733,-67.777633667,-126.02406311,-10.032554626000007,0.31754767895,-1.2796886563299998,9.780910352969894,-0.9674615860000007,-0.242767974734,-0.6777763366999991
