%time,field.orientation.x,field.orientation.y,field.orientation.z,field.angular_velocity.x,field.angular_velocity.y,field.angular_velocity.z,field.linear_acceleration.x,field.linear_acceleration.y,field.linear_acceleration.z,field.data,field.twist.linear.x,field.twist.linear.y,field.twist.linear.z,field.twist.angular.x,field.twist.angular.y,field.twist.angular.z,field.alt_error,field.aspd_error,field.xtrack_error,delta_yaw,delta_pitch,delta_roll,delta_x,delta_y,delta_z,delta_roll_airspeed
2018-07-18 20:30:30.300,-0.0657069915508,-0.0326272755072,-0.995107236449,0.765619397163,-0.160985976458,-0.161585092545,-0.6276256,0.392266,11.9052731,0.0,,,,,,,-0.649999976158,-1105.37915039,-38.442855835,175.12002563480002,-9.8946454525,40.36313533784,-1.93582463264,23.0822353363,2.56675696373,-11.053791046099999
2018-07-18 20:30:30.350,-0.0657069915508,-0.0326272755072,-0.995107236449,0.765619397163,-0.160985976458,-0.161585092545,-0.6276256,0.392266,11.9052731,0.0,,,,,,,-0.919999957085,-1091.2421875,-36.1643562317,175.12002563480002,-8.32464551926,40.34313488004,-1.94003510475,23.0265331268,2.58234190941,-10.9124221802
2018-07-18 20:30:30.400,-0.0657069915508,-0.0326272755072,-0.995107236449,0.765619397163,-0.160985976458,-0.161585092545,-0.6276256,0.392266,11.9052731,0.0,,,,,,,-0.919999957085,-1091.2421875,-36.1643562317,175.12002563480002,-8.294645547870001,40.27313518524,13.95323705673,22.769521713299998,2.703147888180002,-9.812286377
2018-07-18 20:30:30.450,-0.0657069915508,-0.0326272755072,-0.995107236449,0.765619397163,-0.160985976458,-0.161585092545,-0.6276256,0.392266,11.9052731,0.0,,,,,,,-1.20999991894,-1081.2286377,-161.33644104,38.1200256348,-6.864645600322,40.24313640594,13.81728816032,22.537004470799996,2.830494642260002,-9.812286377
2018-07-18 20:30:30.500,-0.0657069915508,-0.0326272755072,-0.995107236449,0.765619397163,-0.160985976458,-0.161585092545,-0.6276256,0.392266,11.9052731,0.0,-22.7695217133,2.04676294327,2.70314788818,0.765619397163,-0.160985976458,-0.161585092545,-1.20999991894,-1081.2286377,-161.33644104,38.1200256348,-6.834645599130001,40.20313549044,13.695234537120001,22.377767562899997,2.927746295930002,-9.812286377
2018-07-18 20:30:30.550,-0.0657069915508,-0.0326272755072,-0.995107236449,0.765619397163,-0.160985976458,-0.161585092545,-0.6276256,0.392266,11.9052731,0.0,-22.7695217133,2.04676294327,2.70314788818,0.765619397163,-0.160985976458,-0.161585092545,-1.50999999046,-977.592468262,-159.087905884,38.1200256348,-5.5046455860200005,40.193137168839996,13.6503841877,22.291545867899995,2.9656412601500017,-9.7759246826
2018-07-18 20:30:30.600,-0.0657069915508,-0.0326272755072,-0.995107236449,0.765619397163,-0.160985976458,-0.161585092545,-0.6276256,0.392266,11.9052731,0.0,-22.7695217133,2.04676294327,2.70314788818,0.765619397163,-0.160985976458,-0.161585092545,-1.50999999046,-977.592468262,-159.087905884,38.1200256348,-5.46464562416,40.13313579554,13.6503841877,22.291545867899995,2.9656412601500017,-9.7759246826
2018-07-18 20:30:30.650,-0.0966818426029,-0.160658132452,-0.97852367218,0.537237167358,-0.122934147716,-0.0639777332544,-1.36312435,-0.2941995,13.1212977,0.0,-21.7471466064,2.80267477036,3.168394804,0.537237167358,-0.122934147716,-0.0639777332544,-1.83999991417,-959.832763672,-156.91545105,34.38687896730001,-6.205333232880001,24.7639064789,13.19732522964,21.747146606399998,3.168394804000002,-9.598327636699999
2018-07-18 20:30:30.700,-0.0966818426029,-0.160658132452,-0.97852367218,0.537237167358,-0.122934147716,-0.0639777332544,-1.36312435,-0.2941995,13.1212977,0.0,-21.7471466064,2.80267477036,3.168394804,0.537237167358,-0.122934147716,-0.0639777332544,-1.83999991417,-959.832763672,-156.91545105,34.38687896730001,-6.195333242410001,24.713903427100004,12.94033813477,21.459455490099998,3.232501268390002,-9.598327636699999
2018-07-18 20:30:30.750,-0.0966818426029,-0.160658132452,-0.97852367218,0.537237167358,-0.122934147716,-0.0639777332544,-1.36312435,-0.2941995,13.1212977,0.0,-21.7471466064,2.80267477036,3.168394804,0.537237167358,-0.122934147716,-0.0639777332544,-2.18000006676,-944.337280273,-154.751449585,34.38687896730001,-4.925333023070001,24.66390419,12.84653377533,21.353546142599996,3.249886751170002,-9.4433727264
2018-07-18 20:30:30.800,-0.0966818426029,-0.160658132452,-0.97852367218,0.537237167358,-0.122934147716,-0.0639777332544,-1.36312435,-0.2941995,13.1212977,0.0,-21.7471466064,2.80267477036,3.168394804,0.537237167358,-0.122934147716,-0.0639777332544,-2.18000006676,-944.337280273,-154.751449585,34.38687896730001,-4.845333099360001,24.5439052581,12.40048718452,20.903482437099996,3.4150128364600016,-9.364107132000001
2018-07-18 20:30:30.850,-0.0966818426029,-0.160658132452,-0.97852367218,0.537237167358,-0.122934147716,-0.0639777332544,-1.36312435,-0.2941995,13.1212977,0.0,-21.7471466064,2.80267477036,3.168394804,0.537237167358,-0.122934147716,-0.0639777332544,-2.53999996185,-936.410705566,-152.655075073,34.38687896730001,-3.565333366390001,24.473905563300004,12.40048718452,20.903482437099996,3.4150128364600016,-9.364107132000001
2018-07-18 20:30:30.900,-0.0966818426029,-0.160658132452,-0.97852367218,0.537237167358,-0.122934147716,-0.0639777332544,-1.36312435,-0.2941995,13.1212977,0.0,-21.7471466064,2.80267477036,3.168394804,0.537237167358,-0.122934147716,-0.0639777332544,-2.53999996185,-936.410705566,-152.655075073,34.38687896730001,-3.5253334045400004,24.363904953,11.84218597412,20.338371276899995,3.533592462540002,-9.364107132000001
2018-07-18 20:30:30.950,-0.0966818426029,-0.160658132452,-0.97852367218,0.537237167358,-0.122934147716,-0.0639777332544,-1.36312435,-0.2941995,13.1212977,0.0,-20.2369327545,4.24730968475,3.52410387993,0.537237167358,-0.122934147716,-0.0639777332544,-2.92999982834,-906.015380859,-150.600967407,34.38687896730001,-2.2553334236100007,24.323904037400002,11.75269031525,20.236932754499996,3.524103879930002,-9.060153961200001
2018-07-18 20:30:31.000,-0.139099350971,-0.272257291222,-0.94999477959,0.251841157675,-0.185087054968,0.0571028478444,-1.7259704,0.71588545,10.93441475,0.0,-20.2369327545,4.24730968475,3.52410387993,0.537237167358,-0.122934147716,-0.0639777332544,-2.92999982834,-906.015380859,-150.600967407,34.38687896730001,-2.235333442690001,24.203905105600004,11.474940776819999,19.928989410399996,3.462253570560002,-9.060153961200001
2018-07-18 20:30:31.050,-0.139099350971,-0.272257291222,-0.94999477959,0.251841157675,-0.185087054968,0.0571028478444,-1.7259704,0.71588545,10.93441475,0.0,-20.2369327545,4.24730968475,3.52410387993,0.537237167358,-0.122934147716,-0.0639777332544,-3.31999993324,-867.361450195,-148.614471436,34.354087829600005,-4.92877388,9.706428527900002,11.279296875,19.714437484699996,3.431435108180002,-8.673614502
2018-07-18 20:30:31.100,-0.139099350971,-0.272257291222,-0.94999477959,0.251841157675,-0.185087054968,0.0571028478444,-1.7259704,0.71588545,10.93441475,0.0,-20.2369327545,4.24730968475,3.52410387993,0.537237167358,-0.122934147716,-0.0639777332544,-3.31999993324,-867.361450195,-148.614471436,34.354087829600005,-4.9087734222399995,9.626426696799996,10.990001201630001,19.384077072099995,3.408539772030002,-8.673614502
2018-07-18 20:30:31.150,-0.139099350971,-0.272257291222,-0.94999477959,0.251841157675,-0.185087054968,0.0571028478444,-1.7259704,0.71588545,10.93441475,0.0,-20.2369327545,4.24730968475,3.52410387993,0.537237167358,-0.122934147716,-0.0639777332544,-3.31999993324,-867.361450195,-148.614471436,34.354087829600005,-4.9087734222399995,9.626426696799996,10.990001201630001,19.384077072099995,3.408539772030002,-8.673614502
2018-07-18 20:30:31.200,-0.139099350971,-0.272257291222,-0.94999477959,0.251841157675,-0.185087054968,0.0571028478444,-1.7259704,0.71588545,10.93441475,0.0,-18.9418430328,5.41376924515,3.34421014786,0.251841157675,-0.185087054968,0.0571028478444,-3.70999979973,-842.541320801,-146.704071045,34.354087829600005,-3.5987739563000005,7.3864288329999965,10.58623075485,18.941843032799998,3.344210147860002,-8.425413131700001
2018-07-18 20:30:31.250,-0.139099350971,-0.272257291222,-0.94999477959,0.251841157675,-0.185087054968,0.0571028478444,-1.7259704,0.71588545,10.93441475,0.0,-18.9418430328,5.41376924515,3.34421014786,0.251841157675,-0.185087054968,0.0571028478444,-4.09999990463,-816.327270508,-144.827468872,34.354087829600005,-2.2587738037000005,5.206428527900002,10.2883939743,18.594224929799996,3.297319889070002,-8.1632728577
2018-07-18 20:30:31.300,-0.139099350971,-0.272257291222,-0.94999477959,0.251841157675,-0.185087054968,0.0571028478444,-1.7259704,0.71588545,10.93441475,0.0,-18.9418430328,5.41376924515,3.34421014786,0.251841157675,-0.185087054968,0.0571028478444,-4.09999990463,-816.327270508,-144.827468872,34.354087829600005,-2.2587738037000005,5.206428527900002,10.02367210388,18.260330200199995,3.2340486049700017,-8.1632728577
2018-07-18 20:30:31.350,-0.139099350971,-0.272257291222,-0.94999477959,0.251841157675,-0.185087054968,0.0571028478444,-1.7259704,0.71588545,10.93441475,0.0,-18.9418430328,5.41376924515,3.34421014786,0.251841157675,-0.185087054968,0.0571028478444,-4.48000001907,-788.319580078,-143.001556396,34.354087829600005,-0.8887739182000001,3.0964279175000016,9.78324604034,17.955194473299997,3.1408660411800016,-7.8831958771
2018-07-18 20:30:31.400,-0.139099350971,-0.272257291222,-0.94999477959,0.251841157675,-0.185087054968,0.0571028478444,-1.7259704,0.71588545,10.93441475,0.0,-18.9418430328,5.41376924515,3.34421014786,0.251841157675,-0.185087054968,0.0571028478444,-4.48000001907,-788.319580078,-143.001556396,34.354087829600005,-0.8887739182000001,3.1164283752999964,9.6203660965,17.740276336699996,3.067748785020002,-7.8831958771
2018-07-18 20:30:31.450,-0.160703543407,-0.281174978558,-0.940192713567,-0.0109160933644,-0.165109574795,-0.337623387575,-1.73577705,0.2941995,10.1204628,0.0,-17.7402763367,6.3796339035,3.06774878502,0.251841157675,-0.185087054968,0.0571028478444,-4.84999990463,-750.336669922,-141.234863281,28.670593261700006,-1.7916793823,-1.0616416932000021,9.275368213650001,17.299732208299996,2.936808586120002,-7.503366470300001
2018-07-18 20:30:31.500,-0.160703543407,-0.281174978558,-0.940192713567,-0.0109160933644,-0.165109574795,-0.337623387575,-1.73577705,0.2941995,10.1204628,0.0,-17.7402763367,6.3796339035,3.06774878502,0.251841157675,-0.185087054968,0.0571028478444,-4.84999990463,-750.336669922,-141.234863281,28.670593261700006,-1.7916793823,-1.0516433716000009,9.18997526169,17.195655822799996,2.9022512435900016,-7.503366470300001
2018-07-18 20:30:31.550,-0.160703543407,-0.281174978558,-0.940192713567,-0.0109160933644,-0.165109574795,-0.337623387575,-1.73577705,0.2941995,10.1204628,0.0,-17.7402763367,6.3796339035,3.06774878502,0.251841157675,-0.185087054968,0.0571028478444,-5.21000003815,-718.346618652,-139.53578186,28.670593261700006,-2.5716791153000003,-3.4416427613000025,9.0012845993,16.968997955299997,2.849537611010002,-7.183465957599999
2018-07-18 20:30:31.600,-0.160703543407,-0.281174978558,-0.940192713567,-0.0109160933644,-0.165109574795,-0.337623387575,-1.73577705,0.2941995,10.1204628,0.0,-17.7402763367,6.3796339035,3.06774878502,0.251841157675,-0.185087054968,0.0571028478444,-5.21000003815,-718.346618652,-139.53578186,28.670593261700006,-2.5616788863999993,-3.391643524199999,8.647695064539999,16.513858795199997,2.709779739380002,-7.183465957599999
2018-07-18 20:30:31.650,-0.160703543407,-0.281174978558,-0.940192713567,-0.0109160933644,-0.165109574795,-0.337623387575,-1.73577705,0.2941995,10.1204628,0.0,-16.4038410187,7.43333292007,2.67188167572,-0.0109160933644,-0.165109574795,-0.337623387575,-5.55999994278,-683.679748535,-137.887405396,28.670593261700006,-1.0616788863999993,-5.981641769400003,8.41868209839,16.199041366599996,2.575855970380002,-6.836797714199999
2018-07-18 20:30:31.700,-0.160703543407,-0.281174978558,-0.940192713567,-0.0109160933644,-0.165109574795,-0.337623387575,-1.73577705,0.2941995,10.1204628,0.0,-16.4038410187,7.43333292007,2.67188167572,-0.0109160933644,-0.165109574795,-0.337623387575,-5.8799996376,-639.252075195,-136.306655884,28.670593261700006,-1.0716791153000003,-5.961641311700003,8.27685499191,15.998242378199997,2.486175298690002,-6.3925209044999995
2018-07-18 20:30:31.750,-0.167816726705,-0.282568167334,-0.929946640678,-0.216936185956,-0.132261067629,-0.351414561272,-1.42196425,-0.2549729,9.8458766,0.0,-16.4038410187,7.43333292007,2.67188167572,-0.0109160933644,-0.165109574795,-0.337623387575,-5.8799996376,-639.252075195,-136.306655884,28.670593261700006,-1.0716791153000003,-5.961641311700003,8.27685499191,15.998242378199997,2.486175298690002,-6.3925209044999995
2018-07-18 20:30:31.800,-0.167816726705,-0.282568167334,-0.929946640678,-0.216936185956,-0.132261067629,-0.351414561272,-1.42196425,-0.2549729,9.8458766,0.0,-16.4038410187,7.43333292007,2.67188167572,-0.0109160933644,-0.165109574795,-0.337623387575,-5.8799996376,-639.252075195,-136.306655884,21.699707031200006,1.8937940597999994,-9.406526565499998,7.96208572388,15.497771263099997,2.217140197750002,-6.3925209044999995
2018-07-18 20:30:31.850,-0.167816726705,-0.282568167334,-0.929946640678,-0.216936185956,-0.132261067629,-0.351414561272,-1.42196425,-0.2549729,9.8458766,0.0,-16.4038410187,7.43333292007,2.67188167572,-0.0109160933644,-0.165109574795,-0.337623387575,-6.17999982834,-596.656433105,-134.751220703,21.699707031200006,3.1437940597999994,-11.6965255737,7.77622795105,15.206050872799997,2.0510435104400018,-5.9665641785000005
2018-07-18 20:30:31.900,-0.167816726705,-0.282568167334,-0.929946640678,-0.216936185956,-0.132261067629,-0.351414561272,-1.42196425,-0.2549729,9.8458766,0.0,-15.1078186035,8.28338813782,1.98407649994,-0.216936185956,-0.132261067629,-0.351414561272,-6.46000003815,-559.32824707,-133.27192688,21.699707031200006,2.3437938690000006,-14.016527175899999,7.77622795105,15.206050872799997,2.0510435104400018,-5.9665641785000005
2018-07-18 20:30:31.950,-0.167816726705,-0.282568167334,-0.929946640678,-0.216936185956,-0.132261067629,-0.351414561272,-1.42196425,-0.2549729,9.8458766,0.0,-15.1078186035,8.28338813782,1.98407649994,-0.216936185956,-0.132261067629,-0.351414561272,-6.46000003815,-559.32824707,-133.27192688,21.699707031200006,2.3437938690000006,-14.016527175899999,7.59718036652,14.921407699599996,1.848357677460002,-5.5932826996
2018-07-18 20:30:32.000,-0.167816726705,-0.282568167334,-0.929946640678,-0.216936185956,-0.132261067629,-0.351414561272,-1.42196425,-0.2549729,9.8458766,0.0,-15.1078186035,8.28338813782,1.98407649994,-0.216936185956,-0.132261067629,-0.351414561272,-6.46000003815,-559.32824707,-133.27192688,21.699707031200006,2.3437938690000006,-14.016527175899999,7.59718036652,14.921407699599996,1.848357677460002,-5.5932826996
2018-07-18 20:30:32.050,-0.167816726705,-0.282568167334,-0.929946640678,-0.216936185956,-0.132261067629,-0.351414561272,-1.42196425,-0.2549729,9.8458766,0.0,-15.1078186035,8.28338813782,1.98407649994,-0.216936185956,-0.132261067629,-0.351414561272,-6.69999980927,-522.507873535,-131.817962646,21.699707031200006,1.3137941360000003,-16.4165267944,7.20060920715,14.208843231199996,1.510661125180002,-5.225078582799998
2018-07-18 20:30:32.100,-0.167816726705,-0.282568167334,-0.929946640678,-0.216936185956,-0.132261067629,-0.351414561272,-1.42196425,-0.2549729,9.8458766,0.0,-15.1078186035,8.28338813782,1.98407649994,-0.216936185956,-0.132261067629,-0.351414561272,-6.69999980927,-522.507873535,-131.817962646,21.699707031200006,1.3037939071999993,-16.4065265655,7.20060920715,14.208843231199996,1.510661125180002,-5.225078582799998
2018-07-18 20:30:32.150,-0.170771616478,-0.245504922571,-0.919893662206,-0.328412860632,-0.184257432818,-0.323543310165,-1.02969825,0.1176798,9.65955025,0.0,-13.9949922562,8.92632293701,1.44935190678,-0.216936185956,-0.132261067629,-0.351414561272,-6.69999980927,-522.507873535,-131.817962646,21.699707031200006,1.3037939071999993,-16.4065265655,7.073677062990001,13.994992256199996,1.449351906780002,-5.225078582799998
2018-07-18 20:30:32.200,-0.170771616478,-0.245504922571,-0.919893662206,-0.328412860632,-0.184257432818,-0.323543310165,-1.02969825,0.1176798,9.65955025,0.0,-13.9949922562,8.92632293701,1.44935190678,-0.216936185956,-0.132261067629,-0.351414561272,-6.92000007629,-486.410522461,-130.431655884,11.891296386699999,2.1595201492000005,-15.768451690700001,6.89748954773,13.667879104599997,1.412432909010002,-4.864105224599999
2018-07-18 20:30:32.250,-0.170771616478,-0.245504922571,-0.919893662206,-0.328412860632,-0.184257432818,-0.323543310165,-1.02969825,0.1176798,9.65955025,0.0,-13.9949922562,8.92632293701,1.44935190678,-0.216936185956,-0.132261067629,-0.351414561272,-6.92000007629,-486.410522461,-130.431655884,11.891296386699999,2.1595201492000005,-15.768451690700001,6.776963233949999,13.433495521499996,1.415729284290002,-4.864105224599999
2018-07-18 20:30:32.300,-0.170771616478,-0.245504922571,-0.919893662206,-0.328412860632,-0.184257432818,-0.323543310165,-1.02969825,0.1176798,9.65955025,0.0,-13.9949922562,8.92632293701,1.44935190678,-0.216936185956,-0.132261067629,-0.351414561272,-7.1299996376,-464.858825684,-129.096054077,11.891296386699999,1.3995199203000013,-18.608451843300003,6.43198680878,12.822215080299996,1.528999805450002,-4.648588180499999
2018-07-18 20:30:32.350,-0.170771616478,-0.245504922571,-0.919893662206,-0.328412860632,-0.184257432818,-0.323543310165,-1.02969825,0.1176798,9.65955025,0.0,-13.9949922562,8.92632293701,1.44935190678,-0.216936185956,-0.132261067629,-0.351414561272,-7.1299996376,-464.858825684,-129.096054077,11.891296386699999,1.3995199203000013,-18.608451843300003,6.43198680878,12.822215080299996,1.528999805450002,-4.648588180499999
2018-07-18 20:30:32.400,-0.170771616478,-0.245504922571,-0.919893662206,-0.328412860632,-0.184257432818,-0.323543310165,-1.02969825,0.1176798,9.65955025,0.0,-12.3147706985,9.84980869293,1.70167768002,-0.328412860632,-0.184257432818,-0.323543310165,-7.56999969482,-428.671081543,-126.619285583,11.891296386699999,0.06951999660000041,-25.328451633440004,6.21526813507,12.439971923799996,1.656092882160002,-4.434076309200002
2018-07-18 20:30:32.450,-0.166202290198,-0.197126461033,-0.911368555798,-0.422529488802,-0.119108095765,-0.363411277533,-0.24516625,-0.392266,13.8862164,0.0,-12.3147706985,9.84980869293,1.70167768002,-0.328412860632,-0.184257432818,-0.323543310165,-7.56999969482,-428.671081543,-126.619285583,11.891296386699999,0.06951999660000041,-25.328451633440004,5.9516382217,11.937400817899997,1.853582501410002,-4.286710739099998
2018-07-18 20:30:32.500,-0.166202290198,-0.197126461033,-0.911368555798,-0.422529488802,-0.119108095765,-0.363411277533,-0.24516625,-0.392266,13.8862164,0.0,-12.3147706985,9.84980869293,1.70167768002,-0.328412860632,-0.184257432818,-0.323543310165,-7.56999969482,-428.671081543,-126.619285583,4.649547576899998,0.7964286804,-20.323921680460003,5.781119346600001,11.592872619599996,1.969595551490002,-4.286710739099998
2018-07-18 20:30:32.550,-0.166202290198,-0.197126461033,-0.911368555798,-0.422529488802,-0.119108095765,-0.363411277533,-0.24516625,-0.392266,13.8862164,0.0,-12.3147706985,9.84980869293,1.70167768002,-0.328412860632,-0.184257432818,-0.323543310165,-7.56999969482,-428.671081543,-126.619285583,4.649547576899998,0.7964286804,-20.323921680460003,5.781119346600001,11.592872619599996,1.969595551490002,-4.286710739099998
2018-07-18 20:30:32.600,-0.166202290198,-0.197126461033,-0.911368555798,-0.422529488802,-0.119108095765,-0.363411277533,-0.24516625,-0.392266,13.8862164,0.0,-12.3147706985,9.84980869293,1.70167768002,-0.328412860632,-0.184257432818,-0.323543310165,-7.82999992371,-402.371795654,-125.469619751,4.649547576899998,0.09642887119999877,-23.51392173768,5.552046775799999,11.042887687699997,2.111523628230002,-4.0237178801999995
2018-07-18 20:30:32.650,-0.166202290198,-0.197126461033,-0.911368555798,-0.422529488802,-0.119108095765,-0.363411277533,-0.24516625,-0.392266,13.8862164,0.0,-11.0428876877,10.4479532242,2.11152362823,-0.422529488802,-0.119108095765,-0.363411277533,-8.11999988556,-373.890106201,-124.379173279,4.649547576899998,0.08642864229999958,-23.5039215088,5.552046775799999,11.042887687699997,2.111523628230002,-4.0237178801999995
2018-07-18 20:30:32.700,-0.166202290198,-0.197126461033,-0.911368555798,-0.422529488802,-0.119108095765,-0.363411277533,-0.24516625,-0.392266,13.8862164,0.0,-11.0428876877,10.4479532242,2.11152362823,-0.422529488802,-0.119108095765,-0.363411277533,-8.11999988556,-373.890106201,-124.379173279,4.649547576899998,-0.8435716628800005,-26.32392156125,5.348092079200001,10.513025283799996,2.2636525631000017,-3.738901138300001
2018-07-18 20:30:32.750,-0.166202290198,-0.197126461033,-0.911368555798,-0.422529488802,-0.119108095765,-0.363411277533,-0.24516625,-0.392266,13.8862164,0.0,-11.0428876877,10.4479532242,2.11152362823,-0.422529488802,-0.119108095765,-0.363411277533,-8.11999988556,-373.890106201,-124.379173279,4.649547576899998,-0.8435716628800005,-26.32392156125,5.348092079200001,10.513025283799996,2.2636525631000017,-3.738901138300001
2018-07-18 20:30:32.800,-0.166202290198,-0.197126461033,-0.911368555798,-0.422529488802,-0.119108095765,-0.363411277533,-0.24516625,-0.392266,13.8862164,0.0,-11.0428876877,10.4479532242,2.11152362823,-0.422529488802,-0.119108095765,-0.363411277533,-8.4299993515,-344.39239502,-123.339431763,4.649547576899998,-1.71357154843,-28.963921487342002,5.2282075882,10.138358116099996,2.3104684352900016,-3.4439239501999985
2018-07-18 20:30:32.850,-0.139760634454,-0.121182934838,-0.905210730054,-0.461488634348,-0.0520183146,-0.105086252093,-0.24516625,-1.1375714,11.62088025,0.0,-11.0428876877,10.4479532242,2.11152362823,-0.422529488802,-0.119108095765,-0.363411277533,-8.75,-295.491790771,-122.358818054,-1.3952217101999977,-1.8242444992099998,-22.17577457426,5.2100019455,10.053752899199996,2.3060660362200016,-3.4439239501999985
2018-07-18 20:30:32.900,-0.139760634454,-0.121182934838,-0.905210730054,-0.461488634348,-0.0520183146,-0.105086252093,-0.24516625,-1.1375714,11.62088025,0.0,-9.65559577942,10.8772468567,2.28150653839,-0.461488634348,-0.0520183146,-0.105086252093,-8.75,-295.491790771,-122.358818054,-1.3952217101999977,-1.8242444992099998,-22.17577457426,5.1389465332,9.736360549929996,2.2719261646300017,-2.9549179077000005
2018-07-18 20:30:32.950,-0.139760634454,-0.121182934838,-0.905210730054,-0.461488634348,-0.0520183146,-0.105086252093,-0.24516625,-1.1375714,11.62088025,0.0,-9.65559577942,10.8772468567,2.28150653839,-0.461488634348,-0.0520183146,-0.105086252093,-9.06999969482,-261.301605225,-121.412063599,-1.3952217101999977,-2.8942441940299997,-23.93577480314,5.086558342,9.501068115229996,2.3035023212400016,-2.6130161285
2018-07-18 20:30:33.000,-0.139760634454,-0.121182934838,-0.905210730054,-0.461488634348,-0.0520183146,-0.105086252093,-0.24516625,-1.1375714,11.62088025,0.0,-9.65559577942,10.8772468567,2.28150653839,-0.461488634348,-0.0520183146,-0.105086252093,-9.38999938965,-222.807128906,-120.507568359,-1.3952217101999977,-2.9042444229199997,-23.93577480314,5.058209419300001,9.265253067019996,2.322468042370002,-2.2280712127999998
2018-07-18 20:30:33.050,-0.139760634454,-0.121182934838,-0.905210730054,-0.461488634348,-0.0520183146,-0.105086252093,-0.24516625,-1.1375714,11.62088025,0.0,-9.65559577942,10.8772468567,2.28150653839,-0.461488634348,-0.0520183146,-0.105086252093,-9.38999938965,-222.807128906,-120.507568359,-1.3952217101999977,-2.9042444229199997,-23.93577480314,5.058209419300001,9.265253067019996,2.322468042370002,-2.2280712127999998
2018-07-18 20:30:33.100,-0.139760634454,-0.121182934838,-0.905210730054,-0.461488634348,-0.0520183146,-0.105086252093,-0.24516625,-1.1375714,11.62088025,0.0,-9.65559577942,10.8772468567,2.28150653839,-0.461488634348,-0.0520183146,-0.105086252093,-9.38999938965,-222.807128906,-120.507568359,-1.3952217101999977,-3.9142441749599994,-25.56577444074,5.028520584100001,8.995595932009996,2.3228688240100017,-2.2280712127999998
2018-07-18 20:30:33.150,-0.139760634454,-0.121182934838,-0.905210730054,-0.461488634348,-0.0520183146,-0.105086252093,-0.24516625,-1.1375714,11.62088025,0.0,-8.87821292877,10.9783849716,2.31357741356,-0.461488634348,-0.0520183146,-0.105086252093,-9.38999938965,-222.807128906,-120.507568359,-1.3952217101999977,-3.9142441749599994,-25.56577444074,5.021615028399999,8.878212928769996,2.313577413560002,-1.6519107818999998
2018-07-18 20:30:33.200,-0.139760634454,-0.121182934838,-0.905210730054,-0.461488634348,-0.0520183146,-0.105086252093,-0.24516625,-1.1375714,11.62088025,0.0,-8.87821292877,10.9783849716,2.31357741356,-0.461488634348,-0.0520183146,-0.105086252093,-10.0100002289,-107.301712036,-118.816947937,-1.3952217101999977,-5.0942440033,-26.86577463148,5.0275039672999995,8.764825820919997,2.303961515430002,-1.6519107818999998
2018-07-18 20:30:33.250,-0.116788726524,-0.0589224517393,-0.910888867774,-0.427305221558,0.0496008209884,0.039438854903,-0.0980665,-0.2745862,9.63993695,0.0,-8.87821292877,10.9783849716,2.31357741356,-0.461488634348,-0.0520183146,-0.105086252093,-10.0100002289,-107.301712036,-118.816947937,-1.4813156128000031,-6.7226476669299995,-20.099207878130002,5.0506267548,8.606642723079997,2.2659001350400017,-1.0730171203999994
2018-07-18 20:30:33.300,-0.116788726524,-0.0589224517393,-0.910888867774,-0.427305221558,0.0496008209884,0.039438854903,-0.0980665,-0.2745862,9.63993695,0.0,-8.87821292877,10.9783849716,2.31357741356,-0.461488634348,-0.0520183146,-0.105086252093,-10.0100002289,-107.301712036,-118.816947937,-1.4813156128000031,-6.7226476669299995,-20.099207878130002,5.0823421478,8.485210418699996,2.2081375122100018,-1.0730171203999994
2018-07-18 20:30:33.350,-0.116788726524,-0.0589224517393,-0.910888867774,-0.427305221558,0.0496008209884,0.039438854903,-0.0980665,-0.2745862,9.63993695,0.0,-8.87821292877,10.9783849716,2.31357741356,-0.461488634348,-0.0520183146,-0.105086252093,-10.3199996948,-55.6852340698,-118.005371094,-1.4813156128000031,-8.00264763832,-20.689207077040003,5.1188526154,8.380152702329996,2.128007888790002,-0.5568523407000008
2018-07-18 20:30:33.400,-0.116788726524,-0.0589224517393,-0.910888867774,-0.427305221558,0.0496008209884,0.039438854903,-0.0980665,-0.2745862,9.63993695,0.0,-8.3055305481,10.8467674255,2.07384252548,-0.427305221558,0.0496008209884,0.039438854903,-10.3199996948,-55.6852340698,-118.005371094,-1.4813156128000031,-8.01264762878,-20.699207305919998,5.1815519333,8.234748840329997,2.028297185900002,-0.14167213440000026
2018-07-18 20:30:33.450,-0.116788726524,-0.0589224517393,-0.910888867774,-0.427305221558,0.0496008209884,0.039438854903,-0.0980665,-0.2745862,9.63993695,0.0,-8.3055305481,10.8467674255,2.07384252548,-0.427305221558,0.0496008209884,0.039438854903,-10.3199996948,-55.6852340698,-118.005371094,-1.4813156128000031,-8.01264762878,-20.699207305919998,5.1815519333,8.234748840329997,2.028297185900002,-0.14167213440000026
2018-07-18 20:30:33.500,-0.116788726524,-0.0589224517393,-0.910888867774,-0.427305221558,0.0496008209884,0.039438854903,-0.0980665,-0.2745862,9.63993695,0.0,-8.3055305481,10.8467674255,2.07384252548,-0.427305221558,0.0496008209884,0.039438854903,-10.8800001144,21.6485977173,-116.441505432,-1.4813156128000031,-10.562647521496,-21.3792076111,5.2257881165,8.142330169679996,1.942914962770002,-0.14167213440000026
2018-07-18 20:30:33.550,-0.116788726524,-0.0589224517393,-0.910888867774,-0.427305221558,0.0496008209884,0.039438854903,-0.0980665,-0.2745862,9.63993695,0.0,-8.3055305481,10.8467674255,2.07384252548,-0.427305221558,0.0496008209884,0.039438854903,-10.8800001144,21.6485977173,-116.441505432,-1.4813156128000031,-10.562647521496,-21.38920783998,5.2548313141000005,8.093313217159997,1.869247078900002,0.21648597719999962
2018-07-18 20:30:33.600,-0.116788726524,-0.0589224517393,-0.910888867774,-0.427305221558,0.0496008209884,0.039438854903,-0.0980665,-0.2745862,9.63993695,0.0,-8.3055305481,10.8467674255,2.07384252548,-0.427305221558,0.0496008209884,0.039438854903,-11.1199998856,45.1766014099,-115.672271729,-1.4813156128000031,-10.562647521496,-21.399207115190002,5.336668014500001,8.012672424319996,1.687961459160002,0.4517660141000004
2018-07-18 20:30:33.650,-0.116788726524,-0.0589224517393,-0.910888867774,-0.427305221558,0.0496008209884,0.039438854903,-0.0980665,-0.2745862,9.63993695,0.0,-7.99459218979,10.6468133926,1.64139604568,-0.427305221558,0.0496008209884,0.039438854903,-11.1199998856,45.1766014099,-115.672271729,-1.4813156128000031,-10.562647521496,-21.399207115190002,5.336668014500001,8.012672424319996,1.687961459160002,0.4517660141000004
2018-07-18 20:30:33.700,-0.116788726524,-0.0589224517393,-0.910888867774,-0.427305221558,0.0496008209884,0.039438854903,-0.0980665,-0.2745862,9.63993695,0.0,-7.99459218979,10.6468133926,1.64139604568,-0.427305221558,0.0496008209884,0.039438854903,-11.1199998856,45.1766014099,-115.672271729,-1.4813156128000031,-11.66264748573,-21.439207077040003,5.428446769700001,7.949988842009996,1.460063457490002,0.4517660141000004
2018-07-18 20:30:33.750,-0.0400765162261,0.0247167631246,-0.914045432152,-0.306082904339,0.199487060308,-0.0168809741735,-0.02941995,-0.53936575,7.5118939,0.0,-7.99459218979,10.6468133926,1.64139604568,-0.427305221558,0.0496008209884,0.039438854903,-11.3400001526,89.387512207,-114.936851501,-1.536754608199999,-8.406506538390001,-8.978020668025,5.428446769700001,7.949988842009996,1.460063457490002,0.4517660141000004
2018-07-18 20:30:33.800,-0.0400765162261,0.0247167631246,-0.914045432152,-0.306082904339,0.199487060308,-0.0168809741735,-0.02941995,-0.53936575,7.5118939,0.0,-7.99459218979,10.6468133926,1.64139604568,-0.427305221558,0.0496008209884,0.039438854903,-11.3400001526,89.387512207,-114.936851501,-1.536754608199999,-8.406506538390001,-8.978020668025,5.5312595367,7.9230804443399965,1.187151074410002,0.8938751221000008
2018-07-18 20:30:33.850,-0.0400765162261,0.0247167631246,-0.914045432152,-0.306082904339,0.199487060308,-0.0168809741735,-0.02941995,-0.53936575,7.5118939,0.0,-7.99459218979,10.6468133926,1.64139604568,-0.427305221558,0.0496008209884,0.039438854903,-11.5199995041,122.343063354,-114.184501648,-1.536754608199999,-9.33650660515,-8.718021392825,5.5510683059999995,7.919835567469996,1.127917885780002,1.2234306334999996
2018-07-18 20:30:33.900,-0.0400765162261,0.0247167631246,-0.914045432152,-0.306082904339,0.199487060308,-0.0168809741735,-0.02941995,-0.53936575,7.5118939,0.0,-7.91138124466,10.4011945724,0.943754673004,-0.306082904339,0.199487060308,-0.0168809741735,-11.5199995041,122.343063354,-114.184501648,-1.536754608199999,-9.33650660515,-8.728020668025,5.5988054276,7.911381244659997,0.943754673004002,1.2234306334999996
2018-07-18 20:30:33.950,-0.0400765162261,0.0247167631246,-0.914045432152,-0.306082904339,0.199487060308,-0.0168809741735,-0.02941995,-0.53936575,7.5118939,0.0,-7.91138124466,10.4011945724,0.943754673004,-0.306082904339,0.199487060308,-0.0168809741735,-11.5199995041,122.343063354,-114.184501648,-1.536754608199999,-9.33650660515,-8.728020668025,5.5988054276,7.911381244659997,0.943754673004002,1.2234306334999996
2018-07-18 20:30:34.000,-0.0400765162261,0.0247167631246,-0.914045432152,-0.306082904339,0.199487060308,-0.0168809741735,-0.02941995,-0.53936575,7.5118939,0.0,-7.91138124466,10.4011945724,0.943754673004,-0.306082904339,0.199487060308,-0.0168809741735,-11.5199995041,122.343063354,-114.184501648,-1.536754608199999,-9.33650660515,-8.728020668025,5.5988054276,7.911381244659997,0.943754673004002,1.2234306334999996
2018-07-18 20:30:34.050,-0.0400765162261,0.0247167631246,-0.914045432152,-0.306082904339,0.199487060308,-0.0168809741735,-0.02941995,-0.53936575,7.5118939,0.0,-7.91138124466,10.4011945724,0.943754673004,-0.306082904339,0.199487060308,-0.0168809741735,-11.7899999619,188.92364502,-112.679786682,-1.536754608199999,-10.91650629043,-8.148020744325,5.718105316200001,7.925095558169996,0.504188656807002,1.8892364502000003
2018-07-18 20:30:34.100,-0.0400765162261,0.0247167631246,-0.914045432152,-0.306082904339,0.199487060308,-0.0168809741735,-0.02941995,-0.53936575,7.5118939,0.0,-7.94719219208,10.2266893387,0.234356686473,-0.306082904339,0.199487060308,-0.0168809741735,-11.7899999619,188.92364502,-112.679786682,-1.536754608199999,-10.91650629043,-8.158020973205,5.763231277499999,7.944194316859996,0.30255886912300195,1.8892364502000003
2018-07-18 20:30:34.150,0.0153906421151,0.0460954469678,-0.914086620928,-0.133790507913,0.202417641878,0.0569673925638,0.2745862,0.06864655,6.2566427,0.0,-7.94719219208,10.2266893387,0.234356686473,-0.306082904339,0.199487060308,-0.0168809741735,-11.8699998856,212.934204102,-111.927459717,-1.536754608199999,-11.58650636673,-7.788021087644999,5.7837781906,7.953081130979997,0.17226040363300196,2.1293420792000006
2018-07-18 20:30:34.200,0.0153906421151,0.0460954469678,-0.914086620928,-0.133790507913,0.202417641878,0.0569673925638,0.2745862,0.06864655,6.2566427,0.0,-7.94719219208,10.2266893387,0.234356686473,-0.306082904339,0.199487060308,-0.0168809741735,-11.8699998856,212.934204102,-111.927459717,-1.515907287600001,-6.754464149477,-2.982738018029999,5.7837781906,7.953081130979997,0.17226040363300196,2.1293420792000006
2018-07-18 20:30:34.250,0.0153906421151,0.0460954469678,-0.914086620928,-0.133790507913,0.202417641878,0.0569673925638,0.2745862,0.06864655,6.2566427,0.0,-7.94719219208,10.2266893387,0.234356686473,-0.306082904339,0.199487060308,-0.0168809741735,-11.9099998474,234.587280273,-111.158203125,-1.515907287600001,-7.274464130397,-2.5027384757899993,5.8501577377,8.002793312069997,-0.09267335385079804,2.345872879
2018-07-18 20:30:34.300,0.0153906421151,0.0460954469678,-0.914086620928,-0.133790507913,0.202417641878,0.0569673925638,0.2745862,0.06864655,6.2566427,0.0,-7.94719219208,10.2266893387,0.234356686473,-0.306082904339,0.199487060308,-0.0168809741735,-11.9099998474,234.587280273,-111.158203125,-1.515907287600001,-7.274464130397,-2.5027384757899993,5.8959569931,8.050798416139996,-0.33513927459699805,2.345872879
2018-07-18 20:30:34.350,0.0153906421151,0.0460954469678,-0.914086620928,-0.133790507913,0.202417641878,0.0569673925638,0.2745862,0.06864655,6.2566427,0.0,-8.08968353271,10.0782680511,-0.445465356112,-0.133790507913,0.202417641878,0.0569673925638,-11.9099998474,248.401351929,-110.388969421,-1.515907287600001,-7.614464282987,-2.0327382087699997,5.9217319489,8.089683532709996,-0.44546535611199806,2.484013557400001
2018-07-18 20:30:34.400,0.0153906421151,0.0460954469678,-0.914086620928,-0.133790507913,0.202417641878,0.0569673925638,0.2745862,0.06864655,6.2566427,0.0,-8.08968353271,10.0782680511,-0.445465356112,-0.133790507913,0.202417641878,0.0569673925638,-11.9099998474,248.401351929,-110.388969421,-1.515907287600001,-7.614464282987,-2.0227379798799996,5.9523658752,8.133935928339996,-0.624679744243998,2.484013557400001
2018-07-18 20:30:34.450,0.0153906421151,0.0460954469678,-0.914086620928,-0.133790507913,0.202417641878,0.0569673925638,0.2745862,0.06864655,6.2566427,0.0,-8.08968353271,10.0782680511,-0.445465356112,-0.133790507913,0.202417641878,0.0569673925638,-11.9099998474,248.401351929,-110.388969421,-1.515907287600001,-7.614464282987,-2.0227379798799996,5.9523658752,8.133935928339996,-0.624679744243998,2.484013557400001
2018-07-18 20:30:34.500,0.0153906421151,0.0460954469678,-0.914086620928,-0.133790507913,0.202417641878,0.0569673925638,0.2745862,0.06864655,6.2566427,0.0,-8.08968353271,10.0782680511,-0.445465356112,-0.133790507913,0.202417641878,0.0569673925638,-11.8699998856,246.158309937,-109.628196716,-1.515907287600001,-7.734464168547,-1.5527381896899994,6.00188827515,8.224729537959997,-0.933881580829998,2.4615831375
2018-07-18 20:30:34.550,0.0153906421151,0.0460954469678,-0.914086620928,-0.133790507913,0.202417641878,0.0569673925638,0.2745862,0.06864655,6.2566427,0.0,-8.08968353271,10.0782680511,-0.445465356112,-0.133790507913,0.202417641878,0.0569673925638,-11.8099994659,250.169662476,-108.833580017,-1.515907287600001,-7.714464187627001,-1.0327382087699997,6.024774551389999,8.291431426999996,-1.127179622649998,2.5016965865999996
2018-07-18 20:30:34.600,0.0153906421151,0.0460954469678,-0.914086620928,-0.133790507913,0.202417641878,0.0569673925638,0.2745862,0.06864655,6.2566427,0.0,-8.30721569061,9.96622753143,-1.19209885597,-0.133790507913,0.202417641878,0.0569673925638,-11.8099994659,250.169662476,-108.833580017,-1.515907287600001,-7.724464416507,-1.0327382087699997,6.05094051361,8.348921775819996,-1.306399106979998,2.5174465179
2018-07-18 20:30:34.650,0.0602487615406,0.0429515283322,-0.920630374948,0.0161225609481,0.142080307007,0.138541072607,0.38245935,-0.18632635,6.63910205,0.0,-8.30721569061,9.96622753143,-1.19209885597,-0.133790507913,0.202417641878,0.0569673925638,-11.7100000381,251.744659424,-108.047439575,0.5029411315999965,-2.5362772941499996,1.1689739227300002,6.06464767456,8.378073692319996,-1.358845710749998,2.5174465179
2018-07-18 20:30:34.700,0.0602487615406,0.0429515283322,-0.920630374948,0.0161225609481,0.142080307007,0.138541072607,0.38245935,-0.18632635,6.63910205,0.0,-8.30721569061,9.96622753143,-1.19209885597,-0.133790507913,0.202417641878,0.0569673925638,-11.7100000381,251.744659424,-108.047439575,0.5029411315999965,-2.5362772941499996,1.17897367478,6.091743469240001,8.475829124449996,-1.568283200259998,2.5174465179
2018-07-18 20:30:34.750,0.0602487615406,0.0429515283322,-0.920630374948,0.0161225609481,0.142080307007,0.138541072607,0.38245935,-0.18632635,6.63910205,0.0,-8.30721569061,9.96622753143,-1.19209885597,-0.133790507913,0.202417641878,0.0569673925638,-11.5799999237,235.568145752,-107.235916138,0.5029411315999965,-2.15627717971,1.7889738082900006,6.10060119629,8.528532028199997,-1.671538114549998,2.3556814193999998
2018-07-18 20:30:34.800,0.0602487615406,0.0429515283322,-0.920630374948,0.0161225609481,0.142080307007,0.138541072607,0.38245935,-0.18632635,6.63910205,0.0,-8.61287784576,9.86738204956,-1.83229756355,0.0161225609481,0.142080307007,0.138541072607,-11.5799999237,235.568145752,-107.235916138,0.5029411315999965,-2.15627717971,1.7889738082900006,6.12089252472,8.580794334409996,-1.772650003429998,2.3556814193999998
2018-07-18 20:30:34.850,0.0602487615406,0.0429515283322,-0.920630374948,0.0161225609481,0.142080307007,0.138541072607,0.38245935,-0.18632635,6.63910205,0.0,-8.61287784576,9.86738204956,-1.83229756355,0.0161225609481,0.142080307007,0.138541072607,-11.4200000763,221.705154419,-106.39906311,0.5029411315999965,-1.65627717971,2.43897390366,6.13777160645,8.634889602659996,-1.894475936889998,2.2170515060000007
2018-07-18 20:30:34.900,0.0602487615406,0.0429515283322,-0.920630374948,0.0161225609481,0.142080307007,0.138541072607,0.38245935,-0.18632635,6.63910205,0.0,-8.61287784576,9.86738204956,-1.83229756355,0.0161225609481,0.142080307007,0.138541072607,-11.4200000763,221.705154419,-106.39906311,0.5029411315999965,-1.65627717971,2.43897390366,6.13777160645,8.634889602659996,-1.894475936889998,2.2170515060000007
2018-07-18 20:30:34.950,0.0602487615406,0.0429515283322,-0.920630374948,0.0161225609481,0.142080307007,0.138541072607,0.38245935,-0.18632635,6.63910205,0.0,-8.61287784576,9.86738204956,-1.83229756355,0.0161225609481,0.142080307007,0.138541072607,-11.2399997711,208.450134277,-105.570617676,0.5029411315999965,-1.0262775421099999,3.07897377014,6.171662330629999,8.815069198609997,-2.1422288417799984,2.0845012665000002
2018-07-18 20:30:35.000,0.0602487615406,0.0429515283322,-0.920630374948,0.0161225609481,0.142080307007,0.138541072607,0.38245935,-0.18632635,6.63910205,0.0,-8.61287784576,9.86738204956,-1.83229756355,0.0161225609481,0.142080307007,0.138541072607,-11.2399997711,208.450134277,-105.570617676,0.5029411315999965,-1.0262775421099999,3.07897377014,6.171662330629999,8.815069198609997,-2.1422288417799984,2.0845012665000002
2018-07-18 20:30:35.050,0.0727810379617,0.0220888086403,-0.930778160567,0.196630746126,0.032179698348,0.0971586629748,0.42168595,0.06864655,8.36507245,0.0,-9.01370716095,9.78940391541,-2.30700659752,0.196630746126,0.032179698348,0.0971586629748,-11.029999733,184.429351807,-104.699943542,3.6449394225999967,2.1441397666999995,1.9248452186600002,6.205303192140001,8.977198600769997,-2.2878284454299984,1.8442935943999998
2018-07-18 20:30:35.100,0.0727810379617,0.0220888086403,-0.930778160567,0.196630746126,0.032179698348,0.0971586629748,0.42168595,0.06864655,8.36507245,0.0,-9.01370716095,9.78940391541,-2.30700659752,0.196630746126,0.032179698348,0.0971586629748,-10.8199996948,163.327026367,-103.837730408,3.6449394225999967,2.8841397762299996,2.5548453331000003,6.21185016632,9.044031143189997,-2.337132453919998,1.8442935943999998
2018-07-18 20:30:35.150,0.0727810379617,0.0220888086403,-0.930778160567,0.196630746126,0.032179698348,0.0971586629748,0.42168595,0.06864655,8.36507245,0.0,-9.01370716095,9.78940391541,-2.30700659752,0.196630746126,0.032179698348,0.0971586629748,-10.8199996948,163.327026367,-103.837730408,3.6449394225999967,2.8841397762299996,2.5548453331000003,6.21669197083,9.138243675229996,-2.4095911979699984,1.6332702637
2018-07-18 20:30:35.200,0.0727810379617,0.0220888086403,-0.930778160567,0.196630746126,0.032179698348,0.0971586629748,0.42168595,0.06864655,8.36507245,0.0,-9.01370716095,9.78940391541,-2.30700659752,0.196630746126,0.032179698348,0.0971586629748,-10.8199996948,163.327026367,-103.837730408,3.6449394225999967,2.8841397762299996,2.5548453331000003,6.21758270264,9.197780609129996,-2.461184263229998,1.6332702637
2018-07-18 20:30:35.250,0.0727810379617,0.0220888086403,-0.930778160567,0.196630746126,0.032179698348,0.0971586629748,0.42168595,0.06864655,8.36507245,0.0,-9.01370716095,9.78940391541,-2.30700659752,0.196630746126,0.032179698348,0.0971586629748,-10.5999994278,150.997741699,-102.950141907,3.6449394225999967,3.61413979531,3.14484524727,6.215453147890001,9.259745597839997,-2.4799005985299982,1.5099773407000008
2018-07-18 20:30:35.300,0.0727810379617,0.0220888086403,-0.930778160567,0.196630746126,0.032179698348,0.0971586629748,0.42168595,0.06864655,8.36507245,0.0,-9.35886478424,9.79107570648,-2.48518943787,0.196630746126,0.032179698348,0.0971586629748,-10.5999994278,150.997741699,-102.950141907,3.6449394225999967,3.61413979531,3.14484524727,6.208924293520001,9.358864784239996,-2.485189437869998,1.5099773407000008
2018-07-18 20:30:35.350,0.0727810379617,0.0220888086403,-0.930778160567,0.196630746126,0.032179698348,0.0971586629748,0.42168595,0.06864655,8.36507245,0.0,-9.35886478424,9.79107570648,-2.48518943787,0.196630746126,0.032179698348,0.0971586629748,-10.3699998856,128.57093811,-102.037193298,3.6449394225999967,4.37413978577,3.6748453378700003,6.192462921140001,9.489350318909997,-2.442652940749998,1.2857093811000002
2018-07-18 20:30:35.400,0.0727810379617,0.0220888086403,-0.930778160567,0.196630746126,0.032179698348,0.0971586629748,0.42168595,0.06864655,8.36507245,0.0,-9.35886478424,9.79107570648,-2.48518943787,0.196630746126,0.032179698348,0.0971586629748,-10.3699998856,128.57093811,-102.037193298,3.6449394225999967,4.37413978577,3.6748453378700003,6.18099975586,9.548790931699996,-2.420209407809998,1.2857093811000002
2018-07-18 20:30:35.450,0.0571304898909,-0.0115707117872,-0.935528394029,0.0420906320214,-0.061834089458,0.00695340521634,0.5687857,0.1372931,11.2188076,0.0,-9.35886478424,9.79107570648,-2.48518943787,0.196630746126,0.032179698348,0.0971586629748,-10.1399993896,98.1107711792,-101.107337952,3.6449394225999967,5.13413977623,4.1948453188000006,6.170489311220001,9.580183982849997,-2.3897945880899982,0.9811077118
2018-07-18 20:30:35.500,0.0571304898909,-0.0115707117872,-0.935528394029,0.0420906320214,-0.061834089458,0.00695340521634,0.5687857,0.1372931,11.2188076,0.0,-9.35886478424,9.79107570648,-2.48518943787,0.196630746126,0.032179698348,0.0971586629748,-10.1399993896,98.1107711792,-101.107337952,3.6449394225999967,5.13413977623,4.1948453188000006,6.170489311220001,9.580183982849997,-2.3897945880899982,0.9811077118
2018-07-18 20:30:35.550,0.0571304898909,-0.0115707117872,-0.935528394029,0.0420906320214,-0.061834089458,0.00695340521634,0.5687857,0.1372931,11.2188076,0.0,-9.774974823,9.87482738495,-2.21837282181,0.0420906320214,-0.061834089458,0.00695340521634,-9.9299993515,65.4078521729,-100.160598755,5.086963653600002,5.661149084564,0.357499420644,6.13566398621,9.746887207029996,-2.243814229969998,0.6540784835999993
2018-07-18 20:30:35.600,0.0571304898909,-0.0115707117872,-0.935528394029,0.0420906320214,-0.061834089458,0.00695340521634,0.5687857,0.1372931,11.2188076,0.0,-9.774974823,9.87482738495,-2.21837282181,0.0420906320214,-0.061834089458,0.00695340521634,-9.9299993515,65.4078521729,-100.160598755,5.086963653600002,5.661149084564,0.357499420644,6.12493515015,9.838860511779997,-2.1672148704499983,0.6540784835999993
2018-07-18 20:30:35.650,0.0571304898909,-0.0115707117872,-0.935528394029,0.0420906320214,-0.061834089458,0.00695340521634,0.5687857,0.1372931,11.2188076,0.0,-9.774974823,9.87482738495,-2.21837282181,0.0420906320214,-0.061834089458,0.00695340521634,-9.72999954224,50.5187034607,-99.2053985596,5.086963653600002,6.211149096485,0.7974994182599999,6.118543624879999,9.917662620539996,-2.127302408219998,0.5051870346000005
2018-07-18 20:30:35.700,0.0571304898909,-0.0115707117872,-0.935528394029,0.0420906320214,-0.061834089458,0.00695340521634,0.5687857,0.1372931,11.2188076,0.0,-9.774974823,9.87482738495,-2.21837282181,0.0420906320214,-0.061834089458,0.00695340521634,-9.72999954224,50.5187034607,-99.2053985596,5.086963653600002,6.211149096485,0.7974994182599999,6.118543624879999,9.917662620539996,-2.127302408219998,0.5051870346000005
2018-07-18 20:30:35.750,0.0571304898909,-0.0115707117872,-0.935528394029,0.0420906320214,-0.061834089458,0.00695340521634,0.5687857,0.1372931,11.2188076,0.0,-9.774974823,9.87482738495,-2.21837282181,0.0420906320214,-0.061834089458,0.00695340521634,-9.55000019073,31.1388969421,-98.2248153687,5.086963653600002,6.731149077412,1.1574994176639999,6.098608016969999,10.026106834399997,-2.0206522941599983,0.3113889693999994
2018-07-18 20:30:35.800,0.0571304898909,-0.0115707117872,-0.935528394029,0.0420906320214,-0.061834089458,0.00695340521634,0.5687857,0.1372931,11.2188076,0.0,-10.1176319122,9.89244747162,-1.92288827896,0.0420906320214,-0.061834089458,0.00695340521634,-9.55000019073,31.1388969421,-98.2248153687,5.086963653600002,6.731149077412,1.1574994176639999,6.098608016969999,10.026106834399997,-2.0206522941599983,0.3113889693999994
2018-07-18 20:30:35.850,0.0571304898909,-0.0115707117872,-0.935528394029,0.0420906320214,-0.061834089458,0.00695340521634,0.5687857,0.1372931,11.2188076,0.0,-10.1176319122,9.89244747162,-1.92288827896,0.0420906320214,-0.061834089458,0.00695340521634,-9.38000011444,14.2496109009,-97.2358093262,5.086963653600002,7.221149086948,1.787499427797,6.11694431305,10.176574706999997,-1.871395349499998,0.14249610899999965
2018-07-18 20:30:35.900,0.0516739258059,0.00548892069629,-0.934870214562,-0.0291879586875,-0.0276351720095,-0.0457491837442,0.2549729,0.73549875,10.89518815,0.0,-10.1176319122,9.89244747162,-1.92288827896,0.0420906320214,-0.061834089458,0.00695340521634,-9.38000011444,14.2496109009,-97.2358093262,5.086963653600002,7.221149086948,1.787499427797,6.124668121339999,10.250844233399874,-1.820426464079998,0.14249610899999965
2018-07-18 20:30:35.950,0.0516739258059,0.00548892069629,-0.934870214562,-0.0291879586875,-0.0276351720095,-0.0457491837442,0.2549729,0.73549875,10.89518815,0.0,-10.1176319122,9.89244747162,-1.92288827896,0.0420906320214,-0.061834089458,0.00695340521634,-9.23999977112,15.0369644165,-96.2298278809,4.699996948200003,6.172510683537,3.9399373531300004,6.13532352448,10.295171969299874,-1.805514216419998,0.15036964419999954
2018-07-18 20:30:36.000,0.0516739258059,0.00548892069629,-0.934870214562,-0.0291879586875,-0.0276351720095,-0.0457491837442,0.2549729,0.73549875,10.89518815,0.0,-10.1176319122,9.89244747162,-1.92288827896,0.0420906320214,-0.061834089458,0.00695340521634,-9.23999977112,15.0369644165,-96.2298278809,4.699996948200003,6.172510683537,3.9399373531300004,6.15676498413,10.356271021699873,-1.771457791329998,0.15036964419999954
2018-07-18 20:30:36.050,0.0516739258059,0.00548892069629,-0.934870214562,-0.0291879586875,-0.0276351720095,-0.0457491837442,0.2549729,0.73549875,10.89518815,0.0,-10.4118309021,9.81792926788,-1.76033318043,-0.0291879586875,-0.0276351720095,-0.0457491837442,-9.09000015259,15.7652854919,-95.215461731,4.699996948200003,6.312510669232,4.42993736267,6.15676498413,10.356271021699873,-1.771457791329998,0.15036964419999954
2018-07-18 20:30:36.100,0.0516739258059,0.00548892069629,-0.934870214562,-0.0291879586875,-0.0276351720095,-0.0457491837442,0.2549729,0.73549875,10.89518815,0.0,-10.4118309021,9.81792926788,-1.76033318043,-0.0291879586875,-0.0276351720095,-0.0457491837442,-9.09000015259,15.7652854919,-95.215461731,4.699996948200003,6.312510669232,4.42993736267,6.200847625730001,10.473799937099873,-1.705861926079998,0.15765285490000025
2018-07-18 20:30:36.150,0.0516739258059,0.00548892069629,-0.934870214562,-0.0291879586875,-0.0276351720095,-0.0457491837442,0.2549729,0.73549875,10.89518815,0.0,-10.4118309021,9.81792926788,-1.76033318043,-0.0291879586875,-0.0276351720095,-0.0457491837442,-8.96000003815,12.9062652588,-94.1841812134,4.699996948200003,6.43251073361,4.92993736267,6.211304664609999,10.52018116041979,-1.649095654489998,0.12906265260000005
2018-07-18 20:30:36.200,0.0516739258059,0.00548892069629,-0.934870214562,-0.0291879586875,-0.0276351720095,-0.0457491837442,0.2549729,0.73549875,10.89518815,0.0,-10.4118309021,9.81792926788,-1.76033318043,-0.0291879586875,-0.0276351720095,-0.0457491837442,-8.96000003815,12.9062652588,-94.1841812134,4.699996948200003,6.43251073361,4.92993736267,6.23917388916,10.57423637431979,-1.564103364939998,0.12906265260000005
2018-07-18 20:30:36.250,0.0486907941918,0.0245986922945,-0.93134398021,0.00806129164994,-0.0728892832994,-0.0782803893089,0.08825985,-0.3138128,11.24822755,0.0,-10.622759819,9.73310947418,-1.49442625046,0.00806129164994,-0.0728892832994,-0.0782803893089,-8.82999992371,11.03515625,-93.1547164917,3.5597496032999985,5.29534804822,6.9015879631,6.248044967649999,10.59070919081979,-1.540626764299998,0.1103515625
2018-07-18 20:30:36.300,0.0486907941918,0.0245986922945,-0.93134398021,0.00806129164994,-0.0728892832994,-0.0782803893089,0.08825985,-0.3138128,11.24822755,0.0,-10.622759819,9.73310947418,-1.49442625046,0.00806129164994,-0.0728892832994,-0.0782803893089,-8.82999992371,11.03515625,-93.1547164917,3.5597496032999985,5.29534804822,6.9015879631,6.248044967649999,10.59070919081979,-1.540626764299998,0.1103515625
2018-07-18 20:30:36.350,0.0486907941918,0.0245986922945,-0.93134398021,0.00806129164994,-0.0728892832994,-0.0782803893089,0.08825985,-0.3138128,11.24822755,0.0,-10.622759819,9.73310947418,-1.49442625046,0.00806129164994,-0.0728892832994,-0.0782803893089,-8.71000003815,18.0602073669,-92.1064758301,3.5597496032999985,5.27534806729,7.86158800125,6.2919464111300005,10.66780231521979,-1.450965166089998,0.18060207369999937
2018-07-18 20:30:36.400,0.0486907941918,0.0245986922945,-0.93134398021,0.00806129164994,-0.0728892832994,-0.0782803893089,0.08825985,-0.3138128,11.24822755,0.0,-10.622759819,9.73310947418,-1.49442625046,0.00806129164994,-0.0728892832994,-0.0782803893089,-8.60999965668,25.5911827087,-91.0751342773,3.5597496032999985,5.27534806729,7.871587991709999,6.3349695205700005,10.71631763501979,-1.445087432859998,0.25591182710000027
2018-07-18 20:30:36.450,0.0486907941918,0.0245986922945,-0.93134398021,0.00806129164994,-0.0728892832994,-0.0782803893089,0.08825985,-0.3138128,11.24822755,0.0,-10.622759819,9.73310947418,-1.49442625046,0.00806129164994,-0.0728892832994,-0.0782803893089,-8.60999965668,25.5911827087,-91.0751342773,3.5597496032999985,5.27534806729,8.28158783912,6.3349695205700005,10.71631763501979,-1.445087432859998,0.25591182710000027
2018-07-18 20:30:36.500,0.0486907941918,0.0245986922945,-0.93134398021,0.00806129164994,-0.0728892832994,-0.0782803893089,0.08825985,-0.3138128,11.24822755,0.0,-10.7625865936,9.63227558136,-1.39871406555,0.00806129164994,-0.0728892832994,-0.0782803893089,-8.60999965668,25.5911827087,-91.0751342773,3.5597496032999985,5.215348005300001,8.28158783912,6.38893127441,10.80524967241979,-1.336547970769998,0.25591182710000027
2018-07-18 20:30:36.550,0.0486907941918,0.0245986922945,-0.93134398021,0.00806129164994,-0.0728892832994,-0.0782803893089,0.08825985,-0.3138128,11.24822755,0.0,-10.7625865936,9.63227558136,-1.39871406555,0.00806129164994,-0.0728892832994,-0.0782803893089,-8.60999965668,25.5911827087,-91.0751342773,3.5597496032999985,5.215348005300001,8.28158783912,6.38893127441,10.80524967241979,-1.336547970769998,0.25591182710000027
2018-07-18 20:30:36.600,0.0486907941918,0.0245986922945,-0.93134398021,0.00806129164994,-0.0728892832994,-0.0782803893089,0.08825985,-0.3138128,11.24822755,0.0,-10.7625865936,9.63227558136,-1.39871406555,0.00806129164994,-0.0728892832994,-0.0782803893089,-8.5,32.1378707886,-90.0184402466,3.5597496032999985,5.2553479671500005,8.80158805847,6.439172744719999,10.947376057465,-1.182497978209998,0.3213787078999992
2018-07-18 20:30:36.650,0.0276517818502,0.0183624583084,-0.936992221501,0.162312522531,-0.085956916213,0.135403200984,0.4118793,0.81395195,11.6895268,0.0,-10.7625865936,9.63227558136,-1.39871406555,0.00806129164994,-0.0728892832994,-0.0782803893089,-8.5,32.1378707886,-90.0184402466,3.5597496032999985,5.2553479671500005,8.80158805847,6.453536033599999,10.964991375765,-1.145631909369998,0.3213787078999992
2018-07-18 20:30:36.700,0.0276517818502,0.0183624583084,-0.936992221501,0.162312522531,-0.085956916213,0.135403200984,0.4118793,0.81395195,11.6895268,0.0,-10.7625865936,9.63227558136,-1.39871406555,0.00806129164994,-0.0728892832994,-0.0782803893089,-8.40999984741,31.0806274414,-89.060218811,5.214523315400001,3.27780842781,8.11739230156,6.513705253569999,11.045874401965001,-0.955178201198998,0.31080627440000086
2018-07-18 20:30:36.750,0.0276517818502,0.0183624583084,-0.936992221501,0.162312522531,-0.085956916213,0.135403200984,0.4118793,0.81395195,11.6895268,0.0,-10.9991188049,9.47474384308,-0.913258492947,0.162312522531,-0.085956916213,0.135403200984,-8.32999992371,31.3241004944,-87.9916610718,5.214523315400001,3.0678084492710003,8.62739205361,6.513705253569999,11.045874401965001,-0.955178201198998,0.31080627440000086
2018-07-18 20:30:36.800,0.0276517818502,0.0183624583084,-0.936992221501,0.162312522531,-0.085956916213,0.135403200984,0.4118793,0.81395195,11.6895268,0.0,-10.9991188049,9.47474384308,-0.913258492947,0.162312522531,-0.085956916213,0.135403200984,-8.32999992371,31.3241004944,-87.9916610718,5.214523315400001,3.0678084492710003,9.07739233971,6.57582092282,11.107839390665001,-0.771033108233998,0.31324100490000006
2018-07-18 20:30:36.850,0.0276517818502,0.0183624583084,-0.936992221501,0.162312522531,-0.085956916213,0.135403200984,0.4118793,0.81395195,11.6895268,0.0,-10.9991188049,9.47474384308,-0.913258492947,0.162312522531,-0.085956916213,0.135403200984,-8.27999973297,12.246799469,-86.9062042236,5.214523315400001,2.957808434966,9.07739233971,6.598357200639999,11.186242245100999,-0.687571287154998,0.12246799469999914
2018-07-18 20:30:36.900,0.0276517818502,0.0183624583084,-0.936992221501,0.162312522531,-0.085956916213,0.135403200984,0.4118793,0.81395195,11.6895268,0.0,-10.9991188049,9.47474384308,-0.913258492947,0.162312522531,-0.085956916213,0.135403200984,-8.27999973297,12.246799469,-86.9062042236,5.214523315400001,2.957808434966,9.07739233971,6.6362333298,11.213569782700999,-0.584317803382998,0.12246799469999914
2018-07-18 20:30:36.950,0.0276517818502,0.0183624583084,-0.936992221501,0.162312522531,-0.085956916213,0.135403200984,0.4118793,0.81395195,11.6895268,0.0,-11.111618042,9.33655738831,-0.547533810139,0.162312522531,-0.085956916213,0.135403200984,-8.25,1.61476135254,-85.9120025635,5.214523315400001,2.887808442118,9.73739218712,6.663020133989999,11.227913044401,-0.547533810138998,0.01614761349999938
2018-07-18 20:30:37.000,0.01347211684,0.00835136429314,-0.942772566145,0.0358109921217,-0.021920889616,0.0467465929687,0.02941995,0.6080123,10.52253545,0.0,-11.111618042,9.33655738831,-0.547533810139,0.162312522531,-0.085956916213,0.135403200984,-8.25,1.61476135254,-85.9120025635,5.214523315400001,2.887808442118,9.73739218712,6.689034461999999,11.236771725100999,-0.49705573916399803,0.01614761349999938
2018-07-18 20:30:37.050,0.01347211684,0.00835136429314,-0.942772566145,0.0358109921217,-0.021920889616,0.0467465929687,0.02941995,0.6080123,10.52253545,0.0,-11.111618042,9.33655738831,-0.547533810139,0.162312522531,-0.085956916213,0.135403200984,-8.22999954224,3.87887954712,-84.8320999146,7.071693420400003,1.656781673427,8.436826944349999,6.717893600489999,11.252190731500999,-0.4541662335399981,0.03878879550000036
2018-07-18 20:30:37.100,0.01347211684,0.00835136429314,-0.942772566145,0.0358109921217,-0.021920889616,0.0467465929687,0.02941995,0.6080123,10.52253545,0.0,-11.111618042,9.33655738831,-0.547533810139,0.162312522531,-0.085956916213,0.135403200984,-8.22999954224,3.87887954712,-84.8320999146,7.071693420400003,1.656781673427,8.436826944349999,6.7676296234199995,11.346644788987,-0.4710231423379981,0.03878879550000036
2018-07-18 20:30:37.150,0.01347211684,0.00835136429314,-0.942772566145,0.0358109921217,-0.021920889616,0.0467465929687,0.02941995,0.6080123,10.52253545,0.0,-11.111618042,9.33655738831,-0.547533810139,0.162312522531,-0.085956916213,0.135403200984,-8.22000026703,17.8840637207,-83.872756958,7.071693420400003,1.526781678195,9.11682677269,6.778135299679999,11.345296293487001,-0.49601504206699804,0.17884063720000043
2018-07-18 20:30:37.200,0.01347211684,0.00835136429314,-0.942772566145,0.0358109921217,-0.021920889616,0.0467465929687,0.02941995,0.6080123,10.52253545,0.0,-11.1368408203,9.17768383026,-0.566040754318,0.0358109921217,-0.021920889616,0.0467465929687,-8.22000026703,17.8840637207,-83.872756958,7.071693420400003,1.526781678195,9.11682677269,6.815483093259999,11.340617567287,-0.550888597964998,0.17884063720000043
2018-07-18 20:30:37.250,0.01347211684,0.00835136429314,-0.942772566145,0.0358109921217,-0.021920889616,0.0467465929687,0.02941995,0.6080123,10.52253545,0.0,-11.1368408203,9.17768383026,-0.566040754318,0.0358109921217,-0.021920889616,0.0467465929687,-8.19999980927,22.9965209961,-82.7799987793,7.071693420400003,1.346781685943,9.26682686805,6.830066680909999,11.332183271687,-0.575097858905998,0.2299652099999996
2018-07-18 20:30:37.300,0.01347211684,0.00835136429314,-0.942772566145,0.0358109921217,-0.021920889616,0.0467465929687,0.02941995,0.6080123,10.52253545,0.0,-11.1368408203,9.17768383026,-0.566040754318,0.0358109921217,-0.021920889616,0.0467465929687,-8.19999980927,22.9965209961,-82.7799987793,7.071693420400003,1.346781685943,9.26682686805,6.839965820309999,11.319753080587,-0.553023517131998,0.2299652099999996
2018-07-18 20:30:37.350,0.01347211684,0.00835136429314,-0.942772566145,0.0358109921217,-0.021920889616,0.0467465929687,0.02941995,0.6080123,10.52253545,0.0,-11.1368408203,9.17768383026,-0.566040754318,0.0358109921217,-0.021920889616,0.0467465929687,-8.17000007629,33.1462860107,-81.7041549683,7.071693420400003,1.246781691904,9.26682686805,6.838500976580001,11.424602389379,-0.506528079509998,0.33146286010000026
2018-07-18 20:30:37.400,0.01347211684,0.00835136429314,-0.942772566145,0.0358109921217,-0.021920889616,0.0467465929687,0.02941995,0.6080123,10.52253545,0.0,-11.1368408203,9.17768383026,-0.566040754318,0.0358109921217,-0.021920889616,0.0467465929687,-8.17000007629,33.1462860107,-81.7041549683,7.071693420400003,1.246781691904,9.26682686805,6.84460544587,11.400592684779001,-0.42568328976599806,0.33146286010000026
2018-07-18 20:30:37.450,-0.000819718913964,-0.0142333982518,-0.941322559214,0.334672242403,-0.0234184656292,0.0188375413418,0.10787315,-0.61781895,11.0226746,0.0,-11.0706567764,9.15936946869,-0.370300412178,0.334672242403,-0.0234184656292,0.0188375413418,-8.13999938965,24.550151825,-80.7886123657,7.588535308799997,0.481577713043,6.712755799289999,6.841140747080001,11.387274622879001,-0.38746231794399805,0.24550151819999932
