%time,field.orientation.x,field.orientation.y,field.orientation.z,field.angular_velocity.x,field.angular_velocity.y,field.angular_velocity.z,field.linear_acceleration.x,field.linear_acceleration.y,field.linear_acceleration.z,field.data,field.twist.linear.x,field.twist.linear.y,field.twist.linear.z,field.twist.angular.x,field.twist.angular.y,field.twist.angular.z,field.alt_error,field.aspd_error,field.xtrack_error,delta_yaw,delta_pitch,delta_roll,delta_x,delta_y,delta_z,delta_roll_airspeed
2018-07-30 21:39:02.200,,,,,,,,,,0.0,22.0919895172,3.99571824074,-0.771436452866,-0.441371709108,0.0720178633928,0.0387695357203,,,,,,,,,,
2018-07-30 21:39:02.250,,,,,,,,,,0.0,22.0919895172,3.99571824074,-0.771436452866,-0.441371709108,0.0720178633928,0.0387695357203,0.219999998808,-511.533538818,-36.1074981689,-182.3215179443,-4.79311919212,48.96819639209,-3.9560649395,-22.1370029449,-0.954699873924,-5.115335464499999
2018-07-30 21:39:02.300,,,,,,,,,,0.0,22.0919895172,3.99571824074,-0.771436452866,-0.441371709108,0.0720178633928,0.0387695357203,0.219999998808,-511.533538818,-36.1074981689,-182.3215179443,-4.79311919212,48.96819639209,-3.9560649395,-22.1370029449,-0.954699873924,-5.115335464499999
2018-07-30 21:39:02.350,,,,,,,,,,0.0,22.0919895172,3.99571824074,-0.771436452866,-0.441371709108,0.0720178633928,0.0387695357203,0.319999992847,-507.493408203,-150.516876221,-126.3215179443,-2.9031193256300005,-40.71180009841,12.166583061219999,-22.176803588900004,-1.087015986439998,-5.115335464499999
2018-07-30 21:39:02.400,,,,,,,,,,0.0,22.186674118,3.78566932678,-1.12978196144,-0.441371709108,0.0720178633928,0.0387695357203,0.319999992847,-507.493408203,-150.516876221,-126.3215179443,-2.86311936378,-40.701801776909996,12.33717918396,-22.201648712200004,-1.211720943449998,-4.074934005700001
2018-07-30 21:39:02.450,,,,,,,,,,0.0,22.186674118,3.78566932678,-1.12978196144,-0.441371709108,0.0720178633928,0.0387695357203,0.439999997616,-406.758880615,-152.723144531,-128.4327316284,0.8226253986300001,-63.575422286999995,12.33717918396,-22.201648712200004,-1.211720943449998,-4.074934005700001
2018-07-30 21:39:02.500,-0.160410611356,-0.0352351114761,-0.0434112476724,0.984449326992,0.0255642421544,-0.0160534456372,-0.2157463,-0.89240515,8.5513988,0.0,22.186674118,3.78566932678,-1.12978196144,-0.441371709108,0.0720178633928,0.0387695357203,0.439999997616,-406.758880615,-152.723144531,-128.4327316284,0.8226253986300001,-63.5854206085,12.623440265660001,-22.203807830800002,-1.403586268419998,-4.0675888062
2018-07-30 21:39:02.550,-0.160410611356,-0.0352351114761,-0.0434112476724,0.984449326992,0.0255642421544,-0.0160534456372,-0.2157463,-0.89240515,8.5513988,0.0,22.186674118,3.78566932678,-1.12978196144,-0.441371709108,0.0720178633928,0.0387695357203,0.439999997616,-406.758880615,-152.723144531,-128.4327316284,0.8226253986300001,-63.5854206085,12.623440265660001,-22.203807830800002,-1.403586268419998,-4.0675888062
2018-07-30 21:39:02.600,-0.160410611356,-0.0352351114761,-0.0434112476724,0.984449326992,0.0255642421544,-0.0160534456372,-0.2157463,-0.89240515,8.5513988,0.0,22.186674118,3.78566932678,-1.12978196144,-0.441371709108,0.0720178633928,0.0387695357203,0.579999983311,-410.488311768,-154.971694946,-128.4327316284,2.3626253008830003,-63.615419387799996,12.85973668098,-22.139917373700005,-1.471457362169998,-4.104883193999999
2018-07-30 21:39:02.650,-0.160410611356,-0.0352351114761,-0.0434112476724,0.984449326992,0.0255642421544,-0.0160534456372,-0.2157463,-0.89240515,8.5513988,0.0,22.1321868896,3.11644363403,-1.44622063637,0.984449326992,0.0255642421544,-0.0160534456372,0.740000009537,-420.258728027,-157.169509888,-128.4327316284,3.8626253008830003,-63.625421524,12.88983011246,-22.100175857500002,-1.449580550189998,-4.202587127699999
2018-07-30 21:39:02.700,-0.160410611356,-0.0352351114761,-0.0434112476724,0.984449326992,0.0255642421544,-0.0160534456372,-0.2157463,-0.89240515,8.5513988,0.0,22.1321868896,3.11644363403,-1.44622063637,0.984449326992,0.0255642421544,-0.0160534456372,0.740000009537,-420.258728027,-157.169509888,-128.4327316284,3.8426252603510003,-63.625421524,12.89045619965,-22.056436538700005,-1.377012729639998,-4.202587127699999
2018-07-30 21:39:02.750,-0.160410611356,-0.0352351114761,-0.0434112476724,0.984449326992,0.0255642421544,-0.0160534456372,-0.2157463,-0.89240515,8.5513988,0.0,22.1321868896,3.11644363403,-1.44622063637,0.984449326992,0.0255642421544,-0.0160534456372,0.740000009537,-420.258728027,-157.169509888,-128.4327316284,3.8426252603510003,-63.625421524,12.89045619965,-22.056436538700005,-1.377012729639998,-4.202587127699999
2018-07-30 21:39:02.800,-0.160410611356,-0.0352351114761,-0.0434112476724,0.984449326992,0.0255642421544,-0.0160534456372,-0.2157463,-0.89240515,8.5513988,0.0,22.1321868896,3.11644363403,-1.44622063637,0.984449326992,0.0255642421544,-0.0160534456372,0.879999995232,-446.222686768,-159.384231567,-128.4327316284,5.42262530327,-63.625421524,12.73980545998,-21.903476715100002,-1.274174809459998,-4.4622268677
2018-07-30 21:39:02.850,0.0603512017937,-0.0115690852072,-0.080459217797,-1.25253522396,0.0869359150529,-0.034867323935,-1.30428445,1.20621795,11.26784085,0.0,22.1321868896,3.11644363403,-1.44622063637,0.984449326992,0.0255642421544,-0.0160534456372,1.00999999046,-458.505615234,-161.582046509,-124.8638916016,5.63567769527,-38.17692422866,12.73980545998,-21.903476715100002,-1.274174809459998,-4.4622268677
2018-07-30 21:39:02.900,0.0603512017937,-0.0115690852072,-0.080459217797,-1.25253522396,0.0869359150529,-0.034867323935,-1.30428445,1.20621795,11.26784085,0.0,21.7646121979,3.44335508347,-1.25092661381,-1.25253522396,0.0869359150529,-0.034867323935,1.00999999046,-458.505615234,-161.582046509,-124.8638916016,5.6556776762,-38.17692422866,12.499506950379999,-21.721914291400005,-1.228665947909998,-4.5850563049
2018-07-30 21:39:02.950,0.0603512017937,-0.0115690852072,-0.080459217797,-1.25253522396,0.0869359150529,-0.034867323935,-1.30428445,1.20621795,11.26784085,0.0,21.7646121979,3.44335508347,-1.25092661381,-1.25253522396,0.0869359150529,-0.034867323935,1.11000001431,-455.170837402,-163.762954712,-124.8638916016,5.67567765713,-38.17692422866,12.3667280674,-21.645002365100005,-1.191574454309998,-4.551708221399998
2018-07-30 21:39:03.000,0.0603512017937,-0.0115690852072,-0.080459217797,-1.25253522396,0.0869359150529,-0.034867323935,-1.30428445,1.20621795,11.26784085,0.0,21.7646121979,3.44335508347,-1.25092661381,-1.25253522396,0.0869359150529,-0.034867323935,1.11000001431,-455.170837402,-163.762954712,-124.8638916016,5.36567771435,-38.17692422866,12.18334627151,-21.523601532000004,-1.170077681539998,-4.551708221399998
2018-07-30 21:39:03.050,0.0603512017937,-0.0115690852072,-0.080459217797,-1.25253522396,0.0869359150529,-0.034867323935,-1.30428445,1.20621795,11.26784085,0.0,21.7646121979,3.44335508347,-1.25092661381,-1.25253522396,0.0869359150529,-0.034867323935,1.19999992847,-451.783569336,-165.926925659,-124.8638916016,4.3556777238799995,-38.17692422866,12.00023126602,-21.403638839700005,-1.201993942259998,-4.517835617100001
2018-07-30 21:39:03.100,0.0603512017937,-0.0115690852072,-0.080459217797,-1.25253522396,0.0869359150529,-0.034867323935,-1.30428445,1.20621795,11.26784085,0.0,21.3150978088,4.11147165298,-1.22860491276,-1.25253522396,0.0869359150529,-0.034867323935,1.19999992847,-451.783569336,-165.926925659,-124.8638916016,4.3556777238799995,-38.17692422866,11.94534015656,-21.363348007200003,-1.218861699099998,-4.517835617100001
2018-07-30 21:39:03.150,0.190216492937,-0.00328399152075,-0.0631658690389,-0.571762800217,-0.0169348083436,-0.0777142494917,-1.71616375,-0.3530394,9.01231135,0.0,21.3150978088,4.11147165298,-1.22860491276,-1.25253522396,0.0869359150529,-0.034867323935,1.19999992847,-451.783569336,-165.926925659,-124.8638916016,4.39567768574,-38.18692636486,11.762310504910001,-21.226467132600003,-1.265256524089998,-4.517835617100001
2018-07-30 21:39:03.200,0.190216492937,-0.00328399152075,-0.0631658690389,-0.571762800217,-0.0169348083436,-0.0777142494917,-1.71616375,-0.3530394,9.01231135,0.0,21.3150978088,4.11147165298,-1.22860491276,-1.25253522396,0.0869359150529,-0.034867323935,1.28999996185,-430.113800049,-168.074020386,-126.9592590332,2.96578896046,-23.1120223999,11.4779882431,-21.049158096300005,-1.341530323029998,-4.301137924199999
2018-07-30 21:39:03.250,0.190216492937,-0.00328399152075,-0.0631658690389,-0.571762800217,-0.0169348083436,-0.0777142494917,-1.71616375,-0.3530394,9.01231135,0.0,21.3150978088,4.11147165298,-1.22860491276,-1.25253522396,0.0869359150529,-0.034867323935,1.28999996185,-430.113800049,-168.074020386,-126.9592590332,2.97578895092,-23.1120223999,11.39712762833,-21.001003265400005,-1.349469184879998,-4.301137924199999
2018-07-30 21:39:03.300,0.190216492937,-0.00328399152075,-0.0631658690389,-0.571762800217,-0.0169348083436,-0.0777142494917,-1.71616375,-0.3530394,9.01231135,0.0,21.3150978088,4.11147165298,-1.22860491276,-1.25253522396,0.0869359150529,-0.034867323935,1.37000000477,-407.239929199,-170.187301636,-126.9592590332,1.405788928274,-23.1120223999,11.1627907753,-20.862094879200004,-1.351983785629998,-4.072399139400002
2018-07-30 21:39:03.350,0.190216492937,-0.00328399152075,-0.0631658690389,-0.571762800217,-0.0169348083436,-0.0777142494917,-1.71616375,-0.3530394,9.01231135,0.0,21.3150978088,4.11147165298,-1.22860491276,-1.25253522396,0.0869359150529,-0.034867323935,1.37000000477,-407.239929199,-170.187301636,-126.9592590332,1.405788928274,-23.1120223999,11.1627907753,-20.862094879200004,-1.351983785629998,-4.072399139400002
2018-07-30 21:39:03.400,0.190216492937,-0.00328399152075,-0.0631658690389,-0.571762800217,-0.0169348083436,-0.0777142494917,-1.71616375,-0.3530394,9.01231135,0.0,20.6133022308,5.25821399689,-1.34174644947,-0.571762800217,-0.0169348083436,-0.0777142494917,1.45999991894,-394.437408447,-172.258331299,-126.9592590332,3.14578890801,-23.1120223999,10.74178600311,-20.613302230800002,-1.341746449469998,-3.9443740845000015
2018-07-30 21:39:03.450,0.190216492937,-0.00328399152075,-0.0631658690389,-0.571762800217,-0.0169348083436,-0.0777142494917,-1.71616375,-0.3530394,9.01231135,0.0,20.6133022308,5.25821399689,-1.34174644947,-0.571762800217,-0.0169348083436,-0.0777142494917,1.45999991894,-394.437408447,-172.258331299,-126.9592590332,3.15578889847,-23.1120223999,10.572353363040001,-20.508472442600002,-1.355964183809998,-3.9443740845000015
2018-07-30 21:39:03.500,0.190216492937,-0.00328399152075,-0.0631658690389,-0.571762800217,-0.0169348083436,-0.0777142494917,-1.71616375,-0.3530394,9.01231135,0.0,20.6133022308,5.25821399689,-1.34174644947,-0.571762800217,-0.0169348083436,-0.0777142494917,1.53999996185,-387.114715576,-174.329360962,-126.9592590332,4.8557888269500005,-23.1120223999,10.327167987820001,-20.350858688400002,-1.433138608929998,-3.8711471557999992
2018-07-30 21:39:03.550,0.255899024761,0.00793212677705,-0.100326893369,-0.251866430044,-0.103498607874,0.330687433481,-1.91229675,0.4707192,9.11037785,0.0,20.6133022308,5.25821399689,-1.34174644947,-0.571762800217,-0.0169348083436,-0.0777142494917,1.62999999523,-369.939025879,-176.366516113,-126.9592590332,4.8657888174099995,-23.1020202637,10.15066242218,-20.241052627600002,-1.490645408629998,-3.6993904113999996
2018-07-30 21:39:03.600,0.255899024761,0.00793212677705,-0.100326893369,-0.251866430044,-0.103498607874,0.330687433481,-1.91229675,0.4707192,9.11037785,0.0,20.011510849,6.22951221466,-1.60167336464,-0.251866430044,-0.103498607874,0.330687433481,1.62999999523,-369.939025879,-176.366516113,-122.6321792603,4.298506736749999,-15.357351303099996,9.86562204361,-20.068513870200004,-1.571937680239998,-3.6993904113999996
2018-07-30 21:39:03.650,0.255899024761,0.00793212677705,-0.100326893369,-0.251866430044,-0.103498607874,0.330687433481,-1.91229675,0.4707192,9.11037785,0.0,20.011510849,6.22951221466,-1.60167336464,-0.251866430044,-0.103498607874,0.330687433481,1.7199999094,-355.035400391,-178.369903564,-122.6321792603,3.08850669861,-15.347352981499995,9.67384290695,-19.953748703000002,-1.627401351929998,-3.6993904113999996
2018-07-30 21:39:03.700,0.255899024761,0.00793212677705,-0.100326893369,-0.251866430044,-0.103498607874,0.330687433481,-1.91229675,0.4707192,9.11037785,0.0,20.011510849,6.22951221466,-1.60167336464,-0.251866430044,-0.103498607874,0.330687433481,1.7199999094,-355.035400391,-178.369903564,-122.6321792603,3.08850669861,-15.347352981499995,9.37557077408,-19.777982711800004,-1.691676259039998,-3.5503540039000008
2018-07-30 21:39:03.750,0.255899024761,0.00793212677705,-0.100326893369,-0.251866430044,-0.103498607874,0.330687433481,-1.91229675,0.4707192,9.11037785,0.0,20.011510849,6.22951221466,-1.60167336464,-0.251866430044,-0.103498607874,0.330687433481,1.81999993324,-345.645507812,-180.347869873,-122.6321792603,1.798506736753,-15.337350845300001,9.07284069061,-19.586790084800004,-1.748293757439998,-3.4564552307000014
2018-07-30 21:39:03.800,0.255899024761,0.00793212677705,-0.100326893369,-0.251866430044,-0.103498607874,0.330687433481,-1.91229675,0.4707192,9.11037785,0.0,20.011510849,6.22951221466,-1.60167336464,-0.251866430044,-0.103498607874,0.330687433481,1.81999993324,-345.645507812,-180.347869873,-122.6321792603,1.8085067272170001,-15.327352523799995,8.96773433685,-19.523309707600003,-1.764763355259998,-3.4564552307000014
2018-07-30 21:39:03.850,0.255899024761,0.00793212677705,-0.100326893369,-0.251866430044,-0.103498607874,0.330687433481,-1.91229675,0.4707192,9.11037785,0.0,19.273109436,7.45349121094,-1.8434574604,-0.251866430044,-0.103498607874,0.330687433481,1.81999993324,-345.645507812,-180.347869873,-122.6321792603,1.828506723044,-15.3173503875,8.6526093483,-19.336952209500005,-1.820513486859998,-3.4564552307000014
2018-07-30 21:39:03.900,0.255899024761,0.00793212677705,-0.100326893369,-0.251866430044,-0.103498607874,0.330687433481,-1.91229675,0.4707192,9.11037785,0.0,19.273109436,7.45349121094,-1.8434574604,-0.251866430044,-0.103498607874,0.330687433481,1.92999994755,-334.835632324,-182.300537109,-122.6321792603,0.81850671768,-15.307352066,8.21121501923,-19.077911377000003,-1.908897399899998,-3.3483562469
2018-07-30 21:39:03.950,0.255899024761,0.00793212677705,-0.100326893369,-0.251866430044,-0.103498607874,0.330687433481,-1.91229675,0.4707192,9.11037785,0.0,19.273109436,7.45349121094,-1.8434574604,-0.251866430044,-0.103498607874,0.330687433481,2.05999994278,-312.321655273,-184.210922241,-122.6321792603,-0.10149312019999979,-15.2973499298,7.96811962128,-18.934486389200003,-1.951008319849998,-3.1232166290000016
2018-07-30 21:39:04.000,0.255899024761,0.00793212677705,-0.100326893369,-0.251866430044,-0.103498607874,0.330687433481,-1.91229675,0.4707192,9.11037785,0.0,19.273109436,7.45349121094,-1.8434574604,-0.251866430044,-0.103498607874,0.330687433481,2.05999994278,-312.321655273,-184.210922241,-122.6321792603,-0.08149313927000001,-15.277349471999997,7.62717723846,-18.728816986100004,-2.012531995769998,-3.1232166290000016
2018-07-30 21:39:04.050,0.310514770683,0.0212975856427,-0.189659096474,-0.167784288526,-0.11658667773,0.313790231943,-1.71616375,0.4314926,10.50292215,0.0,19.273109436,7.45349121094,-1.8434574604,-0.251866430044,-0.103498607874,0.330687433481,2.05999994278,-312.321655273,-184.210922241,-122.6321792603,-0.08149313927000001,-15.277349471999997,7.62717723846,-18.728816986100004,-2.012531995769998,-3.1232166290000016
2018-07-30 21:39:04.100,0.310514770683,0.0212975856427,-0.189659096474,-0.167784288526,-0.11658667773,0.313790231943,-1.71616375,0.4314926,10.50292215,0.0,18.3855018616,8.90550804138,-2.12634992599,-0.167784288526,-0.11658667773,0.313790231943,2.19000005722,-295.200164795,-186.079071045,-112.4338302612,1.2704396247800003,-8.821582794199998,7.20383644104,-18.456665039100002,-2.0949623584699983,-2.9520015716999986
2018-07-30 21:39:04.150,0.310514770683,0.0212975856427,-0.189659096474,-0.167784288526,-0.11658667773,0.313790231943,-1.71616375,0.4314926,10.50292215,0.0,18.3855018616,8.90550804138,-2.12634992599,-0.167784288526,-0.11658667773,0.313790231943,2.33999991417,-286.048309326,-187.93031311,-112.4338302612,1.2804398536600003,-8.811584472699998,6.9725933075,-18.311044693000003,-2.153237342829998,-2.8604831695999984
2018-07-30 21:39:04.200,0.310514770683,0.0212975856427,-0.189659096474,-0.167784288526,-0.11658667773,0.313790231943,-1.71616375,0.4314926,10.50292215,0.0,18.3855018616,8.90550804138,-2.12634992599,-0.167784288526,-0.11658667773,0.313790231943,2.33999991417,-286.048309326,-187.93031311,-112.4338302612,0.38043975830000054,-8.791584014900003,6.7294101715100005,-18.158361434900005,-2.207658767699998,-2.8604831695999984
2018-07-30 21:39:04.250,0.310514770683,0.0212975856427,-0.189659096474,-0.167784288526,-0.11658667773,0.313790231943,-1.71616375,0.4314926,10.50292215,0.0,18.3855018616,8.90550804138,-2.12634992599,-0.167784288526,-0.11658667773,0.313790231943,2.50999999046,-277.894012451,-189.739227295,-112.4338302612,-0.42956018447999966,-8.7615814209,6.27805423737,-17.855213165300004,-2.3051803111999982,-2.778940200800001
2018-07-30 21:39:04.300,0.334736372927,0.0284498306398,-0.233150582268,-0.193875938654,-0.116170778871,0.288332074881,-1.87307015,-0.2549729,10.8853815,0.0,18.3855018616,8.90550804138,-2.12634992599,-0.167784288526,-0.11658667773,0.313790231943,2.50999999046,-277.894012451,-189.739227295,-112.4338302612,-0.41956043243999996,-8.741584777900002,6.0717267990099995,-17.710912704500004,-2.3776862621299983,-2.778940200800001
2018-07-30 21:39:04.350,0.334736372927,0.0284498306398,-0.233150582268,-0.193875938654,-0.116170778871,0.288332074881,-1.87307015,-0.2549729,10.8853815,0.0,18.3855018616,8.90550804138,-2.12634992599,-0.167784288526,-0.11658667773,0.313790231943,2.50999999046,-277.894012451,-189.739227295,-112.4338302612,-0.41956043243999996,-8.741584777900002,6.0717267990099995,-17.710912704500004,-2.3776862621299983,-2.778940200800001
2018-07-30 21:39:04.400,0.334736372927,0.0284498306398,-0.233150582268,-0.193875938654,-0.116170778871,0.288332074881,-1.87307015,-0.2549729,10.8853815,0.0,17.3209838867,10.5020027161,-2.53099632263,-0.193875938654,-0.116170778871,0.288332074881,2.69000005722,-266.268341064,-191.514389038,-107.44797515869999,0.3589496612499996,-5.855201721199997,5.4979972839,-17.320983886700002,-2.5309963226299983,-2.6626834869000007
2018-07-30 21:39:04.450,0.334736372927,0.0284498306398,-0.233150582268,-0.193875938654,-0.116170778871,0.288332074881,-1.87307015,-0.2549729,10.8853815,0.0,17.3209838867,10.5020027161,-2.53099632263,-0.193875938654,-0.116170778871,0.288332074881,2.88999986649,-261.757659912,-193.247268677,-107.44797515869999,-0.2510504722600002,-5.825202941899995,5.160867691,-17.087444305400002,-2.5896501541099983,-2.6175765991000013
2018-07-30 21:39:04.500,0.334736372927,0.0284498306398,-0.233150582268,-0.193875938654,-0.116170778871,0.288332074881,-1.87307015,-0.2549729,10.8853815,0.0,17.3209838867,10.5020027161,-2.53099632263,-0.193875938654,-0.116170778871,0.288332074881,2.88999986649,-261.757659912,-193.247268677,-107.44797515869999,-0.2510504722600002,-5.815200805700002,5.046547889699999,-17.007202148400005,-2.6126949787099982,-2.6175765991000013
2018-07-30 21:39:04.550,0.334736372927,0.0284498306398,-0.233150582268,-0.193875938654,-0.116170778871,0.288332074881,-1.87307015,-0.2549729,10.8853815,0.0,17.3209838867,10.5020027161,-2.53099632263,-0.193875938654,-0.116170778871,0.288332074881,2.88999986649,-261.757659912,-193.247268677,-107.44797515869999,-0.2610502243099999,-5.7852020264,4.5193948746,-16.656202316300003,-2.635231018069998,-2.5407619476
2018-07-30 21:39:04.600,0.334736372927,0.0284498306398,-0.233150582268,-0.193875938654,-0.116170778871,0.288332074881,-1.87307015,-0.2549729,10.8853815,0.0,16.3895149231,11.8853816986,-2.60965013504,-0.193875938654,-0.116170778871,0.288332074881,3.1099998951,-254.076202393,-194.946228027,-107.44797515869999,-0.7510504722600002,-5.735202789399999,4.1146183014,-16.389514923100002,-2.609650135039998,-2.5407619476
2018-07-30 21:39:04.650,0.334736372927,0.0284498306398,-0.233150582268,-0.193875938654,-0.116170778871,0.288332074881,-1.87307015,-0.2549729,10.8853815,0.0,16.3895149231,11.8853816986,-2.60965013504,-0.193875938654,-0.116170778871,0.288332074881,3.31999993324,-264.360992432,-196.603042603,-107.44797515869999,-1.1110501289399997,-5.705200195399996,3.8565702438000002,-16.210449218800004,-2.6277513503999983,-2.643610000599999
2018-07-30 21:39:04.700,0.342480680702,0.0352970209668,-0.307102020623,-0.0672197043896,-0.129921630025,0.343296438456,-1.5102241,-0.1765197,11.9444997,0.0,16.3895149231,11.8853816986,-2.60965013504,-0.193875938654,-0.116170778871,0.288332074881,3.31999993324,-264.360992432,-196.603042603,-107.44797515869999,-1.1110501289399997,-5.705200195399996,3.7312173843000007,-16.119291305500003,-2.640821933749998,-2.643610000599999
2018-07-30 21:39:04.750,0.342480680702,0.0352970209668,-0.307102020623,-0.0672197043896,-0.129921630025,0.343296438456,-1.5102241,-0.1765197,11.9444997,0.0,16.3895149231,11.8853816986,-2.60965013504,-0.193875938654,-0.116170778871,0.288332074881,3.31999993324,-264.360992432,-196.603042603,-98.8709030151,1.4048762321499995,-4.998424530100003,3.3741550446,-15.858750343300004,-2.6619243621799984,-2.643610000599999
2018-07-30 21:39:04.800,0.342480680702,0.0352970209668,-0.307102020623,-0.0672197043896,-0.129921630025,0.343296438456,-1.5102241,-0.1765197,11.9444997,0.0,16.3895149231,11.8853816986,-2.60965013504,-0.193875938654,-0.116170778871,0.288332074881,3.53999996185,-244.345275879,-198.200668335,-98.8709030151,0.9348759651199989,-4.938423156799999,3.0182189940999997,-15.595443725600003,-2.725728988649998,-2.4434528351000004
2018-07-30 21:39:04.850,0.342480680702,0.0352970209668,-0.307102020623,-0.0672197043896,-0.129921630025,0.343296438456,-1.5102241,-0.1765197,11.9444997,0.0,15.2249326706,13.4670228958,-2.75746822357,-0.0672197043896,-0.129921630025,0.343296438456,3.75999999046,-237.389373779,-199.772949219,-98.8709030151,0.5548758506799993,-4.878421783500002,2.6630582808999996,-15.323432922400004,-2.761070489879998,-2.3738937377999996
2018-07-30 21:39:04.900,0.342480680702,0.0352970209668,-0.307102020623,-0.0672197043896,-0.129921630025,0.343296438456,-1.5102241,-0.1765197,11.9444997,0.0,15.2249326706,13.4670228958,-2.75746822357,-0.0672197043896,-0.129921630025,0.343296438456,3.75999999046,-237.389373779,-199.772949219,-98.8709030151,0.5548758506799993,-4.848423004200001,2.4114589691,-15.136045455900003,-2.750213384629998,-2.3738937377999996
2018-07-30 21:39:04.950,0.342480680702,0.0352970209668,-0.307102020623,-0.0672197043896,-0.129921630025,0.343296438456,-1.5102241,-0.1765197,11.9444997,0.0,15.2249326706,13.4670228958,-2.75746822357,-0.0672197043896,-0.129921630025,0.343296438456,3.75999999046,-237.389373779,-199.772949219,-98.8709030151,0.5548758506799993,-4.808422088699999,2.153910636899999,-14.937075614900003,-2.751945018769998,-2.3498859406
2018-07-30 21:39:05.000,0.342480680702,0.0352970209668,-0.307102020623,-0.0672197043896,-0.129921630025,0.343296438456,-1.5102241,-0.1765197,11.9444997,0.0,15.2249326706,13.4670228958,-2.75746822357,-0.0672197043896,-0.129921630025,0.343296438456,3.99000000954,-234.988586426,-201.319869995,-98.8709030151,0.22487640380999885,-4.748424530100003,1.7957906723000008,-14.647247314500003,-2.7533297538799983,-2.3498859406
2018-07-30 21:39:05.050,0.342480680702,0.0352970209668,-0.307102020623,-0.0672197043896,-0.129921630025,0.343296438456,-1.5102241,-0.1765197,11.9444997,0.0,15.2249326706,13.4670228958,-2.75746822357,-0.0672197043896,-0.129921630025,0.343296438456,4.21999979019,-241.754150391,-202.782211304,-98.8709030151,-0.10512351990000113,-4.648422241200002,1.4050292969000004,-14.294476509100004,-2.886113166809998,-2.4175415039000008
2018-07-30 21:39:05.100,0.342480680702,0.0352970209668,-0.307102020623,-0.0672197043896,-0.129921630025,0.343296438456,-1.5102241,-0.1765197,11.9444997,0.0,14.2059001923,14.6904497147,-2.92341661453,-0.0672197043896,-0.129921630025,0.343296438456,4.21999979019,-241.754150391,-202.782211304,-98.8709030151,-0.10512351990000113,-4.648422241200002,1.4050292969000004,-14.294476509100004,-2.886113166809998,-2.4175415039000008
2018-07-30 21:39:05.150,0.342480680702,0.0352970209668,-0.307102020623,-0.0672197043896,-0.129921630025,0.343296438456,-1.5102241,-0.1765197,11.9444997,0.0,14.2059001923,14.6904497147,-2.92341661453,-0.0672197043896,-0.129921630025,0.343296438456,4.46000003815,-215.821655273,-204.21925354,-98.8709030151,-0.46512413025000043,-4.5484237671000045,1.1152057648000007,-14.023166656500004,-2.981892108919998,-2.1582164764
2018-07-30 21:39:05.200,0.355727495841,0.0424091969273,-0.399185276851,-0.150964364409,-0.200084164739,0.392437845469,-1.6475172,-0.18632635,10.002783,0.0,14.2059001923,14.6904497147,-2.92341661453,-0.0672197043896,-0.129921630025,0.343296438456,4.46000003815,-215.821655273,-204.21925354,-87.9103622437,3.3140277862299996,-3.514015197799999,1.1152057648000007,-14.023166656500004,-2.981892108919998,-2.1582164764
2018-07-30 21:39:05.250,0.355727495841,0.0424091969273,-0.399185276851,-0.150964364409,-0.200084164739,0.392437845469,-1.6475172,-0.18632635,10.002783,0.0,14.2059001923,14.6904497147,-2.92341661453,-0.0672197043896,-0.129921630025,0.343296438456,4.46000003815,-215.821655273,-204.21925354,-87.9103622437,3.3140277862299996,-3.514015197799999,0.7426586150999999,-13.658905029300003,-3.1469354629499984,-2.1582164764
2018-07-30 21:39:05.300,0.355727495841,0.0424091969273,-0.399185276851,-0.150964364409,-0.200084164739,0.392437845469,-1.6475172,-0.18632635,10.002783,0.0,13.2069740295,15.6893987656,-3.33643269539,-0.150964364409,-0.200084164739,0.392437845469,4.71999979019,-211.182785034,-205.613891602,-87.9103622437,2.9840278625300005,-3.4140167235999996,0.39065265660000037,-13.296929359400004,-3.2817888259899983,-2.111827850299999
2018-07-30 21:39:05.350,0.355727495841,0.0424091969273,-0.399185276851,-0.150964364409,-0.200084164739,0.392437845469,-1.6475172,-0.18632635,10.002783,0.0,13.2069740295,15.6893987656,-3.33643269539,-0.150964364409,-0.200084164739,0.392437845469,5.0,-209.980010986,-206.957931519,-87.9103622437,2.7440280914099997,-3.314018249500002,0.39065265660000037,-13.296929359400004,-3.2817888259899983,-2.111827850299999
2018-07-30 21:39:05.400,0.355727495841,0.0424091969273,-0.399185276851,-0.150964364409,-0.200084164739,0.392437845469,-1.6475172,-0.18632635,10.002783,0.0,13.2069740295,15.6893987656,-3.33643269539,-0.150964364409,-0.200084164739,0.392437845469,5.0,-209.980010986,-206.957931519,-87.9103622437,2.7440280914099997,-3.314018249500002,-0.03787612920000072,-12.823694229100003,-3.5071947574599984,-2.0998001098999985
2018-07-30 21:39:05.450,0.355727495841,0.0424091969273,-0.399185276851,-0.150964364409,-0.200084164739,0.392437845469,-1.6475172,-0.18632635,10.002783,0.0,13.2069740295,15.6893987656,-3.33643269539,-0.150964364409,-0.200084164739,0.392437845469,5.0,-209.980010986,-206.957931519,-87.9103622437,2.754027366620001,-3.254016876199998,-0.03787612920000072,-12.823694229100003,-3.5071947574599984,-2.0998001098999985
2018-07-30 21:39:05.500,0.366566830665,0.0533795539966,-0.45534189593,-0.0977346748114,-0.240754574537,0.375668734312,-1.6475172,-0.3334261,9.218251,0.0,13.2069740295,15.6893987656,-3.33643269539,-0.150964364409,-0.200084164739,0.392437845469,5.2999997139,-193.44291687,-208.268081665,-80.74285888669999,4.533409118649999,-2.129695892299999,-0.46199607850000035,-12.314515113800004,-3.730620384219998,-1.9344291686999995
2018-07-30 21:39:05.550,0.366566830665,0.0533795539966,-0.45534189593,-0.0977346748114,-0.240754574537,0.375668734312,-1.6475172,-0.3334261,9.218251,0.0,13.2069740295,15.6893987656,-3.33643269539,-0.150964364409,-0.200084164739,0.392437845469,5.6299996376,-209.626190186,-209.51914978,-80.74285888669999,4.433409690849999,-2.069694519099997,-0.46199607850000035,-12.314515113800004,-3.730620384219998,-1.9344291686999995
2018-07-30 21:39:05.600,0.366566830665,0.0533795539966,-0.45534189593,-0.0977346748114,-0.240754574537,0.375668734312,-1.6475172,-0.3334261,9.218251,0.0,11.8399515152,16.8512439728,-3.84432768822,-0.0977346748114,-0.240754574537,0.375668734312,5.6299996376,-209.626190186,-209.51914978,-80.74285888669999,4.44340896606,-2.0396957398000026,-0.9511871338000013,-11.716635704000003,-3.864909172059998,-2.0962619780999994
2018-07-30 21:39:05.650,0.366566830665,0.0533795539966,-0.45534189593,-0.0977346748114,-0.240754574537,0.375668734312,-1.6475172,-0.3334261,9.218251,0.0,11.8399515152,16.8512439728,-3.84432768822,-0.0977346748114,-0.240754574537,0.375668734312,5.6299996376,-209.626190186,-209.51914978,-80.74285888669999,4.453409194939999,-2.0196952820000007,-1.1733016967999994,-11.436468124400003,-3.878084659579998,-2.0962619780999994
2018-07-30 21:39:05.700,0.366566830665,0.0533795539966,-0.45534189593,-0.0977346748114,-0.240754574537,0.375668734312,-1.6475172,-0.3334261,9.218251,0.0,11.8399515152,16.8512439728,-3.84432768822,-0.0977346748114,-0.240754574537,0.375668734312,5.96999979019,-230.360992432,-210.711044312,-80.74285888669999,4.56340885162,-2.0196952820000007,-1.4994869231999992,-11.015473365800004,-3.9002134799999983,-2.3036098480000007
2018-07-30 21:39:05.750,0.366566830665,0.0533795539966,-0.45534189593,-0.0977346748114,-0.240754574537,0.375668734312,-1.6475172,-0.3334261,9.218251,0.0,11.8399515152,16.8512439728,-3.84432768822,-0.0977346748114,-0.240754574537,0.375668734312,6.31999969482,-261.098083496,-211.826690674,-80.74285888669999,4.85340976715,-2.0296974182000014,-1.914344787600001,-10.438816070600003,-3.944919824599998,-2.6109809874999996
2018-07-30 21:39:05.800,0.366566830665,0.0533795539966,-0.45534189593,-0.0977346748114,-0.240754574537,0.375668734312,-1.6475172,-0.3334261,9.218251,0.0,10.3002996445,17.9962615967,-3.98736262321,-0.0977346748114,-0.240754574537,0.375668734312,6.31999969482,-261.098083496,-211.826690674,-80.74285888669999,4.85340976715,-2.0296974182000014,-1.914344787600001,-10.438816070600003,-3.944919824599998,-2.6109809874999996
2018-07-30 21:39:05.850,0.378787095094,0.0843735466803,-0.51070963363,-0.216244220734,-0.253282219172,0.218347892165,-1.9024901,0.61781895,10.7088618,0.0,10.3002996445,17.9962615967,-3.98736262321,-0.0977346748114,-0.240754574537,0.375668734312,6.67999982834,-286.158935547,-212.874893188,-72.7051582336,5.69819831847,0.11250686649999864,-2.0765247345000013,-10.167093277000003,-4.0336985588099985,-2.6109809874999996
2018-07-30 21:39:05.900,0.378787095094,0.0843735466803,-0.51070963363,-0.216244220734,-0.253282219172,0.218347892165,-1.9024901,0.61781895,10.7088618,0.0,10.3002996445,17.9962615967,-3.98736262321,-0.0977346748114,-0.240754574537,0.375668734312,6.67999982834,-286.158935547,-212.874893188,-72.7051582336,5.69819831847,0.11250686649999864,-2.268547058100001,-9.857441902160003,-4.056233882899998,-2.861589431799999
2018-07-30 21:39:05.950,0.378787095094,0.0843735466803,-0.51070963363,-0.216244220734,-0.253282219172,0.218347892165,-1.9024901,0.61781895,10.7088618,0.0,10.3002996445,17.9962615967,-3.98736262321,-0.0977346748114,-0.240754574537,0.375668734312,7.0499997139,-310.983459473,-213.855361938,-72.7051582336,5.94819831847,-0.0074920654000010245,-2.268547058100001,-9.857441902160003,-4.056233882899998,-2.861589431799999
2018-07-30 21:39:06.000,0.378787095094,0.0843735466803,-0.51070963363,-0.216244220734,-0.253282219172,0.218347892165,-1.9024901,0.61781895,10.7088618,0.0,10.3002996445,17.9962615967,-3.98736262321,-0.0977346748114,-0.240754574537,0.375668734312,7.0499997139,-310.983459473,-213.855361938,-72.7051582336,5.94819831847,-0.0074920654000010245,-2.860042572000001,-8.863626480100004,-4.112003326419998,-3.1098346710000015
2018-07-30 21:39:06.050,0.378787095094,0.0843735466803,-0.51070963363,-0.216244220734,-0.253282219172,0.218347892165,-1.9024901,0.61781895,10.7088618,0.0,8.45201015472,19.0932388306,-4.10293531418,-0.216244220734,-0.253282219172,0.218347892165,7.41999959946,-336.199951172,-214.768295288,-72.7051582336,6.288198471060001,-0.07749176019999737,-2.860042572000001,-8.863626480100004,-4.112003326419998,-3.1098346710000015
2018-07-30 21:39:06.100,0.378787095094,0.0843735466803,-0.51070963363,-0.216244220734,-0.253282219172,0.218347892165,-1.9024901,0.61781895,10.7088618,0.0,8.45201015472,19.0932388306,-4.10293531418,-0.216244220734,-0.253282219172,0.218347892165,7.41999959946,-336.199951172,-214.768295288,-72.7051582336,6.268198966970001,-0.0974922179999993,-3.238420486500001,-8.176125526430004,-4.109562396999999,-3.3619995116999988
2018-07-30 21:39:06.150,0.345900384268,0.0969778685219,-0.550359552694,0.113095380366,-0.281240254641,0.242874309421,-1.8632635,-0.26477955,12.20927925,0.0,8.45201015472,19.0932388306,-4.10293531418,-0.216244220734,-0.253282219172,0.218347892165,7.41999959946,-336.199951172,-214.768295288,-72.7051582336,6.25819873809,-0.10749435419999998,-3.3872947692999986,-7.895874500270003,-4.091617584229998,-3.3619995116999988
2018-07-30 21:39:06.200,0.345900384268,0.0969778685219,-0.550359552694,0.113095380366,-0.281240254641,0.242874309421,-1.8632635,-0.26477955,12.20927925,0.0,8.45201015472,19.0932388306,-4.10293531418,-0.216244220734,-0.253282219172,0.218347892165,7.7999997139,-341.452026367,-215.613616943,-66.71655082699999,5.23546123509,-3.536003112800003,-3.523286819500001,-7.625203609470003,-4.071673870089998,-3.4145202636999983
2018-07-30 21:39:06.250,0.345900384268,0.0969778685219,-0.550359552694,0.113095380366,-0.281240254641,0.242874309421,-1.8632635,-0.26477955,12.20927925,0.0,7.05779647827,19.8008766174,-4.03059434891,0.113095380366,-0.281240254641,0.242874309421,8.17000007629,-361.037261963,-216.382644653,-66.71655082699999,5.555460929920001,-3.5260009766000024,-3.8008766174,-7.057796478270004,-4.0305943489099985,-3.6103725432999987
2018-07-30 21:39:06.300,0.345900384268,0.0969778685219,-0.550359552694,0.113095380366,-0.281240254641,0.242874309421,-1.8632635,-0.26477955,12.20927925,0.0,7.05779647827,19.8008766174,-4.03059434891,0.113095380366,-0.281240254641,0.242874309421,8.17000007629,-361.037261963,-216.382644653,-66.71655082699999,5.555460929920001,-3.5260009766000024,-3.9290237427,-6.777787685390003,-4.006370067599998,-3.6103725432999987
2018-07-30 21:39:06.350,0.345900384268,0.0969778685219,-0.550359552694,0.113095380366,-0.281240254641,0.242874309421,-1.8632635,-0.26477955,12.20927925,0.0,7.05779647827,19.8008766174,-4.03059434891,0.113095380366,-0.281240254641,0.242874309421,8.17000007629,-361.037261963,-216.382644653,-66.71655082699999,5.555460929920001,-3.496002197300001,-4.047143936200001,-6.504686355590003,-3.985018253329998,-3.6123180389
2018-07-30 21:39:06.400,0.345900384268,0.0969778685219,-0.550359552694,0.113095380366,-0.281240254641,0.242874309421,-1.8632635,-0.26477955,12.20927925,0.0,7.05779647827,19.8008766174,-4.03059434891,0.113095380366,-0.281240254641,0.242874309421,8.52999973297,-361.231811523,-217.084259033,-66.71655082699999,5.84546136861,-3.4659996032999985,-4.2108268737999985,-6.096731185910004,-3.985359430309998,-3.6123180389
2018-07-30 21:39:06.450,0.345900384268,0.0969778685219,-0.550359552694,0.113095380366,-0.281240254641,0.242874309421,-1.8632635,-0.26477955,12.20927925,0.0,7.05779647827,19.8008766174,-4.03059434891,0.113095380366,-0.281240254641,0.242874309421,8.52999973297,-361.231811523,-217.084259033,-66.71655082699999,5.84546136861,-3.4659996032999985,-4.2108268737999985,-6.096731185910004,-3.985359430309998,-3.6123180389
2018-07-30 21:39:06.500,0.345900384268,0.0969778685219,-0.550359552694,0.113095380366,-0.281240254641,0.242874309421,-1.8632635,-0.26477955,12.20927925,0.0,5.39185905457,20.4529361725,-3.99839949608,0.113095380366,-0.281240254641,0.242874309421,8.88999938965,-366.466705322,-217.718231201,-66.71655082699999,6.07546138768,-3.4160003662000022,-4.4055538176999995,-5.539689540860004,-3.988981246949998,-3.6646671294999997
2018-07-30 21:39:06.550,0.345900384268,0.0969778685219,-0.550359552694,0.113095380366,-0.281240254641,0.242874309421,-1.8632635,-0.26477955,12.20927925,0.0,5.39185905457,20.4529361725,-3.99839949608,0.113095380366,-0.281240254641,0.242874309421,8.88999938965,-366.466705322,-217.718231201,-66.71655082699999,6.07546138768,-3.4160003662000022,-4.4055538176999995,-5.539689540860004,-3.988981246949998,-3.6646671294999997
2018-07-30 21:39:06.600,0.345900384268,0.0969778685219,-0.550359552694,0.113095380366,-0.281240254641,0.242874309421,-1.8632635,-0.26477955,12.20927925,0.0,5.39185905457,20.4529361725,-3.99839949608,0.113095380366,-0.281240254641,0.242874309421,9.25,-363.299377441,-218.276107788,-66.71655082699999,6.24546146398,-3.386001586900001,-4.623971939099999,-4.806841373440004,-4.033193588259998,-3.6329936981000017
2018-07-30 21:39:06.650,0.345900384268,0.0969778685219,-0.550359552694,0.113095380366,-0.281240254641,0.242874309421,-1.8632635,-0.26477955,12.20927925,0.0,5.39185905457,20.4529361725,-3.99839949608,0.113095380366,-0.281240254641,0.242874309421,9.60999965668,-372.075256348,-218.749298096,-66.71655082699999,6.2654614449,-3.3560028077000013,-4.734333038300001,-4.3540763855000035,-4.038952350619998,-3.7207527161000016
2018-07-30 21:39:06.700,0.342086948534,0.14593878145,-0.650642990419,-0.190086215734,-0.340814948082,0.34193277359,-2.02997655,-0.38245935,12.1406327,0.0,5.39185905457,20.4529361725,-3.99839949608,0.113095380366,-0.281240254641,0.242874309421,9.60999965668,-372.075256348,-218.749298096,-66.71655082699999,6.35546112065,-3.3560028077000013,-4.8585700989,-3.8431062698400034,-4.019531726839999,-3.7207527161000016
2018-07-30 21:39:06.750,0.342086948534,0.14593878145,-0.650642990419,-0.190086215734,-0.340814948082,0.34193277359,-2.02997655,-0.38245935,12.1406327,0.0,3.24463915825,20.998626709,-3.93381643295,-0.190086215734,-0.340814948082,0.34193277359,9.97999954224,-383.187103271,-219.163482666,-50.57023620605,7.630469322250001,-1.9809722900999986,-4.998626709,-3.2446391582500036,-3.9338164329499983,-3.8318710327000005
2018-07-30 21:39:06.800,0.342086948534,0.14593878145,-0.650642990419,-0.190086215734,-0.340814948082,0.34193277359,-2.02997655,-0.38245935,12.1406327,0.0,3.24463915825,20.998626709,-3.93381643295,-0.190086215734,-0.340814948082,0.34193277359,9.97999954224,-383.187103271,-219.163482666,-50.57023620605,7.630469322250001,-1.990970611599998,-5.0488986969,-3.0308160781900035,-3.8805146217299984,-3.8318710327000005
2018-07-30 21:39:06.850,0.342086948534,0.14593878145,-0.650642990419,-0.190086215734,-0.340814948082,0.34193277359,-2.02997655,-0.38245935,12.1406327,0.0,3.24463915825,20.998626709,-3.93381643295,-0.190086215734,-0.340814948082,0.34193277359,10.3400001526,-412.804229736,-219.467803955,-50.57023620605,7.9604697228,-2.0409698485999996,-5.225843429600001,-2.2061464786500036,-3.7136731147799984,-4.128042221099999
2018-07-30 21:39:06.900,0.342086948534,0.14593878145,-0.650642990419,-0.190086215734,-0.340814948082,0.34193277359,-2.02997655,-0.38245935,12.1406327,0.0,3.24463915825,20.998626709,-3.93381643295,-0.190086215734,-0.340814948082,0.34193277359,10.3400001526,-412.804229736,-219.467803955,-50.57023620605,7.9604697228,-2.0409698485999996,-5.286355972300001,-1.8116453886000035,-3.6674573421499983,-4.128042221099999
2018-07-30 21:39:06.950,0.342086948534,0.14593878145,-0.650642990419,-0.190086215734,-0.340814948082,0.34193277359,-2.02997655,-0.38245935,12.1406327,0.0,3.24463915825,20.998626709,-3.93381643295,-0.190086215734,-0.340814948082,0.34193277359,10.3400001526,-412.804229736,-219.467803955,-50.57023620605,7.9604697228,-2.0409698485999996,-5.286355972300001,-1.8116453886000035,-3.6674573421499983,-4.128042221099999
2018-07-30 21:39:07.000,0.342086948534,0.14593878145,-0.650642990419,-0.190086215734,-0.340814948082,0.34193277359,-2.02997655,-0.38245935,12.1406327,0.0,1.03307020664,21.3416137695,-3.71913385391,-0.190086215734,-0.340814948082,0.34193277359,10.6700000763,-422.11227417,-219.66204834,-50.57023620605,7.9904694557700005,-2.0809707641999964,-5.335668563799999,-1.1814752817200036,-3.6981856822999983,-4.2211227417
2018-07-30 21:39:07.050,0.342086948534,0.14593878145,-0.650642990419,-0.190086215734,-0.340814948082,0.34193277359,-2.02997655,-0.38245935,12.1406327,0.0,1.03307020664,21.3416137695,-3.71913385391,-0.190086215734,-0.340814948082,0.34193277359,11.0100002289,-405.910888672,-219.77192688,-50.57023620605,7.81046962743,-2.1409721375000004,-5.3472442626999985,-0.7239171862600036,-3.765142917629998,-4.2211227417
2018-07-30 21:39:07.100,0.342086948534,0.14593878145,-0.650642990419,-0.190086215734,-0.340814948082,0.34193277359,-2.02997655,-0.38245935,12.1406327,0.0,1.03307020664,21.3416137695,-3.71913385391,-0.190086215734,-0.340814948082,0.34193277359,11.0100002289,-405.910888672,-219.77192688,-50.57023620605,7.81046962743,-2.1409721375000004,-5.363182067899999,-0.22736383974600355,-3.7763555049899984,-4.0591087341000005
2018-07-30 21:39:07.150,0.342086948534,0.14593878145,-0.650642990419,-0.190086215734,-0.340814948082,0.34193277359,-2.02997655,-0.38245935,12.1406327,0.0,1.03307020664,21.3416137695,-3.71913385391,-0.190086215734,-0.340814948082,0.34193277359,11.3599996567,-404.947265625,-219.805664062,-50.57023620605,7.80046939855,-2.190971374500002,-5.3751354218,0.12206366658199645,-3.7445974349999984,-4.049472808800001
2018-07-30 21:39:07.200,0.314337890084,0.188291874779,-0.71538449346,-0.216379210353,-0.365397751331,0.252274125814,-1.87307015,-0.3138128,12.8467115,0.0,1.03307020664,21.3416137695,-3.71913385391,-0.190086215734,-0.340814948082,0.34193277359,11.3599996567,-404.947265625,-219.805664062,-50.57023620605,7.70046949391,-2.240970611599998,-5.3915653229,0.6782917380329965,-3.6797804832499983,-4.049472808800001
2018-07-30 21:39:07.250,0.314337890084,0.188291874779,-0.71538449346,-0.216379210353,-0.365397751331,0.252274125814,-1.87307015,-0.3138128,12.8467115,0.0,-1.44182693958,21.3843669891,-3.56515002251,-0.216379210353,-0.365397751331,0.252274125814,11.6899995804,-410.779174805,-219.738037109,-38.43589401245,6.1638817786999995,-2.584018707200002,-5.389013290400001,1.2659753560999965,-3.595190286639998,-4.107791900599999
2018-07-30 21:39:07.300,0.314337890084,0.188291874779,-0.71538449346,-0.216379210353,-0.365397751331,0.252274125814,-1.87307015,-0.3138128,12.8467115,0.0,-1.44182693958,21.3843669891,-3.56515002251,-0.216379210353,-0.365397751331,0.252274125814,11.6899995804,-410.779174805,-219.738037109,-38.43589401245,6.1638817786999995,-2.6140213011999975,-5.3743038176999995,1.8200306892399964,-3.5017471313499984,-4.107791900599999
2018-07-30 21:39:07.350,0.314337890084,0.188291874779,-0.71538449346,-0.216379210353,-0.365397751331,0.252274125814,-1.87307015,-0.3138128,12.8467115,0.0,-1.44182693958,21.3843669891,-3.56515002251,-0.216379210353,-0.365397751331,0.252274125814,12.0199995041,-415.535339355,-219.585876465,-38.43589401245,6.1638817786999995,-2.6340179442999982,-5.3572502136,1.99675236269979,-3.489046812059998,-4.155353546099999
2018-07-30 21:39:07.400,0.314337890084,0.188291874779,-0.71538449346,-0.216379210353,-0.365397751331,0.252274125814,-1.87307015,-0.3138128,12.8467115,0.0,-1.44182693958,21.3843669891,-3.56515002251,-0.216379210353,-0.365397751331,0.252274125814,12.0199995041,-415.535339355,-219.585876465,-38.43589401245,5.94388151167,-2.664020538300001,-5.3572502136,1.99675236269979,-3.489046812059998,-4.155353546099999
2018-07-30 21:39:07.450,0.314337890084,0.188291874779,-0.71538449346,-0.216379210353,-0.365397751331,0.252274125814,-1.87307015,-0.3138128,12.8467115,0.0,-1.44182693958,21.3843669891,-3.56515002251,-0.216379210353,-0.365397751331,0.252274125814,12.0199995041,-415.535339355,-219.585876465,-38.43589401245,5.94388151167,-2.664020538300001,-5.275394439700001,2.66180847212979,-3.497564792629998,-4.155353546099999
2018-07-30 21:39:07.500,0.314337890084,0.188291874779,-0.71538449346,-0.216379210353,-0.365397751331,0.252274125814,-1.87307015,-0.3138128,12.8467115,0.0,-3.3401787281,21.1824569702,-3.4707403183,-0.216379210353,-0.365397751331,0.252274125814,12.3400001526,-405.248443604,-219.333755493,-38.43589401245,5.60388135908,-2.6840209961000028,-5.2091979980000005,3.16431162878979,-3.481137037279998,-4.052484512300001
2018-07-30 21:39:07.550,0.314337890084,0.188291874779,-0.71538449346,-0.216379210353,-0.365397751331,0.252274125814,-1.87307015,-0.3138128,12.8467115,0.0,-3.3401787281,21.1824569702,-3.4707403183,-0.216379210353,-0.365397751331,0.252274125814,12.3400001526,-405.248443604,-219.333755493,-38.43589401245,5.593881607029999,-2.704021453800003,-5.121400833100001,3.71923373266979,-3.434368610379998,-4.052484512300001
2018-07-30 21:39:07.600,0.314337890084,0.188291874779,-0.71538449346,-0.216379210353,-0.365397751331,0.252274125814,-1.87307015,-0.3138128,12.8467115,0.0,-3.3401787281,21.1824569702,-3.4707403183,-0.216379210353,-0.365397751331,0.252274125814,12.6599998474,-393.393707275,-219.003952026,-38.43589401245,5.3238816261099995,-2.714019775400004,-5.025361061100002,4.365104816851001,-3.363780260089998,-3.933937072799999
2018-07-30 21:39:07.650,0.289998001966,0.223060248691,-0.765852799652,-0.0241339355707,-0.312738776207,0.313313156366,-1.6671305,-0.81395195,13.2978174,0.0,-3.3401787281,21.1824569702,-3.4707403183,-0.216379210353,-0.365397751331,0.252274125814,12.6599998474,-393.393707275,-219.003952026,-38.43589401245,5.313881397229999,-2.7240180969000036,-4.956423759400002,4.687842510641,-3.3454046249399982,-3.933937072799999
2018-07-30 21:39:07.700,0.289998001966,0.223060248691,-0.765852799652,-0.0241339355707,-0.312738776207,0.313313156366,-1.6671305,-0.81395195,13.2978174,0.0,-3.3401787281,21.1824569702,-3.4707403183,-0.216379210353,-0.365397751331,0.252274125814,12.9699993134,-402.844818115,-218.74647522,-27.8182563782,3.91211605072,-2.538913726800004,-4.877268791200001,5.025049827991,-3.3300302028699984,-4.028448104900001
2018-07-30 21:39:07.750,0.289998001966,0.223060248691,-0.765852799652,-0.0241339355707,-0.312738776207,0.313313156366,-1.6671305,-0.81395195,13.2978174,0.0,-3.3401787281,21.1824569702,-3.4707403183,-0.216379210353,-0.365397751331,0.252274125814,13.279999733,-395.005981445,-218.223953247,-27.8182563782,3.572115898129999,-1.888916015600003,-4.7033586502,5.695023678241,-3.256506204609998,-3.9500598907000004
2018-07-30 21:39:07.800,0.289998001966,0.223060248691,-0.765852799652,-0.0241339355707,-0.312738776207,0.313313156366,-1.6671305,-0.81395195,13.2978174,0.0,-5.57872867584,20.7029361725,-3.25650620461,-0.0241339355707,-0.312738776207,0.313313156366,13.279999733,-395.005981445,-218.223953247,-27.8182563782,3.56211566925,-1.8689155578000012,-4.557881355299999,6.187518738211001,-3.222493410109998,-3.9500598907000004
2018-07-30 21:39:07.850,0.289998001966,0.223060248691,-0.765852799652,-0.0241339355707,-0.312738776207,0.313313156366,-1.6671305,-0.81395195,13.2978174,0.0,-5.57872867584,20.7029361725,-3.25650620461,-0.0241339355707,-0.312738776207,0.313313156366,13.5799999237,-388.26751709,-217.617126465,-27.8182563782,3.26211547852,0.21108627319999584,-4.451051712,6.727689623829,-3.190056324009998,-3.8826751709000007
2018-07-30 21:39:07.900,0.289998001966,0.223060248691,-0.765852799652,-0.0241339355707,-0.312738776207,0.313313156366,-1.6671305,-0.81395195,13.2978174,0.0,-5.57872867584,20.7029361725,-3.25650620461,-0.0241339355707,-0.312738776207,0.313313156366,13.5799999237,-388.26751709,-217.617126465,-27.8182563782,3.26211547852,0.2210845946999953,-4.280405044499998,7.2255457639689995,-3.1371166706099984,-3.8826751709000007
2018-07-30 21:39:07.950,0.289998001966,0.223060248691,-0.765852799652,-0.0241339355707,-0.312738776207,0.313313156366,-1.6671305,-0.81395195,13.2978174,0.0,-5.57872867584,20.7029361725,-3.25650620461,-0.0241339355707,-0.312738776207,0.313313156366,13.8699998856,-389.089019775,-217.154846191,-26.8182563782,2.91211605072,3.2510833739999967,-4.280405044499998,7.2255457639689995,-3.1371166706099984,-3.8826751709000007
2018-07-30 21:39:08.000,0.289998001966,0.223060248691,-0.765852799652,-0.0241339355707,-0.312738776207,0.313313156366,-1.6671305,-0.81395195,13.2978174,0.0,-7.58813095093,20.0196456909,-3.07992124557,-0.0241339355707,-0.312738776207,0.313313156366,13.8699998856,-389.089019775,-217.154846191,-26.8182563782,2.91211605072,3.2510833739999967,-4.022626876799999,7.896984934809,-3.0799212455699982,-3.8908901215
2018-07-30 21:39:08.050,0.289998001966,0.223060248691,-0.765852799652,-0.0241339355707,-0.312738776207,0.313313156366,-1.6671305,-0.81395195,13.2978174,0.0,-7.58813095093,20.0196456909,-3.07992124557,-0.0241339355707,-0.312738776207,0.313313156366,14.1599998474,-389.510345459,-216.355560303,-26.8182563782,2.672116279599999,5.901084899899999,-3.8161621093999987,8.398473620419,-3.028214216229998,-3.895103454600001
2018-07-30 21:39:08.100,0.261035203087,0.236984934277,-0.820623364367,-0.0166321136057,-0.286234766245,0.310531049967,-1.5102241,-0.196133,13.60182355,0.0,-7.58813095093,20.0196456909,-3.07992124557,-0.0241339355707,-0.312738776207,0.313313156366,14.1599998474,-389.510345459,-216.355560303,-14.9532794952,3.0704708099199998,4.0668487549000005,-3.6443414687999987,9.69522714615,-3.002040147779998,-3.895103454600001
2018-07-30 21:39:08.150,0.261035203087,0.236984934277,-0.820623364367,-0.0166321136057,-0.286234766245,0.310531049967,-1.5102241,-0.196133,13.60182355,0.0,-7.58813095093,20.0196456909,-3.07992124557,-0.0241339355707,-0.312738776207,0.313313156366,14.4399995804,-384.165374756,-216.201858521,-11.9532794952,3.0704708099199998,4.0668487549000005,-3.4934110641,10.01445055008,-2.9721591472599984,-3.8416538238999998
2018-07-30 21:39:08.200,0.261035203087,0.236984934277,-0.820623364367,-0.0166321136057,-0.286234766245,0.310531049967,-1.5102241,-0.196133,13.60182355,0.0,-7.58813095093,20.0196456909,-3.07992124557,-0.0241339355707,-0.312738776207,0.313313156366,14.4399995804,-384.165374756,-216.201858521,-11.9532794952,2.7904710769499985,10.756851196300001,-3.2734098434000014,10.4456782341,-2.949655294419998,-3.8416538238999998
2018-07-30 21:39:08.250,0.261035203087,0.236984934277,-0.820623364367,-0.0166321136057,-0.286234766245,0.310531049967,-1.5102241,-0.196133,13.60182355,0.0,-9.46226978302,19.155960083,-2.94649577141,-0.0166321136057,-0.286234766245,0.310531049967,14.7199993134,-377.146728516,-215.137771606,-11.9532794952,2.3204708098999998,13.9168510437,-3.0404424666999983,10.87563276291,-2.942248344419998,-3.771467208899999
2018-07-30 21:39:08.300,0.261035203087,0.236984934277,-0.820623364367,-0.0166321136057,-0.286234766245,0.310531049967,-1.5102241,-0.196133,13.60182355,0.0,-9.46226978302,19.155960083,-2.94649577141,-0.0166321136057,-0.286234766245,0.310531049967,14.7199993134,-377.146728516,-215.137771606,-11.9532794952,2.310470580999999,13.896850585900001,-3.0738983153999992,12.0667951107,-2.9351623058299983,-3.771467208899999
2018-07-30 21:39:08.350,0.261035203087,0.236984934277,-0.820623364367,-0.0166321136057,-0.286234766245,0.310531049967,-1.5102241,-0.196133,13.60182355,0.0,-9.46226978302,19.155960083,-2.94649577141,-0.0166321136057,-0.286234766245,0.310531049967,14.7199993134,-377.146728516,-215.137771606,-11.9532794952,2.310470580999999,13.896850585900001,-3.0738983153999992,12.0667951107,-2.9351623058299983,-3.771467208899999
2018-07-30 21:39:08.400,0.261035203087,0.236984934277,-0.820623364367,-0.0166321136057,-0.286234766245,0.310531049967,-1.5102241,-0.196133,13.60182355,0.0,-9.46226978302,19.155960083,-2.94649577141,-0.0166321136057,-0.286234766245,0.310531049967,14.9899997711,-368.879333496,-214.204376221,-8.9532794952,1.7104711531999985,23.336851120000002,-2.627771377500002,12.73393797874,-3.035650491709998,-3.6887931824000013
2018-07-30 21:39:08.450,0.261035203087,0.236984934277,-0.820623364367,-0.0166321136057,-0.286234766245,0.310531049967,-1.5102241,-0.196133,13.60182355,0.0,-9.46226978302,19.155960083,-2.94649577141,-0.0166321136057,-0.286234766245,0.310531049967,14.9899997711,-368.879333496,-214.204376221,-8.9532794952,1.7104711531999985,23.336851120000002,-2.627771377500002,12.73393797874,-3.035650491709998,-3.6887931824000013
2018-07-30 21:39:08.500,0.261035203087,0.236984934277,-0.820623364367,-0.0166321136057,-0.286234766245,0.310531049967,-1.5102241,-0.196133,13.60182355,0.0,-10.8904466629,18.2128486633,-3.1498260498,-0.0166321136057,-0.286234766245,0.310531049967,15.2699995041,-353.15435791,-212.903579712,-8.9532794952,1.0504703521999996,26.2968502045,-2.3629817962000015,13.07716059684,-3.1498260497999984,-3.531543731700001
2018-07-30 21:39:08.550,0.261035203087,0.236984934277,-0.820623364367,-0.0166321136057,-0.286234766245,0.310531049967,-1.5102241,-0.196133,13.60182355,0.0,-10.8904466629,18.2128486633,-3.1498260498,-0.0166321136057,-0.286234766245,0.310531049967,15.5699996948,-342.006866455,-211.557144165,-8.9532794952,0.420471191399999,28.9268503189,-2.3629817962000015,13.07716059684,-3.1498260497999984,-3.531543731700001
2018-07-30 21:39:08.600,0.197625923266,0.189791547689,-0.873192463752,0.525672972202,-0.172801792622,0.168866455555,-1.7063571,0.196133,9.7870367,0.0,-10.8904466629,18.2128486633,-3.1498260498,-0.0166321136057,-0.286234766245,0.310531049967,15.5699996948,-342.006866455,-211.557144165,0.46708297730000226,-0.9525442124000012,19.2250890732,-2.1670608520999988,14.41995239259,-3.189744234089998,-3.4200687408000014
2018-07-30 21:39:08.650,0.197625923266,0.189791547689,-0.873192463752,0.525672972202,-0.172801792622,0.168866455555,-1.7063571,0.196133,9.7870367,0.0,-10.8904466629,18.2128486633,-3.1498260498,-0.0166321136057,-0.286234766245,0.310531049967,15.8699998856,-329.328918457,-209.539505005,4.467082977300002,-1.5925445557,28.10508883004,-1.9066429138000007,14.76370143889,-3.1608843803399984,-3.293289184599999
2018-07-30 21:39:08.700,0.197625923266,0.189791547689,-0.873192463752,0.525672972202,-0.172801792622,0.168866455555,-1.7063571,0.196133,9.7870367,0.0,-10.8904466629,18.2128486633,-3.1498260498,-0.0166321136057,-0.286234766245,0.310531049967,15.8699998856,-329.328918457,-209.539505005,4.467082977300002,-1.6225442887000003,28.10508883004,-1.844564437899999,14.849187850989999,-3.1339125633199982,-3.293289184599999
2018-07-30 21:39:08.750,0.197625923266,0.189791547689,-0.873192463752,0.525672972202,-0.172801792622,0.168866455555,-1.7063571,0.196133,9.7870367,0.0,-11.9159841537,17.4233512878,-3.07520389557,0.525672972202,-0.172801792622,0.168866455555,16.1599998474,-330.797393799,-208.040740967,4.467082977300002,-2.1425437928000015,30.735088765669,-1.6719322204999987,15.07514190679,-3.058255434039998,-3.307973861699999
2018-07-30 21:39:08.800,0.197625923266,0.189791547689,-0.873192463752,0.525672972202,-0.172801792622,0.168866455555,-1.7063571,0.196133,9.7870367,0.0,-11.9159841537,17.4233512878,-3.07520389557,0.525672972202,-0.172801792622,0.168866455555,16.1599998474,-330.797393799,-208.040740967,4.467082977300002,-2.182543754600001,30.735088765669,-1.4973201752000005,15.30011844639,-2.981618404389998,-3.307973861699999
2018-07-30 21:39:08.850,0.197625923266,0.189791547689,-0.873192463752,0.525672972202,-0.172801792622,0.168866455555,-1.7063571,0.196133,9.7870367,0.0,-11.9159841537,17.4233512878,-3.07520389557,0.525672972202,-0.172801792622,0.168866455555,16.1599998474,-330.797393799,-208.040740967,4.467082977300002,-2.182543754600001,47.0550880433,-1.4973201752000005,15.30011844639,-2.981618404389998,-3.307973861699999
2018-07-30 21:39:08.900,0.197625923266,0.189791547689,-0.873192463752,0.525672972202,-0.172801792622,0.168866455555,-1.7063571,0.196133,9.7870367,0.0,-11.9159841537,17.4233512878,-3.07520389557,0.525672972202,-0.172801792622,0.168866455555,16.4400005341,-330.462280273,-202.587539673,11.467082977300002,-2.6325445175000013,47.0550880433,-1.8558464049999994,17.66374588013,-2.8528814315799984,-3.3046226501000007
2018-07-30 21:39:08.950,0.148359523286,0.111026937418,-0.905132776346,0.591701388359,-0.0814089328051,0.237345263362,-1.569064,0.16671305,11.99353295,0.0,-11.9159841537,17.4233512878,-3.07520389557,0.525672972202,-0.172801792622,0.168866455555,16.7099990845,-330.031768799,-200.852081299,16.4272956848,-3.550004959099999,37.5903835297,-1.8558464049999994,17.66374588013,-2.8528814315799984,-3.3046226501000007
2018-07-30 21:39:09.000,0.148359523286,0.111026937418,-0.905132776346,0.591701388359,-0.0814089328051,0.237345263362,-1.569064,0.16671305,11.99353295,0.0,-12.7230644226,16.7980117798,-2.70054483414,0.591701388359,-0.0814089328051,0.237345263362,16.7099990845,-330.031768799,-200.852081299,16.4272956848,-3.5700044632,37.5903835297,-1.623167038,17.958133697530002,-2.6681451797499984,-3.300317764300001
2018-07-30 21:39:09.050,0.148359523286,0.111026937418,-0.905132776346,0.591701388359,-0.0814089328051,0.237345263362,-1.569064,0.16671305,11.99353295,0.0,-12.7230644226,16.7980117798,-2.70054483414,0.591701388359,-0.0814089328051,0.237345263362,16.9499988556,-323.455810547,-199.107086182,16.4272956848,-4.0200042725,39.0203819275,-2.388097763100001,20.17913055421,-2.6237392425499984,-3.2345581054999997
2018-07-30 21:39:09.100,0.148359523286,0.111026937418,-0.905132776346,0.591701388359,-0.0814089328051,0.237345263362,-1.569064,0.16671305,11.99353295,0.0,-12.7230644226,16.7980117798,-2.70054483414,0.591701388359,-0.0814089328051,0.237345263362,16.9499988556,-323.455810547,-199.107086182,16.4272956848,-4.0400047303,39.0203819275,-3.180320739700001,21.72094154358,-2.5724923610699983,-3.2345581054999997
2018-07-30 21:39:09.150,0.148359523286,0.111026937418,-0.905132776346,0.591701388359,-0.0814089328051,0.237345263362,-1.569064,0.16671305,11.99353295,0.0,-12.7230644226,16.7980117798,-2.70054483414,0.591701388359,-0.0814089328051,0.237345263362,17.1800003052,-315.560913086,-54.0564308167,87.4272956848,-4.5900049209999985,62.62038230899999,-16.513064245499894,29.0680446625,-2.49620175362,-3.1556091309000003
2018-07-30 21:39:09.200,0.148359523286,0.111026937418,-0.905132776346,0.591701388359,-0.0814089328051,0.237345263362,-1.569064,0.16671305,11.99353295,0.0,-12.7230644226,16.7980117798,-2.70054483414,0.591701388359,-0.0814089328051,0.237345263362,17.1800003052,-315.560913086,-54.0564308167,87.4272956848,-4.5900049209999985,62.6003818512,-16.513064245499894,29.0680446625,-2.49620175362,-3.1556091309000003
2018-07-30 21:39:09.250,0.148359523286,0.111026937418,-0.905132776346,0.591701388359,-0.0814089328051,0.237345263362,-1.569064,0.16671305,11.99353295,0.0,-13.1374664307,16.4580421448,-2.37152433395,0.591701388359,-0.0814089328051,0.237345263362,17.3999996185,-318.145751953,-52.4089126587,87.4272956848,-5.060004234299999,62.5803813934,-16.451908926299893,29.1430158615,-2.37103176117,-3.1814575195000003
2018-07-30 21:39:09.300,0.148359523286,0.111026937418,-0.905132776346,0.591701388359,-0.0814089328051,0.237345263362,-1.569064,0.16671305,11.99353295,0.0,-13.1374664307,16.4580421448,-2.37152433395,0.591701388359,-0.0814089328051,0.237345263362,17.3999996185,-318.145751953,-52.4089126587,87.4272956848,-5.060004234299999,62.5503826141,-16.432017187399893,29.1560659409,-2.38671755791,-3.1814575195000003
2018-07-30 21:39:09.350,0.148359523286,0.111026937418,-0.905132776346,0.591701388359,-0.0814089328051,0.237345263362,-1.569064,0.16671305,11.99353295,0.0,-13.1374664307,16.4580421448,-2.37152433395,0.591701388359,-0.0814089328051,0.237345263362,17.609998703,-310.102844238,-50.7725257874,87.4272956848,-5.510004997299998,62.530382156399995,-16.432017187399893,29.1560659409,-2.38671755791,-3.1814575195000003
2018-07-30 21:39:09.400,0.0751239644661,-0.083926580491,-0.921962615384,1.08608675003,0.0409627407789,0.117619991302,-1.9024901,0.0784532,9.73800345,0.0,-13.1374664307,16.4580421448,-2.37152433395,0.591701388359,-0.0814089328051,0.237345263362,17.609998703,-310.102844238,-50.7725257874,87.4272956848,-5.510004997299998,62.530382156399995,-16.450672964399892,29.1057291031,-2.44111943245,-3.1010284424000005
