%time,field.orientation.x,field.orientation.y,field.orientation.z,field.angular_velocity.x,field.angular_velocity.y,field.angular_velocity.z,field.linear_acceleration.x,field.linear_acceleration.y,field.linear_acceleration.z,field.data,field.twist.linear.x,field.twist.linear.y,field.twist.linear.z,field.twist.angular.x,field.twist.angular.y,field.twist.angular.z,field.alt_error,field.aspd_error,field.xtrack_error,delta_yaw,delta_pitch,delta_roll,delta_x,delta_y,delta_z,delta_roll_airspeed
2018-10-18 15:06:56.600,,,,,,,,,,0.0,,,,,,,0.25,-158.507354736,-36.4743652344,172.930015564,-1.184249609709,18.6254286766,2.95104289055,16.5214366913,-0.578435540199,15.0
2018-10-18 15:06:56.650,,,,,,,,,,0.0,,,,,,,0.299999982119,-149.973297119,-34.782283783,172.930015564,-1.144249618054,20.5554289818,18.81494569778,16.487915039099995,-0.540839552878998,15.0
2018-10-18 15:06:56.700,,,,,,,,,,0.0,,,,,,,0.299999982119,-149.973297119,-34.782283783,172.930015564,-1.144249618054,20.5554289818,18.72062897682,16.481431961099997,-0.524799048900998,15.0
2018-10-18 15:06:56.750,,,,,,,,,,0.0,,,,,,,0.299999982119,-149.973297119,-34.782283783,172.930015564,-1.124249607325,20.5554289818,18.63645339012,16.479043960599995,-0.559525191783998,15.0
2018-10-18 15:06:56.800,,,,,,,,,,0.0,-16.4649562836,-2.59227490425,-0.540645778179,0.352483510971,-0.0306023005396,-0.0236036852002,0.34999999404,-149.973297119,-392.051727295,49.930015564,-2.734249591828,36.8354277611,18.55425286293,16.466856002799997,-0.567653298377998,16.0
2018-10-18 15:06:56.850,,,,,,,,,,0.0,-16.4649562836,-2.59227490425,-0.540645778179,0.352483510971,-0.0306023005396,-0.0236036852002,0.399999976158,-46.5665817261,-390.394897461,48.4406738281,-4.407088160511,24.3135223389,18.30321073532,16.449865341199995,-0.607817530631998,16.0
2018-10-18 15:06:56.900,-0.00434817526056,-0.170218845396,-0.985142921879,0.588184475899,-0.0345278643072,-0.0637229457498,0.16671305,0.5099458,9.99297635,0.0,-16.4649562836,-2.59227490425,-0.540645778179,0.352483510971,-0.0306023005396,-0.0236036852002,0.399999976158,-46.5665817261,-390.394897461,48.4406738281,-4.387088179591,24.3135223389,18.18277859688,16.452169418299995,-0.634476423263998,16.0
2018-10-18 15:06:56.950,-0.00434817526056,-0.170218845396,-0.985142921879,0.588184475899,-0.0345278643072,-0.0637229457498,0.16671305,0.5099458,9.99297635,0.0,-16.4649562836,-2.59227490425,-0.540645778179,0.352483510971,-0.0306023005396,-0.0236036852002,0.399999976158,-46.5665817261,-390.394897461,48.4406738281,-4.387088179591,24.3135223389,18.18277859688,16.452169418299995,-0.634476423263998,16.0
2018-10-18 15:06:57.000,-0.00434817526056,-0.170218845396,-0.985142921879,0.588184475899,-0.0345278643072,-0.0637229457498,0.16671305,0.5099458,9.99297635,0.0,-16.437417984,-1.96729695797,-0.738369882107,0.588184475899,-0.0345278643072,-0.0637229457498,0.459999978542,-46.5665817261,-388.738067627,48.4406738281,-5.727087855341,24.3135223389,17.88768482208,16.441091537499997,-0.742394030093998,16.0
2018-10-18 15:06:57.050,-0.00434817526056,-0.170218845396,-0.985142921879,0.588184475899,-0.0345278643072,-0.0637229457498,0.16671305,0.5099458,9.99297635,0.0,-16.437417984,-1.96729695797,-0.738369882107,0.588184475899,-0.0345278643072,-0.0637229457498,0.459999978542,-46.5665817261,-388.738067627,48.4406738281,-5.727087855341,24.3135223389,17.88768482208,16.441091537499997,-0.742394030093998,16.0
2018-10-18 15:06:57.100,-0.00434817526056,-0.170218845396,-0.985142921879,0.588184475899,-0.0345278643072,-0.0637229457498,0.16671305,0.5099458,9.99297635,0.0,-16.437417984,-1.96729695797,-0.738369882107,0.588184475899,-0.0345278643072,-0.0637229457498,0.52999997139,-40.2881622314,-387.072814941,48.4406738281,-7.057087779041,24.3135223389,17.68346834183,16.421575546299998,-0.801370918750998,16.0
2018-10-18 15:06:57.150,-0.00434817526056,-0.170218845396,-0.985142921879,0.588184475899,-0.0345278643072,-0.0637229457498,0.16671305,0.5099458,9.99297635,0.0,-16.437417984,-1.96729695797,-0.738369882107,0.588184475899,-0.0345278643072,-0.0637229457498,0.52999997139,-40.2881622314,-387.072814941,48.4406738281,-7.037087798121,24.3135223389,17.543756008149998,16.410520553599998,-0.858385086059998,16.0
2018-10-18 15:06:57.200,-0.00434817526056,-0.170218845396,-0.985142921879,0.588184475899,-0.0345278643072,-0.0637229457498,0.16671305,0.5099458,9.99297635,0.0,-16.437417984,-1.96729695797,-0.738369882107,0.588184475899,-0.0345278643072,-0.0637229457498,0.610000014305,-40.2881622314,-385.424438477,48.4406738281,-8.327087759971,24.3135223389,17.225061059,16.368228912399996,-1.075582504269998,16.0
2018-10-18 15:06:57.250,0.00568666702204,-0.297324769943,-0.95465419283,0.3792707026,0.0286193992943,-0.289453685284,-0.5295591,1.67693715,7.7864801,0.0,-16.3632087708,-1.17604279518,-1.15365386009,0.588184475899,-0.0345278643072,-0.0637229457498,0.610000014305,-40.2881622314,-385.424438477,48.4406738281,-8.327087759971,24.3135223389,17.225061059,16.368228912399996,-1.075582504269998,16.0
2018-10-18 15:06:57.300,0.00568666702204,-0.297324769943,-0.95465419283,0.3792707026,0.0286193992943,-0.289453685284,-0.5295591,1.67693715,7.7864801,0.0,-16.3632087708,-1.17604279518,-1.15365386009,0.588184475899,-0.0345278643072,-0.0637229457498,0.709999978542,-36.7561340332,-383.776031494,44.64236450200001,-7.504779696469999,9.314941406300001,17.225061059,16.368228912399996,-1.075582504269998,16.0
2018-10-18 15:06:57.350,0.00568666702204,-0.297324769943,-0.95465419283,0.3792707026,0.0286193992943,-0.289453685284,-0.5295591,1.67693715,7.7864801,0.0,-16.3632087708,-1.17604279518,-1.15365386009,0.588184475899,-0.0345278643072,-0.0637229457498,0.829999983311,-36.7561340332,-382.127655029,44.64236450200001,-8.71477973461,9.2749443055,16.853971838951,16.307670593299996,-1.411177277569998,16.0
2018-10-18 15:06:57.400,0.00568666702204,-0.297324769943,-0.95465419283,0.3792707026,0.0286193992943,-0.289453685284,-0.5295591,1.67693715,7.7864801,0.0,-16.3632087708,-1.17604279518,-1.15365386009,0.588184475899,-0.0345278643072,-0.0637229457498,0.829999983311,-36.7561340332,-382.127655029,44.64236450200001,-8.71477973461,9.2749443055,16.58094483614,16.257167816199996,-1.650583267209998,16.0
2018-10-18 15:06:57.450,0.00568666702204,-0.297324769943,-0.95465419283,0.3792707026,0.0286193992943,-0.289453685284,-0.5295591,1.67693715,7.7864801,0.0,-16.3632087708,-1.17604279518,-1.15365386009,0.588184475899,-0.0345278643072,-0.0637229457498,0.829999983311,-36.7561340332,-382.127655029,44.64236450200001,-8.71477973461,9.2749443055,16.58094483614,16.257167816199996,-1.650583267209998,16.0
2018-10-18 15:06:57.500,0.00568666702204,-0.297324769943,-0.95465419283,0.3792707026,0.0286193992943,-0.289453685284,-0.5295591,1.67693715,7.7864801,0.0,-16.2016868591,-0.272217154503,-1.88267076015,0.3792707026,0.0286193992943,-0.289453685284,0.989999949932,-33.2105636597,-380.487731934,44.64236450200001,-9.85478007789,9.1749420166,16.183988675475,16.192625045799996,-1.935884594919998,16.0
2018-10-18 15:06:57.550,0.00568666702204,-0.297324769943,-0.95465419283,0.3792707026,0.0286193992943,-0.289453685284,-0.5295591,1.67693715,7.7864801,0.0,-16.2016868591,-0.272217154503,-1.88267076015,0.3792707026,0.0286193992943,-0.289453685284,1.16999995708,-33.2105636597,-378.864715576,44.64236450200001,-10.94478023049,9.134941101099997,16.0188674498349,16.167184829699995,-2.0594742298099984,16.0
2018-10-18 15:06:57.600,0.00568666702204,-0.297324769943,-0.95465419283,0.3792707026,0.0286193992943,-0.289453685284,-0.5295591,1.67693715,7.7864801,0.0,-16.2016868591,-0.272217154503,-1.88267076015,0.3792707026,0.0286193992943,-0.289453685284,1.16999995708,-33.2105636597,-378.864715576,44.64236450200001,-10.93478000169,9.084941864000001,15.844959437847,16.134374618499997,-2.188653230669998,16.0
2018-10-18 15:06:57.650,0.0289922713739,-0.347744974801,-0.931485914493,0.299249649048,-0.114112861454,-0.456451296806,-0.6668522,0.77472535,8.73772515,0.0,-16.2016868591,-0.272217154503,-1.88267076015,0.3792707026,0.0286193992943,-0.289453685284,1.38999998569,14.0345573425,-377.241729736,44.64236450200001,-11.95477950569,9.014942169199998,15.533840626478,16.089450836199997,-2.3418548107099983,16.0
2018-10-18 15:06:57.700,0.0289922713739,-0.347744974801,-0.931485914493,0.299249649048,-0.114112861454,-0.456451296806,-0.6668522,0.77472535,8.73772515,0.0,-16.2016868591,-0.272217154503,-1.88267076015,0.3792707026,0.0286193992943,-0.289453685284,1.38999998569,14.0345573425,-377.241729736,44.64236450200001,-11.95477950569,9.014942169199998,15.533840626478,16.089450836199997,-2.3418548107099983,16.0
2018-10-18 15:06:57.750,0.0289922713739,-0.347744974801,-0.931485914493,0.299249649048,-0.114112861454,-0.456451296806,-0.6668522,0.77472535,8.73772515,0.0,-16.0072746277,0.931610226631,-2.5214600563,0.299249649048,-0.114112861454,-0.456451296806,1.38999998569,14.0345573425,-377.241729736,36.0547790527,-5.840086460149999,3.2246322632,15.176836252213,16.030855178799996,-2.4601333141299984,16.0
2018-10-18 15:06:57.800,0.0289922713739,-0.347744974801,-0.931485914493,0.299249649048,-0.114112861454,-0.456451296806,-0.6668522,0.77472535,8.73772515,0.0,-16.0072746277,0.931610226631,-2.5214600563,0.299249649048,-0.114112861454,-0.456451296806,1.63999998569,23.9622116089,-375.627166748,36.0547790527,-6.8600869178499995,2.164630889899996,14.6505150795,15.922317504899997,-2.759142398829998,16.0
2018-10-18 15:06:57.850,0.0289922713739,-0.347744974801,-0.931485914493,0.299249649048,-0.114112861454,-0.456451296806,-0.6668522,0.77472535,8.73772515,0.0,-16.0072746277,0.931610226631,-2.5214600563,0.299249649048,-0.114112861454,-0.456451296806,1.63999998569,23.9622116089,-375.627166748,36.0547790527,-6.8600869178499995,2.164630889899996,14.6505150795,15.922317504899997,-2.759142398829998,16.0
2018-10-18 15:06:57.900,0.0289922713739,-0.347744974801,-0.931485914493,0.299249649048,-0.114112861454,-0.456451296806,-0.6668522,0.77472535,8.73772515,0.0,-16.0072746277,0.931610226631,-2.5214600563,0.299249649048,-0.114112861454,-0.456451296806,1.90999996662,23.9622116089,-374.021026611,36.0547790527,-7.720086574549999,0.894630432199996,14.13694548607,15.797048568699996,-3.095816850659998,16.0
2018-10-18 15:06:57.950,0.0289922713739,-0.347744974801,-0.931485914493,0.299249649048,-0.114112861454,-0.456451296806,-0.6668522,0.77472535,8.73772515,0.0,-16.0072746277,0.931610226631,-2.5214600563,0.299249649048,-0.114112861454,-0.456451296806,1.90999996662,23.9622116089,-374.021026611,36.0547790527,-7.720086574549999,0.894630432199996,14.13694548607,15.797048568699996,-3.095816850659998,16.0
2018-10-18 15:06:58.000,0.0289922713739,-0.347744974801,-0.931485914493,0.299249649048,-0.114112861454,-0.456451296806,-0.6668522,0.77472535,8.73772515,0.0,-15.6812314987,2.34359025955,-3.32781815529,0.299249649048,-0.114112861454,-0.456451296806,2.22000002861,30.2353858948,-372.423370361,36.0547790527,-8.48008680345,-0.4753684997000036,13.65640974045,15.681231498699997,-3.3278181552899984,16.0
2018-10-18 15:06:58.050,0.0289922713739,-0.347744974801,-0.931485914493,0.299249649048,-0.114112861454,-0.456451296806,-0.6668522,0.77472535,8.73772515,0.0,-15.6812314987,2.34359025955,-3.32781815529,0.299249649048,-0.114112861454,-0.456451296806,2.54999995232,30.2353858948,-370.851074219,36.0547790527,-9.19008684155,-2.1453704834000007,13.26907658577,15.574829101599997,-3.494101524349998,16.0
2018-10-18 15:06:58.100,0.0289922713739,-0.347744974801,-0.931485914493,0.299249649048,-0.114112861454,-0.456451296806,-0.6668522,0.77472535,8.73772515,0.0,-15.6812314987,2.34359025955,-3.32781815529,0.299249649048,-0.114112861454,-0.456451296806,2.54999995232,30.2353858948,-370.851074219,36.0547790527,-9.19008684155,-2.165370941100001,13.26907658577,15.574829101599997,-3.494101524349998,16.0
2018-10-18 15:06:58.150,0.0169265777671,-0.398457541198,-0.898173195594,-0.0280947964638,-0.204827964306,-0.234413191676,-0.89240515,0.53936575,10.4931155,0.0,-15.6812314987,2.34359025955,-3.32781815529,0.299249649048,-0.114112861454,-0.456451296806,2.54999995232,30.2353858948,-370.851074219,36.0547790527,-9.19008684155,-2.165370941100001,12.72419810295,15.420907974199997,-3.662195444109998,16.0
2018-10-18 15:06:58.200,0.0169265777671,-0.398457541198,-0.898173195594,-0.0280947964638,-0.204827964306,-0.234413191676,-0.89240515,0.53936575,10.4931155,0.0,-15.286151886,3.71240663528,-3.76706147194,-0.0280947964638,-0.204827964306,-0.234413191676,2.90999984741,30.2353858948,-369.295684814,27.093498229999994,-6.885676384,-9.896972656199999,12.28759336472,15.286151885999997,-3.767061471939998,16.0
2018-10-18 15:06:58.250,0.0169265777671,-0.398457541198,-0.898173195594,-0.0280947964638,-0.204827964306,-0.234413191676,-0.89240515,0.53936575,10.4931155,0.0,-15.286151886,3.71240663528,-3.76706147194,-0.0280947964638,-0.204827964306,-0.234413191676,2.90999984741,30.2353858948,-369.295684814,27.093498229999994,-6.885676384,-9.886970519999998,12.14198613167,15.242960929899997,-3.787040710449998,16.0
2018-10-18 15:06:58.300,0.0169265777671,-0.398457541198,-0.898173195594,-0.0280947964638,-0.204827964306,-0.234413191676,-0.89240515,0.53936575,10.4931155,0.0,-15.286151886,3.71240663528,-3.76706147194,-0.0280947964638,-0.204827964306,-0.234413191676,3.28999996185,42.2168731689,-367.765655518,27.093498229999994,-7.415677070600001,-12.126972198499999,11.50867366791,15.044417381299997,-3.827212810519998,16.0
2018-10-18 15:06:58.350,0.0169265777671,-0.398457541198,-0.898173195594,-0.0280947964638,-0.204827964306,-0.234413191676,-0.89240515,0.53936575,10.4931155,0.0,-15.286151886,3.71240663528,-3.76706147194,-0.0280947964638,-0.204827964306,-0.234413191676,3.28999996185,42.2168731689,-367.765655518,27.093498229999994,-7.485676765400001,-12.126972198499999,11.34964084625,14.993232727099997,-3.837529659269998,16.0
2018-10-18 15:06:58.400,0.0169265777671,-0.398457541198,-0.898173195594,-0.0280947964638,-0.204827964306,-0.234413191676,-0.89240515,0.53936575,10.4931155,0.0,-15.286151886,3.71240663528,-3.76706147194,-0.0280947964638,-0.204827964306,-0.234413191676,3.67999982834,42.2168731689,-366.269439697,27.093498229999994,-7.915677070600001,-14.696971893299999,10.76083946228,14.775385856599996,-3.8794569969199983,16.0
2018-10-18 15:06:58.450,0.00871129291001,-0.362187468921,-0.904172636264,-0.515266180038,-0.106847092509,-0.216308116913,-1.2356379,0.4903325,9.9047165,0.0,-14.6708078384,5.47621965408,-3.94680500031,-0.0280947964638,-0.204827964306,-0.234413191676,4.05999994278,36.3877296448,-364.807037354,27.093498229999994,-8.4556760788,-17.176971435499997,10.419074535370001,14.622357368499996,-3.990129470829998,16.0
2018-10-18 15:06:58.500,0.00871129291001,-0.362187468921,-0.904172636264,-0.515266180038,-0.106847092509,-0.216308116913,-1.2356379,0.4903325,9.9047165,0.0,-14.6708078384,5.47621965408,-3.94680500031,-0.0280947964638,-0.204827964306,-0.234413191676,4.05999994278,36.3877296448,-364.807037354,21.820098877000007,-8.6485128403,-12.486410141,10.10706663132,14.472491264299997,-4.134372234339998,16.0
2018-10-18 15:06:58.550,0.00871129291001,-0.362187468921,-0.904172636264,-0.515266180038,-0.106847092509,-0.216308116913,-1.2356379,0.4903325,9.9047165,0.0,-14.6708078384,5.47621965408,-3.94680500031,-0.0280947964638,-0.204827964306,-0.234413191676,4.46000003815,36.3877296448,-363.361541748,21.820098877000007,-9.0085115433,-14.566410064700001,9.91304206848,14.383319854699996,-4.203355789179998,16.0
2018-10-18 15:06:58.600,0.00871129291001,-0.362187468921,-0.904172636264,-0.515266180038,-0.106847092509,-0.216308116913,-1.2356379,0.4903325,9.9047165,0.0,-14.6708078384,5.47621965408,-3.94680500031,-0.0280947964638,-0.204827964306,-0.234413191676,4.46000003815,36.3877296448,-363.361541748,21.820098877000007,-9.2685117722,-14.576410293600002,9.70565223694,14.289431571999996,-4.253306865689998,16.0
2018-10-18 15:06:58.650,0.00871129291001,-0.362187468921,-0.904172636264,-0.515266180038,-0.106847092509,-0.216308116913,-1.2356379,0.4903325,9.9047165,0.0,-14.17137146,6.54585886002,-4.3282494545,-0.515266180038,-0.106847092509,-0.216308116913,4.88000011444,20.3930854797,-361.958282471,21.820098877000007,-9.4985132218,-14.5864105225,9.454141139979999,14.171371459999996,-4.328249454499998,16.0
2018-10-18 15:06:58.700,0.00871129291001,-0.362187468921,-0.904172636264,-0.515266180038,-0.106847092509,-0.216308116913,-1.2356379,0.4903325,9.9047165,0.0,-14.17137146,6.54585886002,-4.3282494545,-0.515266180038,-0.106847092509,-0.216308116913,4.88000011444,20.3930854797,-361.958282471,21.820098877000007,-8.3985128403,-16.596408844000003,9.31806850433,14.100862503099997,-4.397916316989998,16.0
2018-10-18 15:06:58.750,0.0335558324604,-0.275278493207,-0.926537840535,-1.13401150703,0.0441907756031,-0.235982865095,-1.372931,1.44157755,8.6690786,0.0,-14.17137146,6.54585886002,-4.3282494545,-0.515266180038,-0.106847092509,-0.216308116913,5.30999994278,20.3930854797,-360.571960449,21.820098877000007,-6.868512153699999,-18.1864089966,9.13436174393,13.992236137399997,-4.556335926059998,16.0
2018-10-18 15:06:58.800,0.0335558324604,-0.275278493207,-0.926537840535,-1.13401150703,0.0441907756031,-0.235982865095,-1.372931,1.44157755,8.6690786,0.0,-14.17137146,6.54585886002,-4.3282494545,-0.515266180038,-0.106847092509,-0.216308116913,5.30999994278,20.3930854797,-360.571960449,18.4748191833,-5.5979127884,-7.008119583100001,9.13436174393,13.992236137399997,-4.556335926059998,16.0
2018-10-18 15:06:58.850,0.0335558324604,-0.275278493207,-0.926537840535,-1.13401150703,0.0441907756031,-0.235982865095,-1.372931,1.44157755,8.6690786,0.0,-14.17137146,6.54585886002,-4.3282494545,-0.515266180038,-0.106847092509,-0.216308116913,5.76999998093,15.7690048218,-359.202545166,18.4748191833,-5.617911338800001,-7.0481185913,8.90660429001,13.836119651799997,-4.875091552729998,16.0
2018-10-18 15:06:58.900,0.0335558324604,-0.275278493207,-0.926537840535,-1.13401150703,0.0441907756031,-0.235982865095,-1.372931,1.44157755,8.6690786,0.0,-13.7555618286,7.22231769562,-5.02385425568,-1.13401150703,0.0441907756031,-0.235982865095,5.76999998093,15.7690048218,-359.202545166,18.4748191833,-3.8979120254,-8.2781200409,8.823376655579999,13.782138824499997,-4.981556415559998,16.0
2018-10-18 15:06:58.950,0.0335558324604,-0.275278493207,-0.926537840535,-1.13401150703,0.0441907756031,-0.235982865095,-1.372931,1.44157755,8.6690786,0.0,-13.7555618286,7.22231769562,-5.02385425568,-1.13401150703,0.0441907756031,-0.235982865095,6.25999975204,15.7690048218,-357.850036621,18.4748191833,-3.9079122542999993,-8.2981185913,8.68426179886,13.703591346699996,-5.095446109769998,16.0
2018-10-18 15:06:59.000,0.0335558324604,-0.275278493207,-0.926537840535,-1.13401150703,0.0441907756031,-0.235982865095,-1.372931,1.44157755,8.6690786,0.0,-13.7555618286,7.22231769562,-5.02385425568,-1.13401150703,0.0441907756031,-0.235982865095,6.25999975204,15.7690048218,-357.850036621,18.4748191833,-2.1479120254,-9.378118515,8.63249015808,13.677534103399996,-5.119114398959998,16.0
2018-10-18 15:06:59.050,0.0335558324604,-0.275278493207,-0.926537840535,-1.13401150703,0.0441907756031,-0.235982865095,-1.372931,1.44157755,8.6690786,0.0,-13.7555618286,7.22231769562,-5.02385425568,-1.13401150703,0.0441907756031,-0.235982865095,6.75999975204,3.80086898804,-356.514190674,18.4748191833,-0.4879121780000002,-10.5581188202,8.46747589111,13.609377860999997,-5.130862712859998,16.0
2018-10-18 15:06:59.100,0.0335558324604,-0.275278493207,-0.926537840535,-1.13401150703,0.0441907756031,-0.235982865095,-1.372931,1.44157755,8.6690786,0.0,-13.7555618286,7.22231769562,-5.02385425568,-1.13401150703,0.0441907756031,-0.235982865095,6.75999975204,3.80086898804,-356.514190674,18.4748191833,-0.4979124068999994,-10.5581188202,8.22837352753,13.536401748699996,-5.028359413149998,16.0
2018-10-18 15:06:59.150,0.0684665715097,-0.172695145334,-0.938818461488,-0.255908787251,-0.010692124255,-0.162194013596,-1.2944778,0.7256921,11.48358715,0.0,-13.5190620422,7.82881307602,-5.008477211,-1.13401150703,0.0441907756031,-0.235982865095,6.75999975204,3.80086898804,-356.514190674,18.4748191833,-0.4979124068999994,-10.5581188202,8.22837352753,13.536401748699996,-5.028359413149998,16.0
2018-10-18 15:06:59.200,0.0684665715097,-0.172695145334,-0.938818461488,-0.255908787251,-0.010692124255,-0.162194013596,-1.2944778,0.7256921,11.48358715,0.0,-13.5190620422,7.82881307602,-5.008477211,-1.13401150703,0.0441907756031,-0.235982865095,7.25,3.80086898804,-355.17855835,13.650722503700003,2.591940879900001,1.4546260834000009,8.22837352753,13.536401748699996,-5.028359413149998,16.0
2018-10-18 15:06:59.250,0.0684665715097,-0.172695145334,-0.938818461488,-0.255908787251,-0.010692124255,-0.162194013596,-1.2944778,0.7256921,11.48358715,0.0,-13.5190620422,7.82881307602,-5.008477211,-1.13401150703,0.0441907756031,-0.235982865095,7.25,3.80086898804,-355.17855835,13.650722503700003,2.591940879900001,1.4546260834000009,7.973329544069999,13.474150657699996,-4.890099048609998,16.0
2018-10-18 15:06:59.300,0.0684665715097,-0.172695145334,-0.938818461488,-0.255908787251,-0.010692124255,-0.162194013596,-1.2944778,0.7256921,11.48358715,0.0,-13.5190620422,7.82881307602,-5.008477211,-1.13401150703,0.0441907756031,-0.235982865095,7.73999977112,-39.4599914551,-353.851409912,13.650722503700003,4.051940918010001,0.5046272278000004,7.8211650848400005,13.433087348899996,-4.815225601199998,16.0
2018-10-18 15:06:59.350,0.0684665715097,-0.172695145334,-0.938818461488,-0.255908787251,-0.010692124255,-0.162194013596,-1.2944778,0.7256921,11.48358715,0.0,-13.5190620422,7.82881307602,-5.008477211,-1.13401150703,0.0441907756031,-0.235982865095,7.73999977112,-39.4599914551,-353.851409912,13.650722503700003,4.051940918010001,0.5046272278000004,7.74140548706,13.398977279699997,-4.822442531589998,16.0
2018-10-18 15:06:59.400,0.0684665715097,-0.172695145334,-0.938818461488,-0.255908787251,-0.010692124255,-0.162194013596,-1.2944778,0.7256921,11.48358715,0.0,-13.3352642059,8.3756570816,-4.89766836166,-0.255908787251,-0.010692124255,-0.162194013596,8.21000003815,-39.4599914551,-352.515808105,13.650722503700003,5.561941146890001,-0.31537246699999955,7.653367042539999,13.349356651299997,-4.881295680999998,16.0
2018-10-18 15:06:59.450,0.0684665715097,-0.172695145334,-0.938818461488,-0.255908787251,-0.010692124255,-0.162194013596,-1.2944778,0.7256921,11.48358715,0.0,-13.3352642059,8.3756570816,-4.89766836166,-0.255908787251,-0.010692124255,-0.162194013596,8.21000003815,-39.4599914551,-352.515808105,13.650722503700003,5.561941146890001,-0.31537246699999955,7.588758468629999,13.317472457899996,-4.923453330989998,16.0
2018-10-18 15:06:59.500,0.0700775885133,-0.163972209093,-0.933236973267,-0.0699069947004,-0.114774227142,-0.135065987706,-1.48080415,0.7060788,9.2378643,0.0,-13.3352642059,8.3756570816,-4.89766836166,-0.255908787251,-0.010692124255,-0.162194013596,8.6799993515,-66.1546707153,-351.180206299,10.902053832999997,7.40837097168,0.28954982760000014,7.43422985077,13.261481285099997,-4.932049751279998,16.0
2018-10-18 15:06:59.550,0.0700775885133,-0.163972209093,-0.933236973267,-0.0699069947004,-0.114774227142,-0.135065987706,-1.48080415,0.7060788,9.2378643,0.0,-13.3352642059,8.3756570816,-4.89766836166,-0.255908787251,-0.010692124255,-0.162194013596,8.6799993515,-66.1546707153,-351.180206299,10.902053832999997,7.40837097168,0.28954982760000014,7.43422985077,13.261481285099997,-4.932049751279998,16.0
2018-10-18 15:06:59.600,0.0700775885133,-0.163972209093,-0.933236973267,-0.0699069947004,-0.114774227142,-0.135065987706,-1.48080415,0.7060788,9.2378643,0.0,-13.3352642059,8.3756570816,-4.89766836166,-0.255908787251,-0.010692124255,-0.162194013596,9.15999984741,-66.1546707153,-349.86126709,10.902053832999997,8.918370723719999,-0.5304498671999998,7.20050907135,13.209274291999996,-4.779407501219998,16.0
2018-10-18 15:06:59.650,0.0700775885133,-0.163972209093,-0.933236973267,-0.0699069947004,-0.114774227142,-0.135065987706,-1.48080415,0.7060788,9.2378643,0.0,-13.2020301819,8.83748435974,-4.75007247925,-0.0699069947004,-0.114774227142,-0.135065987706,9.15999984741,-66.1546707153,-349.86126709,10.902053832999997,8.918370723719999,-0.5304498671999998,7.20050907135,13.209274291999996,-4.779407501219998,16.0
2018-10-18 15:06:59.700,0.0700775885133,-0.163972209093,-0.933236973267,-0.0699069947004,-0.114774227142,-0.135065987706,-1.48080415,0.7060788,9.2378643,0.0,-13.2020301819,8.83748435974,-4.75007247925,-0.0699069947004,-0.114774227142,-0.135065987706,9.61999988556,-74.6271133423,-348.576385498,10.902053832999997,10.2883708477,-1.3704500197999998,6.97487354279,13.156727790799996,-4.589135169979998,16.0
2018-10-18 15:06:59.750,0.0465505103117,-0.151408890125,-0.931763768481,0.0336592383683,-0.201151147485,-0.0664119645953,-0.83356525,0.5295591,12.6309652,0.0,-13.2020301819,8.83748435974,-4.75007247925,-0.0699069947004,-0.114774227142,-0.135065987706,9.61999988556,-74.6271133423,-348.576385498,10.902053832999997,10.2883708477,-1.3704500197999998,6.97487354279,13.156727790799996,-4.589135169979998,16.0
2018-10-18 15:06:59.800,0.0465505103117,-0.151408890125,-0.931763768481,0.0336592383683,-0.201151147485,-0.0664119645953,-0.83356525,0.5295591,12.6309652,0.0,-13.2020301819,8.83748435974,-4.75007247925,-0.0699069947004,-0.114774227142,-0.135065987706,10.0799999237,-74.6271133423,-347.27456665,8.7554168701,8.82048428057,-1.5343837738000001,6.820384979250001,13.120078086899996,-4.412798881529998,16.0
2018-10-18 15:06:59.850,0.0465505103117,-0.151408890125,-0.931763768481,0.0336592383683,-0.201151147485,-0.0664119645953,-0.83356525,0.5295591,12.6309652,0.0,-13.2020301819,8.83748435974,-4.75007247925,-0.0699069947004,-0.114774227142,-0.135065987706,10.5,-85.1512908936,-345.981262207,8.7554168701,9.930484294872999,-2.6043834686,6.553393363950001,13.049210548399996,-4.067454338069998,16.0
2018-10-18 15:06:59.900,0.0465505103117,-0.151408890125,-0.931763768481,0.0336592383683,-0.201151147485,-0.0664119645953,-0.83356525,0.5295591,12.6309652,0.0,-13.0351009369,9.49907684326,-3.98032617569,0.0336592383683,-0.201151147485,-0.0664119645953,10.5,-85.1512908936,-345.981262207,8.7554168701,9.930484294872999,-2.5843839645000006,6.553393363950001,13.049210548399996,-4.067454338069998,16.0
2018-10-18 15:06:59.950,0.0465505103117,-0.151408890125,-0.931763768481,0.0336592383683,-0.201151147485,-0.0664119645953,-0.83356525,0.5295591,12.6309652,0.0,-13.0351009369,9.49907684326,-3.98032617569,0.0336592383683,-0.201151147485,-0.0664119645953,10.8999996185,-85.1512908936,-344.687896729,8.7554168701,10.980484276992,-3.7343835830000014,6.300818443300001,12.971581458999996,-3.7376294135999983,16.0
2018-10-18 15:07:00.000,0.0465505103117,-0.151408890125,-0.931763768481,0.0336592383683,-0.201151147485,-0.0664119645953,-0.83356525,0.5295591,12.6309652,0.0,-13.0351009369,9.49907684326,-3.98032617569,0.0336592383683,-0.201151147485,-0.0664119645953,10.8999996185,-85.1512908936,-344.687896729,8.7554168701,10.980484276992,-3.7243833541000004,6.300818443300001,12.971581458999996,-3.7376294135999983,16.0
2018-10-18 15:07:00.050,0.0465505103117,-0.151408890125,-0.931763768481,0.0336592383683,-0.201151147485,-0.0664119645953,-0.83356525,0.5295591,12.6309652,0.0,-13.0351009369,9.49907684326,-3.98032617569,0.0336592383683,-0.201151147485,-0.0664119645953,11.25,-115.694236755,-343.411468506,8.7554168701,11.97048425673,-4.874383926350001,6.03536701202,12.879949569699997,-3.3634281158399983,16.0
2018-10-18 15:07:00.100,0.010176362449,-0.146948417942,-0.927821662036,0.0452222079039,-0.249081417918,-0.0583001114428,-0.2157463,0.55897905,13.7685366,0.0,-13.0351009369,9.49907684326,-3.98032617569,0.0336592383683,-0.201151147485,-0.0664119645953,11.25,-115.694236755,-343.411468506,8.7554168701,11.97048425673,-4.874383926350001,6.03536701202,12.879949569699997,-3.3634281158399983,16.0
2018-10-18 15:07:00.150,0.010176362449,-0.146948417942,-0.927821662036,0.0452222079039,-0.249081417918,-0.0583001114428,-0.2157463,0.55897905,13.7685366,0.0,-13.0351009369,9.49907684326,-3.98032617569,0.0336592383683,-0.201151147485,-0.0664119645953,11.25,-115.694236755,-343.411468506,6.391994476299999,8.13929700852,-5.533283233679999,5.870043754599999,12.820913314799997,-3.1181097030599982,16.0
2018-10-18 15:07:00.200,0.010176362449,-0.146948417942,-0.927821662036,0.0452222079039,-0.249081417918,-0.0583001114428,-0.2157463,0.55897905,13.7685366,0.0,-12.7726383209,10.2352905273,-2.97100925446,0.0452222079039,-0.249081417918,-0.0583001114428,11.5799999237,-115.694236755,-342.126586914,6.391994476299999,8.9492969513,-6.863283157389999,5.6608295441,12.734215736399996,-2.8399147987399984,16.0
2018-10-18 15:07:00.250,0.010176362449,-0.146948417942,-0.927821662036,0.0452222079039,-0.249081417918,-0.0583001114428,-0.2157463,0.55897905,13.7685366,0.0,-12.7726383209,10.2352905273,-2.97100925446,0.0452222079039,-0.249081417918,-0.0583001114428,11.5799999237,-115.694236755,-342.126586914,6.391994476299999,8.9492969513,-6.863283157389999,5.6608295441,12.734215736399996,-2.8399147987399984,16.0
2018-10-18 15:07:00.300,0.010176362449,-0.146948417942,-0.927821662036,0.0452222079039,-0.249081417918,-0.0583001114428,-0.2157463,0.55897905,13.7685366,0.0,-12.7726383209,10.2352905273,-2.97100925446,0.0452222079039,-0.249081417918,-0.0583001114428,11.8699998856,-141.132736206,-340.86706543,6.391994476299999,9.68929696083,-8.17328310017,5.510800361599999,12.667456626899996,-2.601823568339998,16.0
2018-10-18 15:07:00.350,0.010176362449,-0.146948417942,-0.927821662036,0.0452222079039,-0.249081417918,-0.0583001114428,-0.2157463,0.55897905,13.7685366,0.0,-12.5410614014,10.7199783325,-2.16778182983,0.0452222079039,-0.249081417918,-0.0583001114428,12.1199998856,-141.132736206,-339.615997314,6.391994476299999,10.34929704666,-9.42328310017,5.3164043427,12.566186904899997,-2.257755041119998,16.0
2018-10-18 15:07:00.400,0.010176362449,-0.146948417942,-0.927821662036,0.0452222079039,-0.249081417918,-0.0583001114428,-0.2157463,0.55897905,13.7685366,0.0,-12.5410614014,10.7199783325,-2.16778182983,0.0452222079039,-0.249081417918,-0.0583001114428,12.1199998856,-141.132736206,-339.615997314,6.391994476299999,10.34929704666,-9.42328310017,5.3164043427,12.566186904899997,-2.257755041119998,16.0
2018-10-18 15:07:00.450,0.010176362449,-0.146948417942,-0.927821662036,0.0452222079039,-0.249081417918,-0.0583001114428,-0.2157463,0.55897905,13.7685366,0.0,-12.5410614014,10.7199783325,-2.16778182983,0.0452222079039,-0.249081417918,-0.0583001114428,12.3299999237,-153.921691895,-338.373352051,6.391994476299999,10.82929682732,-10.67328310017,5.3164043427,12.566186904899997,-2.257755041119998,16.0
2018-10-18 15:07:00.500,-0.0232357914012,-0.109183591965,-0.927130805357,-0.19753319025,-0.239402085543,-0.0455515570939,0.2549729,0.91201845,13.9450563,0.0,-12.5410614014,10.7199783325,-2.16778182983,0.0452222079039,-0.249081417918,-0.0583001114428,12.3299999237,-153.921691895,-338.373352051,4.025405883799998,5.96749687195,-7.8028459549199995,5.057953834499999,12.411729812599997,-1.618497848509998,16.0
2018-10-18 15:07:00.550,-0.0232357914012,-0.109183591965,-0.927130805357,-0.19753319025,-0.239402085543,-0.0455515570939,0.2549729,0.91201845,13.9450563,0.0,-12.5410614014,10.7199783325,-2.16778182983,0.0452222079039,-0.249081417918,-0.0583001114428,12.3299999237,-153.921691895,-338.373352051,4.025405883799998,5.96749687195,-7.8028459549199995,4.9824962616,12.352320671099996,-1.474079608919998,16.0
2018-10-18 15:07:00.600,-0.0232357914012,-0.109183591965,-0.927130805357,-0.19753319025,-0.239402085543,-0.0455515570939,0.2549729,0.91201845,13.9450563,0.0,-12.2914266586,11.0555391312,-1.30260682106,-0.19753319025,-0.239402085543,-0.0455515570939,12.5099992752,-153.921691895,-337.138824463,4.025405883799998,6.4174969196300005,-8.86284565928,4.9444608688,12.291426658599997,-1.302606821059998,16.0
2018-10-18 15:07:00.650,-0.0232357914012,-0.109183591965,-0.927130805357,-0.19753319025,-0.239402085543,-0.0455515570939,0.2549729,0.91201845,13.9450563,0.0,-12.2914266586,11.0555391312,-1.30260682106,-0.19753319025,-0.239402085543,-0.0455515570939,12.5099992752,-153.921691895,-337.138824463,4.025405883799998,6.4174969196300005,-8.86284565928,4.9194688797,12.267770767199996,-1.239377498629998,16.0
2018-10-18 15:07:00.700,-0.0232357914012,-0.109183591965,-0.927130805357,-0.19753319025,-0.239402085543,-0.0455515570939,0.2549729,0.91201845,13.9450563,0.0,-12.2914266586,11.0555391312,-1.30260682106,-0.19753319025,-0.239402085543,-0.0455515570939,12.6499996185,-159.331893921,-335.921569824,4.025405883799998,6.8274967670399995,-9.63284564021,4.8461637497000005,12.164097785899996,-0.920825421809998,16.0
2018-10-18 15:07:00.750,-0.0232357914012,-0.109183591965,-0.927130805357,-0.19753319025,-0.239402085543,-0.0455515570939,0.2549729,0.91201845,13.9450563,0.0,-12.2914266586,11.0555391312,-1.30260682106,-0.19753319025,-0.239402085543,-0.0455515570939,12.6499996185,-159.331893921,-335.921569824,4.025405883799998,6.8274967670399995,-10.42284560206,4.8259792328,12.135884284999996,-0.852823674678998,16.0
2018-10-18 15:07:00.800,-0.0458018407029,-0.0790500791582,-0.924772147301,-0.103358432651,-0.184638395905,-0.0634417012334,0.30400615,0.4707192,13.89602305,0.0,-11.9876947403,11.2532606125,-0.484912037849,-0.103358432651,-0.184638395905,-0.0634417012334,12.7599992752,-159.331893921,-334.712768555,2.315601348900003,3.65227365494,-8.13596701626,4.7467393875,11.987694740299997,-0.48491203784899806,16.0
2018-10-18 15:07:00.850,-0.0458018407029,-0.0790500791582,-0.924772147301,-0.103358432651,-0.184638395905,-0.0634417012334,0.30400615,0.4707192,13.89602305,0.0,-11.9876947403,11.2532606125,-0.484912037849,-0.103358432651,-0.184638395905,-0.0634417012334,12.8400001526,-189.387329102,-333.520843506,2.315601348900003,3.8622736930900006,-8.89596700673,4.714854240399999,11.933057784999997,-0.34132820367799804,16.0
2018-10-18 15:07:00.900,-0.0458018407029,-0.0790500791582,-0.924772147301,-0.103358432651,-0.184638395905,-0.0634417012334,0.30400615,0.4707192,13.89602305,0.0,-11.9876947403,11.2532606125,-0.484912037849,-0.103358432651,-0.184638395905,-0.0634417012334,12.8400001526,-189.387329102,-333.520843506,2.315601348900003,3.8622736930900006,-8.89596700673,4.714854240399999,11.933057784999997,-0.34132820367799804,16.0
2018-10-18 15:07:00.950,-0.0458018407029,-0.0790500791582,-0.924772147301,-0.103358432651,-0.184638395905,-0.0634417012334,0.30400615,0.4707192,13.89602305,0.0,-11.9876947403,11.2532606125,-0.484912037849,-0.103358432651,-0.184638395905,-0.0634417012334,12.8400001526,-189.387329102,-333.520843506,2.315601348900003,3.8522734642100005,-8.89596700673,4.6515512466,11.798776626599997,0.01657322049140196,16.0
2018-10-18 15:07:01.000,-0.0458018407029,-0.0790500791582,-0.924772147301,-0.103358432651,-0.184638395905,-0.0634417012334,0.30400615,0.4707192,13.89602305,0.0,-11.9876947403,11.2532606125,-0.484912037849,-0.103358432651,-0.184638395905,-0.0634417012334,12.8899993896,-189.387329102,-332.334350586,2.315601348900003,3.9522738456799997,-9.815967023416,4.6406154633,11.750535011299997,0.18066948652300197,16.0
2018-10-18 15:07:01.050,-0.0458018407029,-0.0790500791582,-0.924772147301,-0.103358432651,-0.184638395905,-0.0634417012334,0.30400615,0.4707192,13.89602305,0.0,-11.9876947403,11.2532606125,-0.484912037849,-0.103358432651,-0.184638395905,-0.0634417012334,12.8899993896,-174.913604736,-331.176239014,2.315601348900003,3.9522738456799997,-10.445967026098,4.610699653599999,11.666721343999997,0.39712211489700194,16.0
2018-10-18 15:07:01.100,-0.0458018407029,-0.0790500791582,-0.924772147301,-0.103358432651,-0.184638395905,-0.0634417012334,0.30400615,0.4707192,13.89602305,0.0,-11.6081495285,11.3775901794,0.557046949863,-0.103358432651,-0.184638395905,-0.0634417012334,12.8899993896,-174.913604736,-331.176239014,2.315601348900003,3.9522738456799997,-10.445967026098,4.613180160500001,11.619986534099997,0.514411926270002,16.0
2018-10-18 15:07:01.150,-0.0458018407029,-0.0790500791582,-0.924772147301,-0.103358432651,-0.184638395905,-0.0634417012334,0.30400615,0.4707192,13.89602305,0.0,-11.6081495285,11.3775901794,0.557046949863,-0.103358432651,-0.184638395905,-0.0634417012334,12.8899993896,-174.913604736,-331.176239014,2.315601348900003,3.9522738456799997,-10.445967026098,4.623006820700001,11.575673103299996,0.625277161598002,16.0
2018-10-18 15:07:01.200,-0.0458018407029,-0.0790500791582,-0.924772147301,-0.103358432651,-0.184638395905,-0.0634417012334,0.30400615,0.4707192,13.89602305,0.0,-11.6081495285,11.3775901794,0.557046949863,-0.103358432651,-0.184638395905,-0.0634417012334,12.8699998856,-174.913604736,-330.018188477,2.315601348900003,4.01227378846,-10.735967010303,4.647983550999999,11.502051353499997,0.755439937115002,16.0
2018-10-18 15:07:01.250,-0.0458018407029,-0.0790500791582,-0.924772147301,-0.103358432651,-0.184638395905,-0.0634417012334,0.30400615,0.4707192,13.89602305,0.0,-11.6081495285,11.3775901794,0.557046949863,-0.103358432651,-0.184638395905,-0.0634417012334,12.8099994659,-169.999511719,-328.87701416,2.315601348900003,4.0222735405000005,-10.865967005534,4.6808538437,11.486521720899997,0.792843043804002,16.0
2018-10-18 15:07:01.300,-0.0579542530087,-0.0132871297142,-0.926113139407,-0.213706359267,-0.0791975036263,0.0401735194027,0.6472389,0.6472389,11.0815145,0.0,-11.4384279251,11.299738884,0.882633626461,-0.213706359267,-0.0791975036263,0.0401735194027,12.8099994659,-169.999511719,-328.87701416,1.9840698241999988,-0.06204175948999957,-4.395693033934,4.6943559647,11.459559440599996,0.8406346440320019,16.0
2018-10-18 15:07:01.350,-0.0579542530087,-0.0132871297142,-0.926113139407,-0.213706359267,-0.0791975036263,0.0401735194027,0.6472389,0.6472389,11.0815145,0.0,-11.4384279251,11.299738884,0.882633626461,-0.213706359267,-0.0791975036263,0.0401735194027,12.7599992752,-169.999511719,-327.735839844,1.9840698241999988,-0.07204151153000016,-4.485693037511,4.7389945984,11.408922195399997,1.000298023220002,16.0
2018-10-18 15:07:01.400,-0.0579542530087,-0.0132871297142,-0.926113139407,-0.213706359267,-0.0791975036263,0.0401735194027,0.6472389,0.6472389,11.0815145,0.0,-11.4384279251,11.299738884,0.882633626461,-0.213706359267,-0.0791975036263,0.0401735194027,12.7599992752,-169.999511719,-327.735839844,1.9840698241999988,-0.08204174042000023,-4.485693037511,4.763580322299999,11.398143768299997,1.049249649050002,16.0
2018-10-18 15:07:01.450,-0.0579542530087,-0.0132871297142,-0.926113139407,-0.213706359267,-0.0791975036263,0.0401735194027,0.6472389,0.6472389,11.0815145,0.0,-11.4384279251,11.299738884,0.882633626461,-0.213706359267,-0.0791975036263,0.0401735194027,12.7599992752,-169.999511719,-327.735839844,1.9840698241999988,-0.08204174042000023,-4.485693037511,4.825129509,11.369401931799997,1.169824481010002,16.0
2018-10-18 15:07:01.500,-0.0579542530087,-0.0132871297142,-0.926113139407,-0.213706359267,-0.0791975036263,0.0401735194027,0.6472389,0.6472389,11.0815145,0.0,-11.4384279251,11.299738884,0.882633626461,-0.213706359267,-0.0791975036263,0.0401735194027,12.6799993515,-167.403030396,-326.603118896,1.9840698241999988,-0.20204162596999975,-4.275693058968,4.931333541900001,11.319179534899996,1.417882323270002,16.0
2018-10-18 15:07:01.550,-0.0579542530087,-0.0132871297142,-0.926113139407,-0.213706359267,-0.0791975036263,0.0401735194027,0.6472389,0.6472389,11.0815145,0.0,-11.3180732727,11.0332746506,1.45457351208,-0.213706359267,-0.0791975036263,0.0401735194027,12.6799993515,-167.403030396,-326.603118896,1.9840698241999988,-0.20204162596999975,-4.275693058968,4.931333541900001,11.319179534899996,1.417882323270002,16.0
2018-10-18 15:07:01.600,-0.0579542530087,-0.0132871297142,-0.926113139407,-0.213706359267,-0.0791975036263,0.0401735194027,0.6472389,0.6472389,11.0815145,0.0,-11.3180732727,11.0332746506,1.45457351208,-0.213706359267,-0.0791975036263,0.0401735194027,12.5799999237,-167.403030396,-325.470397949,1.9840698241999988,-0.40204143524000013,-3.9556930512198,5.0695495605000005,11.295412063599997,1.519415259360002,16.0
2018-10-18 15:07:01.650,-0.0579542530087,-0.0132871297142,-0.926113139407,-0.213706359267,-0.0791975036263,0.0401735194027,0.6472389,0.6472389,11.0815145,0.0,-11.3180732727,11.0332746506,1.45457351208,-0.213706359267,-0.0791975036263,0.0401735194027,12.5799999237,-167.403030396,-325.470397949,1.9840698241999988,-0.40204143524000013,-3.9556930512198,5.0695495605000005,11.295412063599997,1.519415259360002,16.0
2018-10-18 15:07:01.700,-0.0620476840598,0.0132006335163,-0.929960383703,0.0251182280481,0.00906420685351,0.0438642837107,0.4511059,0.91201845,9.40457735,0.0,-11.3180732727,11.0332746506,1.45457351208,-0.213706359267,-0.0791975036263,0.0401735194027,12.4600000381,-148.052597046,-324.337677002,3.3722114563000005,-2.1187276840199996,-0.8674858212460002,5.1858530045,11.288286209099997,1.491851806640002,16.0
2018-10-18 15:07:01.750,-0.0620476840598,0.0132006335163,-0.929960383703,0.0251182280481,0.00906420685351,0.0438642837107,0.4511059,0.91201845,9.40457735,0.0,-11.3180732727,11.0332746506,1.45457351208,-0.213706359267,-0.0791975036263,0.0401735194027,12.4600000381,-148.052597046,-324.337677002,3.3722114563000005,-2.1187276840199996,-0.8674858212460002,5.210335731500001,11.287878036499997,1.493849635120002,16.0
2018-10-18 15:07:01.800,-0.0620476840598,0.0132006335163,-0.929960383703,0.0251182280481,0.00906420685351,0.0438642837107,0.4511059,0.91201845,9.40457735,0.0,-11.2811393738,10.6714916229,1.61732625961,0.0251182280481,0.00906420685351,0.0438642837107,12.3499994278,-148.052597046,-323.204956055,3.3722114563000005,-2.16872787476,-0.37748587131400013,5.3285083771,11.281139373799997,1.617326259610002,16.0
2018-10-18 15:07:01.850,-0.0620476840598,0.0132006335163,-0.929960383703,0.0251182280481,0.00906420685351,0.0438642837107,0.4511059,0.91201845,9.40457735,0.0,-11.2811393738,10.6714916229,1.61732625961,0.0251182280481,0.00906420685351,0.0438642837107,12.3499994278,-148.052597046,-323.204956055,3.3722114563000005,-2.16872787476,-0.37748587131400013,5.369091987599999,11.280712127699996,1.657787084580002,16.0
2018-10-18 15:07:01.900,-0.0620476840598,0.0132006335163,-0.929960383703,0.0251182280481,0.00906420685351,0.0438642837107,0.4511059,0.91201845,9.40457735,0.0,-11.2811393738,10.6714916229,1.61732625961,0.0251182280481,0.00906420685351,0.0438642837107,12.2199993134,-119.204902649,-322.072235107,3.3722114563000005,-2.4287276267999998,0.26251411437999983,5.4594802856,11.273125648499997,1.746166229250002,16.0
2018-10-18 15:07:01.950,-0.0620476840598,0.0132006335163,-0.929960383703,0.0251182280481,0.00906420685351,0.0438642837107,0.4511059,0.91201845,9.40457735,0.0,-11.2811393738,10.6714916229,1.61732625961,0.0251182280481,0.00906420685351,0.0438642837107,12.2199993134,-119.204902649,-322.072235107,3.3722114563000005,-2.4287276267999998,0.26251411437999983,5.5298786162999995,11.236044883699996,1.864509582520002,16.0
2018-10-18 15:07:02.000,-0.0620476840598,0.0132006335163,-0.929960383703,0.0251182280481,0.00906420685351,0.0438642837107,0.4511059,0.91201845,9.40457735,0.0,-11.2811393738,10.6714916229,1.61732625961,0.0251182280481,0.00906420685351,0.0438642837107,12.0799999237,-119.204902649,-320.93951416,3.3722114563000005,-2.71872758865,0.5325140953099998,5.615036010700001,11.228631019599996,1.881861329080002,16.0
2018-10-18 15:07:02.050,-0.0649197395992,0.0188661049725,-0.929281186442,-0.0653755813837,-0.0227387752384,-0.00733207119629,0.65704555,0.5099458,11.40513395,0.0,-11.2086343765,10.3420648575,1.93211913109,0.0251182280481,0.00906420685351,0.0438642837107,12.0799999237,-119.204902649,-320.93951416,3.3722114563000005,-2.71872758865,0.5225141048399999,5.632464408900001,11.219349861099996,1.899285793300002,16.0
2018-10-18 15:07:02.100,-0.0649197395992,0.0188661049725,-0.929281186442,-0.0653755813837,-0.0227387752384,-0.00733207119629,0.65704555,0.5099458,11.40513395,0.0,-11.2086343765,10.3420648575,1.93211913109,0.0251182280481,0.00906420685351,0.0438642837107,11.9299993515,-143.234069824,-319.823730469,3.2648849487000007,-3.5015683174099994,1.371213495729,5.7498617172,11.198444366499997,1.983243942260002,16.0
2018-10-18 15:07:02.150,-0.0649197395992,0.0188661049725,-0.929281186442,-0.0653755813837,-0.0227387752384,-0.00733207119629,0.65704555,0.5099458,11.40513395,0.0,-11.2086343765,10.3420648575,1.93211913109,0.0251182280481,0.00906420685351,0.0438642837107,11.9299993515,-143.234069824,-319.823730469,3.2648849487000007,-3.5015683174099994,1.371213495729,5.7727460861,11.193403243999997,1.989090323450002,16.0
2018-10-18 15:07:02.200,-0.0649197395992,0.0188661049725,-0.929281186442,-0.0653755813837,-0.0227387752384,-0.00733207119629,0.65704555,0.5099458,11.40513395,0.0,-11.2086343765,10.3420648575,1.93211913109,0.0251182280481,0.00906420685351,0.0438642837107,11.7699995041,-143.234069824,-318.682556152,3.2648849487000007,-3.7615683078699997,1.771213591099,5.8946628571,11.170001029999996,1.981485605240002,16.0
2018-10-18 15:07:02.250,-0.0649197395992,0.0188661049725,-0.929281186442,-0.0653755813837,-0.0227387752384,-0.00733207119629,0.65704555,0.5099458,11.40513395,0.0,-11.2086343765,10.3420648575,1.93211913109,0.0251182280481,0.00906420685351,0.0438642837107,11.7699995041,-143.234069824,-318.682556152,3.2648849487000007,-4.001568078989999,2.201213419439,5.8946628571,11.170001029999996,1.981485605240002,16.0
2018-10-18 15:07:02.300,-0.0649197395992,0.0188661049725,-0.929281186442,-0.0653755813837,-0.0227387752384,-0.00733207119629,0.65704555,0.5099458,11.40513395,0.0,-11.1615514755,10.0051040649,2.04683899879,-0.0653755813837,-0.0227387752384,-0.00733207119629,11.6099996567,-124.341583252,-317.575195312,3.2648849487000007,-4.001568078989999,2.201213419439,5.994895935100001,11.161551475499996,2.046838998790002,16.0
2018-10-18 15:07:02.350,-0.0649197395992,0.0188661049725,-0.929281186442,-0.0653755813837,-0.0227387752384,-0.00733207119629,0.65704555,0.5099458,11.40513395,0.0,-11.1615514755,10.0051040649,2.04683899879,-0.0653755813837,-0.0227387752384,-0.00733207119629,11.6099996567,-124.341583252,-317.575195312,3.2648849487000007,-4.001568078989999,2.201213419439,6.024939537050001,11.160043716399997,2.0710244178800017,16.0
2018-10-18 15:07:02.400,-0.0649197395992,0.0188661049725,-0.929281186442,-0.0653755813837,-0.0227387752384,-0.00733207119629,0.65704555,0.5099458,11.40513395,0.0,-11.1615514755,10.0051040649,2.04683899879,-0.0653755813837,-0.0227387752384,-0.00733207119629,11.4499998093,-124.341583252,-316.450927734,3.2648849487000007,-4.3215682506499995,2.661213457589,6.12209796906,11.168791770899997,2.089742422100002,16.0
2018-10-18 15:07:02.450,-0.0649197395992,0.0188661049725,-0.929281186442,-0.0653755813837,-0.0227387752384,-0.00733207119629,0.65704555,0.5099458,11.40513395,0.0,-11.1615514755,10.0051040649,2.04683899879,-0.0653755813837,-0.0227387752384,-0.00733207119629,11.279999733,-105.846786499,-315.335113525,3.2648849487000007,-4.59156823158,3.051213562489,6.227048873899999,11.159375190699997,2.030569314960002,16.0
2018-10-18 15:07:02.500,-0.0641848600639,0.0124378440753,-0.9301250777,-0.00907026510686,0.0911589190364,-0.0325822420418,0.79433865,0.5491724,10.0420096,0.0,-11.1615514755,10.0051040649,2.04683899879,-0.0653755813837,-0.0227387752384,-0.00733207119629,11.279999733,-105.846786499,-315.335113525,3.2648849487000007,-4.59156823158,3.051213562489,6.227048873899999,11.159375190699997,2.030569314960002,16.0
2018-10-18 15:07:02.550,-0.0641848600639,0.0124378440753,-0.9301250777,-0.00907026510686,0.0911589190364,-0.0325822420418,0.79433865,0.5491724,10.0420096,0.0,-11.14457798,9.74426174164,1.90850377083,-0.00907026510686,0.0911589190364,-0.0325822420418,11.1199998856,-105.846786499,-314.210845947,3.4486465454000026,-4.24653077126,2.40650057793,6.255738258359999,11.144577979999996,1.9085037708300019,16.0
2018-10-18 15:07:02.600,-0.0641848600639,0.0124378440753,-0.9301250777,-0.00907026510686,0.0911589190364,-0.0325822420418,0.79433865,0.5491724,10.0420096,0.0,-11.14457798,9.74426174164,1.90850377083,-0.00907026510686,0.0911589190364,-0.0325822420418,11.1199998856,-105.846786499,-314.210845947,3.4486465454000026,-4.37653064728,2.66650032997,6.30915641785,11.134413719199996,1.739060282710002,16.0
2018-10-18 15:07:02.650,-0.0641848600639,0.0124378440753,-0.9301250777,-0.00907026510686,0.0911589190364,-0.0325822420418,0.79433865,0.5491724,10.0420096,0.0,-11.14457798,9.74426174164,1.90850377083,-0.00907026510686,0.0911589190364,-0.0325822420418,11.1199998856,-105.846786499,-314.210845947,3.4486465454000026,-4.37653064728,2.66650032997,6.30915641785,11.134413719199996,1.739060282710002,16.0
2018-10-18 15:07:02.700,-0.0641848600639,0.0124378440753,-0.9301250777,-0.00907026510686,0.0911589190364,-0.0325822420418,0.79433865,0.5491724,10.0420096,0.0,-11.14457798,9.74426174164,1.90850377083,-0.00907026510686,0.0911589190364,-0.0325822420418,10.9699993134,-78.6727905273,-313.095031738,3.4486465454000026,-4.38653063774,2.8665006160799997,6.38588047028,11.123971939099997,1.461638092990002,16.0
2018-10-18 15:07:02.750,-0.0641848600639,0.0124378440753,-0.9301250777,-0.00907026510686,0.0911589190364,-0.0325822420418,0.79433865,0.5491724,10.0420096,0.0,-11.14457798,9.74426174164,1.90850377083,-0.00907026510686,0.0911589190364,-0.0325822420418,10.8599996567,-78.6727905273,-311.979217529,3.4486465454000026,-4.4265305995999995,2.9665005207100004,6.38588047028,11.123971939099997,1.461638092990002,16.0
2018-10-18 15:07:02.800,-0.0641848600639,0.0124378440753,-0.9301250777,-0.00907026510686,0.0911589190364,-0.0325822420418,0.79433865,0.5491724,10.0420096,0.0,-11.0568265915,9.58813762665,1.4618448019,-0.00907026510686,0.0911589190364,-0.0325822420418,10.8599996567,-78.6727905273,-311.979217529,3.4486465454000026,-4.4265305995999995,2.9665005207100004,6.3893384933499995,11.007709503199996,1.443082809450002,16.0
2018-10-18 15:07:02.850,-0.0641848600639,0.0124378440753,-0.9301250777,-0.00907026510686,0.0911589190364,-0.0325822420418,0.79433865,0.5491724,10.0420096,0.0,-11.0568265915,9.58813762665,1.4618448019,-0.00907026510686,0.0911589190364,-0.0325822420418,10.7600002289,-78.8112640381,-310.863433838,3.4486465454000026,-4.576530694960001,2.5465004444200003,6.3893384933499995,11.007709503199996,1.443082809450002,16.0
2018-10-18 15:07:02.900,-0.0641848600639,0.0124378440753,-0.9301250777,-0.00907026510686,0.0911589190364,-0.0325822420418,0.79433865,0.5491724,10.0420096,0.0,-11.0568265915,9.58813762665,1.4618448019,-0.00907026510686,0.0911589190364,-0.0325822420418,10.7600002289,-78.8112640381,-310.863433838,3.4486465454000026,-4.5665307045,2.5465004444200003,6.37264347076,10.924407005299997,1.345082521440002,16.0
2018-10-18 15:07:02.950,-0.0730822329906,-0.0541476193592,-0.925752678568,0.386846601963,0.072251111269,0.0242031123489,0.392266,0.14709975,8.3160392,0.0,-11.0568265915,9.58813762665,1.4618448019,-0.00907026510686,0.0911589190364,-0.0325822420418,10.6599998474,-78.8112640381,-309.772949219,2.320140838599997,-2.7038309574099997,-5.464094638820001,6.3605890274,10.876575469999997,1.283939242360002,16.0
2018-10-18 15:07:03.000,-0.0730822329906,-0.0541476193592,-0.925752678568,0.386846601963,0.072251111269,0.0242031123489,0.392266,0.14709975,8.3160392,0.0,-10.8296728134,9.67094135284,1.12934434414,0.386846601963,0.072251111269,0.0242031123489,10.6599998474,-78.8112640381,-309.772949219,2.320140838599997,-2.7038309574099997,-5.464094638820001,6.32905864716,10.829672813399997,1.129344344140002,16.0
2018-10-18 15:07:03.050,-0.0730822329906,-0.0541476193592,-0.925752678568,0.386846601963,0.072251111269,0.0242031123489,0.392266,0.14709975,8.3160392,0.0,-10.8296728134,9.67094135284,1.12934434414,0.386846601963,0.072251111269,0.0242031123489,10.6599998474,-78.8112640381,-309.772949219,2.320140838599997,-2.69383096695,-5.464094638820001,6.319932937620001,10.795713424699997,1.031170606610002,16.0
2018-10-18 15:07:03.100,-0.0730822329906,-0.0541476193592,-0.925752678568,0.386846601963,0.072251111269,0.0242031123489,0.392266,0.14709975,8.3160392,0.0,-10.8296728134,9.67094135284,1.12934434414,0.386846601963,0.072251111269,0.0242031123489,10.5699996948,-71.9114303589,-308.699432373,2.320140838599997,-2.6238310336999997,-5.90409445762,6.246376037599999,10.708683967599997,0.978707432747002,16.0
2018-10-18 15:07:03.150,-0.0730822329906,-0.0541476193592,-0.925752678568,0.386846601963,0.072251111269,0.0242031123489,0.392266,0.14709975,8.3160392,0.0,-10.8296728134,9.67094135284,1.12934434414,0.386846601963,0.072251111269,0.0242031123489,10.5699996948,-71.9114303589,-308.699432373,2.320140838599997,-2.61383104324,-5.90409445762,6.2078781127900005,10.660686492899996,0.924985945225002,16.0
2018-10-18 15:07:03.200,-0.0730822329906,-0.0541476193592,-0.925752678568,0.386846601963,0.072251111269,0.0242031123489,0.392266,0.14709975,8.3160392,0.0,-10.8296728134,9.67094135284,1.12934434414,0.386846601963,0.072251111269,0.0242031123489,10.5,-71.9114303589,-307.625854492,2.320140838599997,-2.61383104324,-6.81409454345,6.12141704559,10.551430702199996,0.901819467545002,16.0
2018-10-18 15:07:03.250,-0.0730822329906,-0.0541476193592,-0.925752678568,0.386846601963,0.072251111269,0.0242031123489,0.392266,0.14709975,8.3160392,0.0,-10.500336647,9.93269062042,0.825254917145,0.386846601963,0.072251111269,0.0242031123489,10.5,-71.9114303589,-307.625854492,2.320140838599997,-2.61383104324,-6.81409454345,6.10304927826,10.531615257299997,0.863824844360002,16.0
2018-10-18 15:07:03.300,-0.0730822329906,-0.0541476193592,-0.925752678568,0.386846601963,0.072251111269,0.0242031123489,0.392266,0.14709975,8.3160392,0.0,-10.500336647,9.93269062042,0.825254917145,0.386846601963,0.072251111269,0.0242031123489,10.4499998093,-64.2953872681,-306.577697754,2.320140838599997,-2.5938310623099996,-7.914094507691001,6.10304927826,10.531615257299997,0.863824844360002,16.0
2018-10-18 15:07:03.350,-0.0889954081565,-0.109052792208,-0.924649260151,0.0952160134912,0.0083521399647,0.0978995338082,0.81395195,0.2157463,8.93385815,0.0,-10.500336647,9.93269062042,0.825254917145,0.386846601963,0.072251111269,0.0242031123489,10.4499998093,-64.2953872681,-306.577697754,3.4388809204000026,-2.12416601181,-14.426781237131001,5.982873916599999,10.404636383099996,0.662770628929002,16.0
2018-10-18 15:07:03.400,-0.0889954081565,-0.109052792208,-0.924649260151,0.0952160134912,0.0083521399647,0.0978995338082,0.81395195,0.2157463,8.93385815,0.0,-10.500336647,9.93269062042,0.825254917145,0.386846601963,0.072251111269,0.0242031123489,10.3999996185,-64.2953872681,-305.537963867,3.4388809204000026,-2.02416586876,-15.3067812025605,5.9040403366,10.319990158099996,0.591875433922002,16.0
2018-10-18 15:07:03.450,-0.0889954081565,-0.109052792208,-0.924649260151,0.0952160134912,0.0083521399647,0.0978995338082,0.81395195,0.2157463,8.93385815,0.0,-10.500336647,9.93269062042,0.825254917145,0.386846601963,0.072251111269,0.0242031123489,10.3699998856,-88.4777069092,-304.506652832,3.4388809204000026,-1.9541659355199998,-16.136781156069002,5.8231678009,10.234600067099997,0.49510836601300195,16.0
2018-10-18 15:07:03.500,-0.0889954081565,-0.109052792208,-0.924649260151,0.0952160134912,0.0083521399647,0.0978995338082,0.81395195,0.2157463,8.93385815,0.0,-10.218793869,10.1831979752,0.42683711648,0.0952160134912,0.0083521399647,0.0978995338082,10.3699998856,-88.4777069092,-304.506652832,3.4388809204000026,-1.9541659355199998,-16.136781156069002,5.8212575912,10.224115371699996,0.46602284908300196,16.0
2018-10-18 15:07:03.550,-0.0889954081565,-0.109052792208,-0.924649260151,0.0952160134912,0.0083521399647,0.0978995338082,0.81395195,0.2157463,8.93385815,0.0,-10.218793869,10.1831979752,0.42683711648,0.0952160134912,0.0083521399647,0.0978995338082,10.3400001526,-88.4777069092,-303.49230957,3.4388809204000026,-1.9641659259800002,-16.136781156069002,5.7834072113,10.171010017399997,0.4101272821430019,16.0
2018-10-18 15:07:03.600,-0.0707971904737,-0.060995866497,-0.933460605484,-0.444302231073,0.0185233950615,0.0085314931348,0.67665885,1.50041745,9.5320638,0.0,-10.218793869,10.1831979752,0.42683711648,0.0952160134912,0.0083521399647,0.0978995338082,10.3400001526,-88.4777069092,-303.49230957,3.4388809204000026,-1.89416599274,-16.576781153680002,5.7809467316,10.157810211199996,0.38682019710500193,16.0
2018-10-18 15:07:03.650,-0.0707971904737,-0.060995866497,-0.933460605484,-0.444302231073,0.0185233950615,0.0085314931348,0.67665885,1.50041745,9.5320638,0.0,-10.218793869,10.1831979752,0.42683711648,0.0952160134912,0.0083521399647,0.0978995338082,10.3400001526,-88.4777069092,-303.49230957,4.8674774170000035,-2.0494616031599997,-10.58419024944,5.7508649826,10.126589775099996,0.43445557355900194,16.0
2018-10-18 15:07:03.700,-0.0707971904737,-0.060995866497,-0.933460605484,-0.444302231073,0.0185233950615,0.0085314931348,0.67665885,1.50041745,9.5320638,0.0,-10.218793869,10.1831979752,0.42683711648,0.0952160134912,0.0083521399647,0.0978995338082,10.3199996948,-55.2492141724,-302.477905273,4.8674774170000035,-2.0594615936299996,-10.934190273290001,5.754580497699999,10.116174697899996,0.44287562370300193,16.0
2018-10-18 15:07:03.750,-0.0707971904737,-0.060995866497,-0.933460605484,-0.444302231073,0.0185233950615,0.0085314931348,0.67665885,1.50041745,9.5320638,0.0,-10.218793869,10.1831979752,0.42683711648,0.0952160134912,0.0083521399647,0.0978995338082,10.3000001907,-55.2492141724,-301.472015381,4.8674774170000035,-2.0494616031599997,-11.104190230370001,5.7345104218,10.103007316599996,0.41112405061700197,16.0
2018-10-18 15:07:03.800,-0.0707971904737,-0.060995866497,-0.933460605484,-0.444302231073,0.0185233950615,0.0085314931348,0.67665885,1.50041745,9.5320638,0.0,-10.1030073166,10.2654895782,0.411124050617,-0.444302231073,0.0185233950615,0.0085314931348,10.3000001907,-55.2492141724,-301.472015381,4.8674774170000035,-2.0494616031599997,-11.104190230370001,5.732420921299999,10.113841056799997,0.35123425722100193,16.0
2018-10-18 15:07:03.850,-0.0707971904737,-0.060995866497,-0.933460605484,-0.444302231073,0.0185233950615,0.0085314931348,0.67665885,1.50041745,9.5320638,0.0,-10.1030073166,10.2654895782,0.411124050617,-0.444302231073,0.0185233950615,0.0085314931348,10.279999733,-63.5499954224,-300.466064453,4.8674774170000035,-1.9694616794599997,-11.16419029236,5.717398643499999,10.106494903599996,0.34020715951900193,16.0
2018-10-18 15:07:03.900,-0.0707971904737,-0.060995866497,-0.933460605484,-0.444302231073,0.0185233950615,0.0085314931348,0.67665885,1.50041745,9.5320638,0.0,-10.1030073166,10.2654895782,0.411124050617,-0.444302231073,0.0185233950615,0.0085314931348,10.279999733,-63.5499954224,-300.466064453,4.8674774170000035,-1.9694616794599997,-11.16419029236,5.7232408524,10.113690376299996,0.25238230824500196,16.0
2018-10-18 15:07:03.950,-0.0707971904737,-0.060995866497,-0.933460605484,-0.444302231073,0.0185233950615,0.0085314931348,0.67665885,1.50041745,9.5320638,0.0,-10.1030073166,10.2654895782,0.411124050617,-0.444302231073,0.0185233950615,0.0085314931348,10.279999733,-63.5499954224,-300.466064453,4.8674774170000035,-1.9694616794599997,-11.16419029236,5.6988563538,10.112008094799997,0.18890617787800196,16.0
2018-10-18 15:07:04.000,-0.0707971904737,-0.060995866497,-0.933460605484,-0.444302231073,0.0185233950615,0.0085314931348,0.67665885,1.50041745,9.5320638,0.0,-10.1030073166,10.2654895782,0.411124050617,-0.444302231073,0.0185233950615,0.0085314931348,10.2699995041,-63.5499954224,-299.451721191,4.8674774170000035,-1.8294615745499998,-11.184190273290001,5.703096389800001,10.130329132099996,0.11607878655200196,16.0
2018-10-18 15:07:04.050,-0.0707971904737,-0.060995866497,-0.933460605484,-0.444302231073,0.0185233950615,0.0085314931348,0.67665885,1.50041745,9.5320638,0.0,-10.1305027008,10.3227396011,0.0951636880636,-0.444302231073,0.0185233950615,0.0085314931348,10.2699995041,-63.5499954224,-299.451721191,4.8674774170000035,-1.8294615745499998,-11.184190273290001,5.684378624000001,10.145248413099996,0.05039229989050196,16.0
