%time,field.orientation.x,field.orientation.y,field.orientation.z,field.angular_velocity.x,field.angular_velocity.y,field.angular_velocity.z,field.linear_acceleration.x,field.linear_acceleration.y,field.linear_acceleration.z,field.data,field.twist.linear.x,field.twist.linear.y,field.twist.linear.z,field.twist.angular.x,field.twist.angular.y,field.twist.angular.z,field.alt_error,field.aspd_error,field.xtrack_error,delta_yaw,delta_pitch,delta_roll,delta_x,delta_y,delta_z,delta_roll_airspeed
2018-10-05 20:08:14.300,,,,,,,,,,0.0,,,,,,,3.90999984741,-307.149688721,4.34827947617,-22.451904296899997,16.663838446183,2.3037586212,1.60114669801,-7.3239078521,1.3653371334100013,15.0
2018-10-05 20:08:14.350,,,,,,,,,,0.0,,,,,,,3.90999984741,-307.149688721,4.34827947617,-22.451904296899997,16.663838446183,1.9737586974999992,1.4453678131299998,-7.255527496300001,1.4253770113000013,15.0
2018-10-05 20:08:14.400,,,,,,,,,,0.0,,,,,,,-0.149999991059,-307.149688721,-40.5022010803,-185.4519042969,2.9338377118129997,27.613758683194998,0.8200807571599995,-6.991268157899999,1.6080244779600013,15.0
2018-10-05 20:08:14.450,,,,,,,,,,0.0,19.5473594666,9.02144813538,1.56505298615,0.258555144072,-0.250048875809,0.410016328096,-0.149999991059,-307.149688721,-40.5022010803,-185.4519042969,2.9338377118129997,25.66375875472,6.5200643539400005,-19.339918136600005,1.654417157170002,15.0
2018-10-05 20:08:14.500,,,,,,,,,,0.0,19.5473594666,9.02144813538,1.56505298615,0.258555144072,-0.250048875809,0.410016328096,-0.149999991059,-307.149688721,-40.5022010803,-185.4519042969,2.9338377118129997,25.66375875472,6.5200643539400005,-19.339918136600005,1.654417157170002,15.0
2018-10-05 20:08:14.550,,,,,,,,,,0.0,19.5473594666,9.02144813538,1.56505298615,0.258555144072,-0.250048875809,0.410016328096,-0.149999991059,-307.149688721,-40.5022010803,-185.4519042969,2.9338377118129997,25.66375875472,6.5200643539400005,-19.339918136600005,1.654417157170002,15.0
2018-10-05 20:08:14.600,,,,,,,,,,0.0,19.5473594666,9.02144813538,1.56505298615,0.258555144072,-0.250048875809,0.410016328096,-0.509999990463,-301.902008057,-435.394165039,-117.4519042969,-1.8561620116270001,-17.7662391663,6.5200643539400005,-19.339918136600005,1.654417157170002,15.0
2018-10-05 20:08:14.650,,,,,,,,,,0.0,18.6614456177,10.8412208557,1.61170530319,-0.419432401657,-0.0496856942773,0.0760241672397,-0.509999990463,-301.902008057,-435.394165039,-117.4519042969,-1.8561620116270001,-17.7662391663,5.565804481500001,-18.904233932500002,1.498397827150002,16.0
2018-10-05 20:08:14.700,0.220874448579,0.0599577160322,-0.218901017117,-0.419432401657,-0.0496856942773,0.0760241672397,0.30400615,1.61809725,13.5527903,0.0,18.6614456177,10.8412208557,1.61170530319,-0.419432401657,-0.0496856942773,0.0760241672397,-0.689999997616,-269.520568848,-437.279266357,-107.7801208496,-4.016576051709,-18.5458831787,4.8261814117,-18.441814422600004,1.547707557680002,16.0
2018-10-05 20:08:14.750,0.220874448579,0.0599577160322,-0.218901017117,-0.419432401657,-0.0496856942773,0.0760241672397,0.30400615,1.61809725,13.5527903,0.0,18.6614456177,10.8412208557,1.61170530319,-0.419432401657,-0.0496856942773,0.0760241672397,-0.870000004768,-269.520568848,-439.122070312,-107.7801208496,-4.716576099399,-18.5458831787,4.6906919478999995,-18.342098236100004,1.317005038260002,16.0
2018-10-05 20:08:14.800,0.220874448579,0.0599577160322,-0.218901017117,-0.419432401657,-0.0496856942773,0.0760241672397,0.30400615,1.61809725,13.5527903,0.0,18.6614456177,10.8412208557,1.61170530319,-0.419432401657,-0.0496856942773,0.0760241672397,-0.870000004768,-269.520568848,-439.122070312,-107.7801208496,-4.716576099399,-18.5458831787,4.593420028700001,-18.261350631700004,1.035881400110002,16.0
2018-10-05 20:08:14.850,0.220874448579,0.0599577160322,-0.218901017117,-0.419432401657,-0.0496856942773,0.0760241672397,0.30400615,1.61809725,13.5527903,0.0,18.0552883148,11.6551036835,0.589601814747,-0.419432401657,-0.0496856942773,0.0760241672397,-0.989999949932,-278.324890137,-440.939544678,-107.7801208496,-4.866575956349,-18.5458831787,4.477062225299999,-18.164531707800002,0.797687411308002,16.0
2018-10-05 20:08:14.900,0.220874448579,0.0599577160322,-0.218901017117,-0.419432401657,-0.0496856942773,0.0760241672397,0.30400615,1.61809725,13.5527903,0.0,18.0552883148,11.6551036835,0.589601814747,-0.419432401657,-0.0496856942773,0.0760241672397,-0.989999949932,-278.324890137,-440.939544678,-107.7801208496,-5.026575803759,-18.5558853149,4.269253730799999,-17.993610382100005,0.49678596854200197,16.0
2018-10-05 20:08:14.950,0.220874448579,0.0599577160322,-0.218901017117,-0.419432401657,-0.0496856942773,0.0760241672397,0.30400615,1.61809725,13.5527903,0.0,18.0552883148,11.6551036835,0.589601814747,-0.419432401657,-0.0496856942773,0.0760241672397,-1.05999994278,-278.324890137,-442.740081787,-107.7801208496,-5.026575803759,-18.5458831787,4.1259813309,-17.870525360100004,0.31016799807500195,16.0
2018-10-05 20:08:15.000,0.220874448579,0.0599577160322,-0.218901017117,-0.419432401657,-0.0496856942773,0.0760241672397,0.30400615,1.61809725,13.5527903,0.0,18.0552883148,11.6551036835,0.589601814747,-0.419432401657,-0.0496856942773,0.0760241672397,-1.05999994278,-278.324890137,-442.740081787,-107.7801208496,-5.026575803759,-18.5458831787,4.1259813309,-17.870525360100004,0.31016799807500195,16.0
2018-10-05 20:08:15.050,0.220874448579,0.0599577160322,-0.218901017117,-0.419432401657,-0.0496856942773,0.0760241672397,0.30400615,1.61809725,13.5527903,0.0,18.0552883148,11.6551036835,0.589601814747,-0.419432401657,-0.0496856942773,0.0760241672397,-1.05999994278,-278.324890137,-442.740081787,-107.7801208496,-6.056576013569,-18.5458831787,3.729991912799999,-17.527389526400004,-0.06991855055089805,16.0
2018-10-05 20:08:15.100,0.308331106635,0.077020139302,-0.249787517634,-0.127515599132,-0.122721493244,0.288088858128,-0.9022118,0.53936575,9.022118,0.0,18.0552883148,11.6551036835,0.589601814747,-0.419432401657,-0.0496856942773,0.0760241672397,-1.05999994278,-278.324890137,-442.740081787,-107.7801208496,-6.056576013569,-18.5458831787,3.729991912799999,-17.527389526400004,-0.06991855055089805,16.0
2018-10-05 20:08:15.150,0.308331106635,0.077020139302,-0.249787517634,-0.127515599132,-0.122721493244,0.288088858128,-0.9022118,0.53936575,9.022118,0.0,17.0463104248,12.8357114792,-0.424760013819,-0.127515599132,-0.122721493244,0.288088858128,-1.06999993324,-268.53427124,-444.515289307,-103.703086853,-5.377124011513001,-7.9360542298,3.2624330521000005,-17.124843597400005,-0.36415255069699803,16.0
2018-10-05 20:08:15.200,0.308331106635,0.077020139302,-0.249787517634,-0.127515599132,-0.122721493244,0.288088858128,-0.9022118,0.53936575,9.022118,0.0,17.0463104248,12.8357114792,-0.424760013819,-0.127515599132,-0.122721493244,0.288088858128,-1.04999995232,-268.53427124,-446.248168945,-103.703086853,-5.787124335763,-7.9360542298,2.9575643539000005,-16.858440399200003,-0.49947881698599805,16.0
2018-10-05 20:08:15.250,0.308331106635,0.077020139302,-0.249787517634,-0.127515599132,-0.122721493244,0.288088858128,-0.9022118,0.53936575,9.022118,0.0,17.0463104248,12.8357114792,-0.424760013819,-0.127515599132,-0.122721493244,0.288088858128,-1.01999998093,-255.229568481,-447.938812256,-103.703086853,-5.527124106883001,-7.926055908199999,2.6479234695000002,-16.585239410400003,-0.619107842444998,16.0
2018-10-05 20:08:15.300,0.308331106635,0.077020139302,-0.249787517634,-0.127515599132,-0.122721493244,0.288088858128,-0.9022118,0.53936575,9.022118,0.0,17.0463104248,12.8357114792,-0.424760013819,-0.127515599132,-0.122721493244,0.288088858128,-1.01999998093,-255.229568481,-447.938812256,-103.703086853,-5.527124106883001,-7.926055908199999,2.4198541641,-16.396289825400004,-0.665768265723998,16.0
2018-10-05 20:08:15.350,0.308331106635,0.077020139302,-0.249787517634,-0.127515599132,-0.122721493244,0.288088858128,-0.9022118,0.53936575,9.022118,0.0,17.0463104248,12.8357114792,-0.424760013819,-0.127515599132,-0.122721493244,0.288088858128,-1.01999998093,-255.229568481,-447.938812256,-103.703086853,-5.527124106883001,-7.926055908199999,2.3031301497999994,-16.287000656100002,-0.676373004912998,16.0
2018-10-05 20:08:15.400,0.308331106635,0.077020139302,-0.249787517634,-0.127515599132,-0.122721493244,0.288088858128,-0.9022118,0.53936575,9.022118,0.0,15.9968681335,14.0211029053,-0.750261902809,-0.127515599132,-0.122721493244,0.288088858128,-0.979999959469,-255.229568481,-449.587219238,-103.703086853,-6.097124278542999,-7.926055908199999,2.3031301497999994,-16.287000656100002,-0.676373004912998,16.0
2018-10-05 20:08:15.450,0.308331106635,0.077020139302,-0.249787517634,-0.127515599132,-0.122721493244,0.288088858128,-0.9022118,0.53936575,9.022118,0.0,15.9968681335,14.0211029053,-0.750261902809,-0.127515599132,-0.122721493244,0.288088858128,-0.979999959469,-255.229568481,-449.587219238,-103.703086853,-6.1471239924429995,-7.926055908199999,1.5667858123999991,-15.618293762200004,-0.869725108146998,16.0
2018-10-05 20:08:15.500,0.332782660396,0.095475350731,-0.299915815881,-0.08291772753,-0.144946530461,0.193948060274,-0.81395195,-0.2353596,10.71866845,0.0,15.9968681335,14.0211029053,-0.750261902809,-0.127515599132,-0.122721493244,0.288088858128,-0.930000007153,-276.726928711,-451.176452637,-97.3433837891,-5.4181830883,-4.4988632202000005,1.2889413833999992,-15.341208457900004,-0.972321212291998,16.0
2018-10-05 20:08:15.550,0.332782660396,0.095475350731,-0.299915815881,-0.08291772753,-0.144946530461,0.193948060274,-0.81395195,-0.2353596,10.71866845,0.0,15.9968681335,14.0211029053,-0.750261902809,-0.127515599132,-0.122721493244,0.288088858128,-0.930000007153,-276.726928711,-451.176452637,-97.3433837891,-5.4181830883,-4.4988632202000005,1.2889413833999992,-15.341208457900004,-0.972321212291998,16.0
2018-10-05 20:08:15.600,0.332782660396,0.095475350731,-0.299915815881,-0.08291772753,-0.144946530461,0.193948060274,-0.81395195,-0.2353596,10.71866845,0.0,15.9968681335,14.0211029053,-0.750261902809,-0.127515599132,-0.122721493244,0.288088858128,-0.879999995232,-276.726928711,-452.723388672,-97.3433837891,-5.8281834125500005,-4.488861084,0.9385509490999997,-14.976449012800003,-1.089912414549998,16.0
2018-10-05 20:08:15.650,0.332782660396,0.095475350731,-0.299915815881,-0.08291772753,-0.144946530461,0.193948060274,-0.81395195,-0.2353596,10.71866845,0.0,14.8769731522,15.1536397934,-1.1142847538,-0.08291772753,-0.144946530461,0.193948060274,-0.819999992847,-263.117401123,-454.211181641,-97.3433837891,-6.0381834507,-4.488861084,0.7643079757999995,-14.796751976000003,-1.154847145079998,16.0
2018-10-05 20:08:15.700,0.332782660396,0.095475350731,-0.299915815881,-0.08291772753,-0.144946530461,0.193948060274,-0.81395195,-0.2353596,10.71866845,0.0,14.8769731522,15.1536397934,-1.1142847538,-0.08291772753,-0.144946530461,0.193948060274,-0.819999992847,-263.117401123,-454.211181641,-97.3433837891,-6.09818339348,-4.4788627625,0.5002937316999994,-14.518107414200003,-1.208276510239998,16.0
2018-10-05 20:08:15.750,0.332782660396,0.095475350731,-0.299915815881,-0.08291772753,-0.144946530461,0.193948060274,-0.81395195,-0.2353596,10.71866845,0.0,14.8769731522,15.1536397934,-1.1142847538,-0.08291772753,-0.144946530461,0.193948060274,-0.759999990463,-263.117401123,-455.66494751,-97.3433837891,-6.10818314552,-4.4788627625,0.2280387877999992,-14.227637291000004,-1.237379193309998,16.0
2018-10-05 20:08:15.800,0.332782660396,0.095475350731,-0.299915815881,-0.08291772753,-0.144946530461,0.193948060274,-0.81395195,-0.2353596,10.71866845,0.0,14.8769731522,15.1536397934,-1.1142847538,-0.08291772753,-0.144946530461,0.193948060274,-0.759999990463,-263.117401123,-455.66494751,-97.3433837891,-5.84818339348,-4.4588623047000056,-0.04780960080000085,-13.926173210100004,-1.269448041919998,16.0
2018-10-05 20:08:15.850,0.332782660396,0.095475350731,-0.299915815881,-0.08291772753,-0.144946530461,0.193948060274,-0.81395195,-0.2353596,10.71866845,0.0,13.7273492813,16.22864151,-1.29760217667,-0.08291772753,-0.144946530461,0.193948060274,-0.759999990463,-263.117401123,-455.66494751,-97.3433837891,-5.84818339348,-4.448863983199999,-0.13437843319999843,-13.835568428000004,-1.297714829439998,16.0
2018-10-05 20:08:15.900,0.300161939306,0.0928576453985,-0.375099734129,-0.0366841331124,-0.184162333608,0.41183501482,-0.6472389,0.14709975,11.4541672,0.0,13.7273492813,16.22864151,-1.29760217667,-0.08291772753,-0.144946530461,0.193948060274,-0.680000007153,-265.072998047,-457.068206787,-97.3433837891,-5.56818318367,-4.438861846900004,-0.3307418822999999,-13.617807388300003,-1.300389647479998,16.0
2018-10-05 20:08:15.950,0.300161939306,0.0928576453985,-0.375099734129,-0.0366841331124,-0.184162333608,0.41183501482,-0.6472389,0.14709975,11.4541672,0.0,13.7273492813,16.22864151,-1.29760217667,-0.08291772753,-0.144946530461,0.193948060274,-0.680000007153,-265.072998047,-457.068206787,-88.6489372253,-3.65553426742,-8.440078735299998,-0.5195465088000013,-13.404954910300004,-1.307821631429998,16.0
2018-10-05 20:08:16.000,0.300161939306,0.0928576453985,-0.375099734129,-0.0366841331124,-0.184162333608,0.41183501482,-0.6472389,0.14709975,11.4541672,0.0,13.7273492813,16.22864151,-1.29760217667,-0.08291772753,-0.144946530461,0.193948060274,-0.610000014305,-265.072998047,-458.420684814,-88.6489372253,-3.3855342864899995,-8.420078277499996,-0.7329730987999987,-13.136693000800003,-1.451218008999998,16.0
2018-10-05 20:08:16.050,0.300161939306,0.0928576453985,-0.375099734129,-0.0366841331124,-0.184162333608,0.41183501482,-0.6472389,0.14709975,11.4541672,0.0,13.7273492813,16.22864151,-1.29760217667,-0.08291772753,-0.144946530461,0.193948060274,-0.519999980927,-262.137023926,-459.722320557,-88.6489372253,-3.3855342864899995,-8.400077819799996,-0.9611244202000009,-12.839899063100004,-1.564407825469998,16.0
2018-10-05 20:08:16.100,0.300161939306,0.0928576453985,-0.375099734129,-0.0366841331124,-0.184162333608,0.41183501482,-0.6472389,0.14709975,11.4541672,0.0,13.7273492813,16.22864151,-1.29760217667,-0.08291772753,-0.144946530461,0.193948060274,-0.519999980927,-262.137023926,-459.722320557,-88.6489372253,-2.95553445816,-8.380077361999994,-1.2211284637000013,-12.503179550200004,-1.626781463619998,16.0
2018-10-05 20:08:16.150,0.300161939306,0.0928576453985,-0.375099734129,-0.0366841331124,-0.184162333608,0.41183501482,-0.6472389,0.14709975,11.4541672,0.0,12.3910455704,17.316034317,-1.64835596085,-0.0366841331124,-0.184162333608,0.41183501482,-0.519999980927,-262.137023926,-459.722320557,-88.6489372253,-2.95553445816,-8.380077361999994,-1.3160343169999997,-12.391045570400003,-1.648355960849998,16.0
2018-10-05 20:08:16.200,0.308434313935,0.105680550927,-0.427525868887,-0.255640238523,-0.171903029084,0.221714317799,-0.7649187,0.40207265,11.85623985,0.0,12.3910455704,17.316034317,-1.64835596085,-0.0366841331124,-0.184162333608,0.41183501482,-0.409999996424,-262.137023926,-460.973388672,-88.6489372253,-2.5855345725999994,-8.380077361999994,-1.5688629150000004,-12.049910545300003,-1.696992874149998,16.0
2018-10-05 20:08:16.250,0.308434313935,0.105680550927,-0.427525868887,-0.255640238523,-0.171903029084,0.221714317799,-0.7649187,0.40207265,11.85623985,0.0,12.3910455704,17.316034317,-1.64835596085,-0.0366841331124,-0.184162333608,0.41183501482,-0.299999982119,-276.420776367,-462.165008545,-81.90521240230001,-1.2943181991600001,-7.063064575199995,-1.8121833800999987,-11.706059455900004,-1.742473006249998,16.0
2018-10-05 20:08:16.300,0.308434313935,0.105680550927,-0.427525868887,-0.255640238523,-0.171903029084,0.221714317799,-0.7649187,0.40207265,11.85623985,0.0,12.3910455704,17.316034317,-1.64835596085,-0.0366841331124,-0.184162333608,0.41183501482,-0.299999982119,-276.420776367,-462.165008545,-81.90521240230001,-0.90431833267,-7.063064575199995,-2.1342258453000014,-11.247090339700003,-1.813643932339998,16.0
2018-10-05 20:08:16.350,0.308434313935,0.105680550927,-0.427525868887,-0.255640238523,-0.171903029084,0.221714317799,-0.7649187,0.40207265,11.85623985,0.0,11.133928299,18.2141571045,-1.84530413151,-0.255640238523,-0.171903029084,0.221714317799,-0.299999982119,-276.420776367,-462.165008545,-81.90521240230001,-0.90431833267,-7.063064575199995,-2.1342258453000014,-11.247090339700003,-1.813643932339998,16.0
2018-10-05 20:08:16.400,0.308434313935,0.105680550927,-0.427525868887,-0.255640238523,-0.171903029084,0.221714317799,-0.7649187,0.40207265,11.85623985,0.0,11.133928299,18.2141571045,-1.84530413151,-0.255640238523,-0.171903029084,0.221714317799,-0.179999992251,-276.420776367,-463.306213379,-81.90521240230001,-0.5143184661799998,-7.063064575199995,-2.437576293900001,-10.790023803700004,-1.907311916349998,16.0
2018-10-05 20:08:16.450,0.308434313935,0.105680550927,-0.427525868887,-0.255640238523,-0.171903029084,0.221714317799,-0.7649187,0.40207265,11.85623985,0.0,11.133928299,18.2141571045,-1.84530413151,-0.255640238523,-0.171903029084,0.221714317799,-0.179999992251,-276.420776367,-463.306213379,-81.90521240230001,-0.5143184661799998,-7.063064575199995,-2.5966110228999995,-10.544500351000003,-1.927480936049998,16.0
2018-10-05 20:08:16.500,0.308434313935,0.105680550927,-0.427525868887,-0.255640238523,-0.171903029084,0.221714317799,-0.7649187,0.40207265,11.85623985,0.0,11.133928299,18.2141571045,-1.84530413151,-0.255640238523,-0.171903029084,0.221714317799,-0.0499999970198,-281.90536499,-464.388031006,-81.90521240230001,-0.11431837081999952,-7.073066711499997,-2.912803649899999,-10.036978721600004,-1.959072828289998,16.0
2018-10-05 20:08:16.550,0.308434313935,0.105680550927,-0.427525868887,-0.255640238523,-0.171903029084,0.221714317799,-0.7649187,0.40207265,11.85623985,0.0,11.133928299,18.2141571045,-1.84530413151,-0.255640238523,-0.171903029084,0.221714317799,-0.0499999970198,-281.90536499,-464.388031006,-81.90521240230001,-0.11431837081999952,-7.073066711499997,-2.912803649899999,-10.036978721600004,-1.959072828289998,16.0
2018-10-05 20:08:16.600,0.308434313935,0.105680550927,-0.427525868887,-0.255640238523,-0.171903029084,0.221714317799,-0.7649187,0.40207265,11.85623985,0.0,9.53663730621,19.2048492432,-2.0208029747,-0.255640238523,-0.171903029084,0.221714317799,0.0899999961257,-281.90536499,-465.410888672,-81.90521240230001,0.2656817436200001,-7.063064575199995,-3.1330623626999987,-9.666646003720004,-2.0067551135999984,16.0
2018-10-05 20:08:16.650,0.304387718012,0.131120901289,-0.487209754346,-0.0391955077648,-0.233724534512,0.325638890266,-0.5099458,-0.02941995,11.8464332,0.0,9.53663730621,19.2048492432,-2.0208029747,-0.255640238523,-0.171903029084,0.221714317799,0.0899999961257,-281.90536499,-465.410888672,-81.90521240230001,0.2656817436200001,-7.063064575199995,-3.2695922852000017,-9.418077468870004,-2.036235094069998,16.0
2018-10-05 20:08:16.700,0.304387718012,0.131120901289,-0.487209754346,-0.0391955077648,-0.233724534512,0.325638890266,-0.5099458,-0.02941995,11.8464332,0.0,9.53663730621,19.2048492432,-2.0208029747,-0.255640238523,-0.171903029084,0.221714317799,0.229999989271,-286.392578125,-466.357635498,-73.5141963959,0.66011095047,-6.3977394104,-3.5413188933999997,-8.894213676450004,-2.120563983919998,16.0
2018-10-05 20:08:16.750,0.304387718012,0.131120901289,-0.487209754346,-0.0391955077648,-0.233724534512,0.325638890266,-0.5099458,-0.02941995,11.8464332,0.0,9.53663730621,19.2048492432,-2.0208029747,-0.255640238523,-0.171903029084,0.221714317799,0.229999989271,-286.392578125,-466.357635498,-73.5141963959,0.66011095047,-6.3977394104,-3.5977458953999992,-8.770308494570003,-2.145557403559998,16.0
2018-10-05 20:08:16.800,0.304387718012,0.131120901289,-0.487209754346,-0.0391955077648,-0.233724534512,0.325638890266,-0.5099458,-0.02941995,11.8464332,0.0,9.53663730621,19.2048492432,-2.0208029747,-0.255640238523,-0.171903029084,0.221714317799,0.389999985695,-286.392578125,-467.253387451,-73.5141963959,1.1401107311300005,-6.3977394104,-3.8130912781,-8.274588584900004,-2.2870924472799983,16.0
2018-10-05 20:08:16.850,0.304387718012,0.131120901289,-0.487209754346,-0.0391955077648,-0.233724534512,0.325638890266,-0.5099458,-0.02941995,11.8464332,0.0,8.16442203522,19.8529281616,-2.31934523582,-0.0391955077648,-0.233724534512,0.325638890266,0.389999985695,-286.392578125,-467.253387451,-73.5141963959,1.1401107311300005,-6.3977394104,-3.8529281616000013,-8.164422035220003,-2.3193452358199984,16.0
2018-10-05 20:08:16.900,0.304387718012,0.131120901289,-0.487209754346,-0.0391955077648,-0.233724534512,0.325638890266,-0.5099458,-0.02941995,11.8464332,0.0,8.16442203522,19.8529281616,-2.31934523582,-0.0391955077648,-0.233724534512,0.325638890266,0.569999992847,-300.687408447,-468.081756592,-73.5141963959,1.7301108837200005,-0.5877418518000042,-4.0195560455,-7.7293267250100035,-2.4793207645399984,16.0
2018-10-05 20:08:16.950,0.293542952903,0.149239375599,-0.529623301105,-0.0619713030756,-0.266060203314,0.250082612038,-0.7649187,-0.12748645,9.9439431,0.0,8.16442203522,19.8529281616,-2.31934523582,-0.0391955077648,-0.233724534512,0.325638890266,0.569999992847,-300.687408447,-468.081756592,-73.5141963959,1.7301108837200005,0.07226181029999879,-4.065059661900001,-7.615104675290003,-2.5109982490499982,16.0
2018-10-05 20:08:17.000,0.293542952903,0.149239375599,-0.529623301105,-0.0619713030756,-0.266060203314,0.250082612038,-0.7649187,-0.12748645,9.9439431,0.0,8.16442203522,19.8529281616,-2.31934523582,-0.0391955077648,-0.233724534512,0.325638890266,0.769999980927,-300.687408447,-468.842224121,-67.3063297272,1.9313564300499997,3.474014282299997,-4.241903305099999,-7.1289334297200035,-2.576680898669998,16.0
2018-10-05 20:08:17.050,0.293542952903,0.149239375599,-0.529623301105,-0.0619713030756,-0.266060203314,0.250082612038,-0.7649187,-0.12748645,9.9439431,0.0,8.16442203522,19.8529281616,-2.31934523582,-0.0391955077648,-0.233724534512,0.325638890266,0.769999980927,-300.687408447,-468.842224121,-67.3063297272,1.9313564300499997,3.474014282299997,-4.340349197399998,-6.858668804170003,-2.5810191631299984,16.0
2018-10-05 20:08:17.100,0.293542952903,0.149239375599,-0.529623301105,-0.0619713030756,-0.266060203314,0.250082612038,-0.7649187,-0.12748645,9.9439431,0.0,6.43111515045,20.4914951324,-2.55063605309,-0.0619713030756,-0.266060203314,0.250082612038,0.979999959469,-321.369567871,-469.569213867,-67.3063297272,2.51135647297,4.024013519299999,-4.491495132400001,-6.431115150450004,-2.550636053089998,16.0
2018-10-05 20:08:17.150,0.293542952903,0.149239375599,-0.529623301105,-0.0619713030756,-0.266060203314,0.250082612038,-0.7649187,-0.12748645,9.9439431,0.0,6.43111515045,20.4914951324,-2.55063605309,-0.0619713030756,-0.266060203314,0.250082612038,0.979999959469,-321.369567871,-469.569213867,-67.3063297272,2.51135647297,4.024013519299999,-4.545446395900001,-6.266817569730003,-2.529225349429998,16.0
2018-10-05 20:08:17.200,0.293542952903,0.149239375599,-0.529623301105,-0.0619713030756,-0.266060203314,0.250082612038,-0.7649187,-0.12748645,9.9439431,0.0,6.43111515045,20.4914951324,-2.55063605309,-0.0619713030756,-0.266060203314,0.250082612038,1.19999992847,-321.369567871,-470.211639404,-67.3063297272,3.00135648251,-6.655986785800003,-4.769094467199999,-5.513858318330003,-2.431291580199998,16.0
2018-10-05 20:08:17.250,0.293542952903,0.149239375599,-0.529623301105,-0.0619713030756,-0.266060203314,0.250082612038,-0.7649187,-0.12748645,9.9439431,0.0,6.43111515045,20.4914951324,-2.55063605309,-0.0619713030756,-0.266060203314,0.250082612038,1.19999992847,-321.369567871,-470.211639404,-67.3063297272,3.00135648251,-6.655986785800003,-4.769094467199999,-5.513858318330003,-2.431291580199998,16.0
2018-10-05 20:08:17.300,0.264837035498,0.163043960831,-0.592618329247,0.116653382778,-0.302732110023,0.364793002605,-0.4511059,-0.02941995,14.17060925,0.0,6.43111515045,20.4914951324,-2.55063605309,-0.0619713030756,-0.266060203314,0.250082612038,1.39999997616,-314.341156006,-470.777770996,-67.3063297272,3.44135642052,-6.655986785800003,-4.894828796399999,-5.040507793430003,-2.3417234420799984,16.0
2018-10-05 20:08:17.350,0.264837035498,0.163043960831,-0.592618329247,0.116653382778,-0.302732110023,0.364793002605,-0.4511059,-0.02941995,14.17060925,0.0,4.72193384171,20.9663581848,-2.26762342453,0.116653382778,-0.302732110023,0.364793002605,1.39999997616,-314.341156006,-470.777770996,-58.1859369278,3.09612679482,-8.862453460700003,-4.966358184800001,-4.721933841710004,-2.267623424529998,16.0
2018-10-05 20:08:17.400,0.264837035498,0.163043960831,-0.592618329247,0.116653382778,-0.302732110023,0.364793002605,-0.4511059,-0.02941995,14.17060925,0.0,4.72193384171,20.9663581848,-2.26762342453,0.116653382778,-0.302732110023,0.364793002605,1.59999990463,-314.341156006,-471.276519775,-58.1859369278,3.4961267709749997,-8.862453460700003,-5.098604202299999,-4.078747272490004,-2.136526584629998,16.0
2018-10-05 20:08:17.450,0.264837035498,0.163043960831,-0.592618329247,0.116653382778,-0.302732110023,0.364793002605,-0.4511059,-0.02941995,14.17060925,0.0,4.72193384171,20.9663581848,-2.26762342453,0.116653382778,-0.302732110023,0.364793002605,1.59999990463,-314.341156006,-471.276519775,-58.1859369278,3.4961267709749997,-8.862453460700003,-5.1271476746,-3.9113540649400034,-2.103203296659998,16.0
2018-10-05 20:08:17.500,0.264837035498,0.163043960831,-0.592618329247,0.116653382778,-0.302732110023,0.364793002605,-0.4511059,-0.02941995,14.17060925,0.0,4.72193384171,20.9663581848,-2.26762342453,0.116653382778,-0.302732110023,0.364793002605,1.77999997139,-336.649505615,-471.681854248,-58.1859369278,3.3761268258109998,-8.862453460700003,-5.241817474400001,-3.1643619537400034,-1.918151259419998,16.0
2018-10-05 20:08:17.550,0.264837035498,0.163043960831,-0.592618329247,0.116653382778,-0.302732110023,0.364793002605,-0.4511059,-0.02941995,14.17060925,0.0,4.72193384171,20.9663581848,-2.26762342453,0.116653382778,-0.302732110023,0.364793002605,1.77999997139,-336.649505615,-471.681854248,-58.1859369278,3.866126790644,-8.872455596900004,-5.269849777200001,-2.9585745334600038,-1.869655728339998,16.0
2018-10-05 20:08:17.600,0.264837035498,0.163043960831,-0.592618329247,0.116653382778,-0.302732110023,0.364793002605,-0.4511059,-0.02941995,14.17060925,0.0,4.72193384171,20.9663581848,-2.26762342453,0.116653382778,-0.302732110023,0.364793002605,1.93999993801,-336.649505615,-472.011535645,-58.1859369278,4.126126784833,-8.882453918400003,-5.269849777200001,-2.9585745334600038,-1.869655728339998,16.0
2018-10-05 20:08:17.650,0.264837035498,0.163043960831,-0.592618329247,0.116653382778,-0.302732110023,0.364793002605,-0.4511059,-0.02941995,14.17060925,0.0,1.68043529987,21.3927955627,-1.53675377369,0.116653382778,-0.302732110023,0.364793002605,1.93999993801,-336.649505615,-472.011535645,-58.1859369278,4.126126784833,-8.882453918400003,-5.392795562700002,-1.6804352998700036,-1.536753773689998,16.0
2018-10-05 20:08:17.700,0.264837035498,0.163043960831,-0.592618329247,0.116653382778,-0.302732110023,0.364793002605,-0.4511059,-0.02941995,14.17060925,0.0,1.68043529987,21.3927955627,-1.53675377369,0.116653382778,-0.302732110023,0.364793002605,2.07999992371,-328.462585449,-472.222869873,-58.1859369278,4.326126784088,1.3375434876000014,-5.392795562700002,-1.6804352998700036,-1.536753773689998,16.0
2018-10-05 20:08:17.750,0.255971371922,0.216829228736,-0.661362895452,-0.170609146357,-0.313756167889,0.1909250319,-0.4314926,0.5295591,16.19077915,0.0,1.68043529987,21.3927955627,-1.53675377369,0.116653382778,-0.302732110023,0.364793002605,2.07999992371,-328.462585449,-472.222869873,-58.1859369278,4.326126784088,1.3375434876000014,-5.425846099899999,-0.8575835227970036,-1.374697208399998,16.0
2018-10-05 20:08:17.800,0.255971371922,0.216829228736,-0.661362895452,-0.170609146357,-0.313756167889,0.1909250319,-0.4314926,0.5295591,16.19077915,0.0,1.68043529987,21.3927955627,-1.53675377369,0.116653382778,-0.302732110023,0.364793002605,2.20000004768,-328.462585449,-472.332397461,-45.7881398201,3.1513318121469998,9.261579513600001,-5.4080066681000005,0.031618487089896445,-1.315706491469998,16.0
2018-10-05 20:08:17.850,0.255971371922,0.216829228736,-0.661362895452,-0.170609146357,-0.313756167889,0.1909250319,-0.4314926,0.5295591,16.19077915,0.0,-0.582930088043,21.3789367676,-1.24329459667,-0.170609146357,-0.313756167889,0.1909250319,2.20000004768,-328.462585449,-472.332397461,-45.7881398201,3.1513318121469998,9.261579513600001,-5.4080066681000005,0.031618487089896445,-1.315706491469998,16.0
2018-10-05 20:08:17.900,0.255971371922,0.216829228736,-0.661362895452,-0.170609146357,-0.313756167889,0.1909250319,-0.4314926,0.5295591,16.19077915,0.0,-0.582930088043,21.3789367676,-1.24329459667,-0.170609146357,-0.313756167889,0.1909250319,2.20000004768,-328.462585449,-472.332397461,-45.7881398201,3.1513318121469998,9.261579513600001,-5.4080066681000005,0.031618487089896445,-1.315706491469998,16.0
2018-10-05 20:08:17.950,0.255971371922,0.216829228736,-0.661362895452,-0.170609146357,-0.313756167889,0.1909250319,-0.4314926,0.5295591,16.19077915,0.0,-0.582930088043,21.3789367676,-1.24329459667,-0.170609146357,-0.313756167889,0.1909250319,2.29999995232,-338.875396729,-472.332397461,-45.7881398201,3.3713318109549997,-5.8684196472,-5.337383270299998,1.1767349243199965,-1.101092338559998,16.0
2018-10-05 20:08:18.000,0.255971371922,0.216829228736,-0.661362895452,-0.170609146357,-0.313756167889,0.1909250319,-0.4314926,0.5295591,16.19077915,0.0,-0.582930088043,21.3789367676,-1.24329459667,-0.170609146357,-0.313756167889,0.1909250319,2.39999985695,-338.875396729,-472.247589111,-45.7881398201,3.5213317871129997,-5.8684196472,-5.274696350100001,1.7466495037099965,-0.930175840854998,16.0
2018-10-05 20:08:18.050,0.255971371922,0.216829228736,-0.661362895452,-0.170609146357,-0.313756167889,0.1909250319,-0.4314926,0.5295591,16.19077915,0.0,-0.582930088043,21.3789367676,-1.24329459667,-0.170609146357,-0.313756167889,0.1909250319,2.46000003815,-338.05657959,-472.078338623,-45.7881398201,3.531331777576,-5.8684196472,-5.193864822399998,2.3069806098899965,-0.761686623095998,16.0
2018-10-05 20:08:18.100,0.255971371922,0.216829228736,-0.661362895452,-0.170609146357,-0.313756167889,0.1909250319,-0.4314926,0.5295591,16.19077915,0.0,-2.30698060989,21.1938648224,-0.761686623096,-0.170609146357,-0.313756167889,0.1909250319,2.46000003815,-338.05657959,-472.078338623,-45.7881398201,3.541331827644,-5.8684196472,-5.193864822399998,2.3069806098899965,-0.761686623095998,16.0
2018-10-05 20:08:18.150,0.208076095668,0.240574421434,-0.710120316443,-0.0689894706011,-0.352168977261,0.302597403526,-0.2353596,-0.1372931,15.8475464,0.0,-2.30698060989,21.1938648224,-0.761686623096,-0.170609146357,-0.313756167889,0.1909250319,2.46000003815,-338.05657959,-472.078338623,-45.7881398201,3.541331827644,-5.8684196472,-5.050937652599998,3.0811305046099964,-0.4988806843759981,16.0
2018-10-05 20:08:18.200,0.208076095668,0.240574421434,-0.710120316443,-0.0689894706011,-0.352168977261,0.302597403526,-0.2353596,-0.1372931,15.8475464,0.0,-2.30698060989,21.1938648224,-0.761686623096,-0.170609146357,-0.313756167889,0.1909250319,2.50999999046,-338.05657959,-471.807830811,-36.85986089706,0.365555346012,-7.898605346700002,-5.050937652599998,3.0811305046099964,-0.4988806843759981,16.0
2018-10-05 20:08:18.250,0.208076095668,0.240574421434,-0.710120316443,-0.0689894706011,-0.352168977261,0.302597403526,-0.2353596,-0.1372931,15.8475464,0.0,-2.30698060989,21.1938648224,-0.761686623096,-0.170609146357,-0.313756167889,0.1909250319,2.50999999046,-338.05657959,-471.807830811,-36.85986089706,0.365555346012,-7.898605346700002,-4.8224315643,4.010888576509997,-0.23501098155999803,16.0
2018-10-05 20:08:18.300,0.208076095668,0.240574421434,-0.710120316443,-0.0689894706011,-0.352168977261,0.302597403526,-0.2353596,-0.1372931,15.8475464,0.0,-2.30698060989,21.1938648224,-0.761686623096,-0.170609146357,-0.313756167889,0.1909250319,2.51999998093,-369.965759277,-471.444122314,-36.85986089706,0.28555530309700006,-7.898605346700002,-4.6172599792,4.690835952759996,-0.14901798963499802,16.0
2018-10-05 20:08:18.350,0.208076095668,0.240574421434,-0.710120316443,-0.0689894706011,-0.352168977261,0.302597403526,-0.2353596,-0.1372931,15.8475464,0.0,-4.85818052292,20.5623950958,-0.137616753578,-0.0689894706011,-0.352168977261,0.302597403526,2.51999998093,-369.965759277,-471.444122314,-36.85986089706,0.28555530309700006,-7.898605346700002,-4.6172599792,4.690835952759996,-0.14901798963499802,16.0
2018-10-05 20:08:18.400,0.208076095668,0.240574421434,-0.710120316443,-0.0689894706011,-0.352168977261,0.302597403526,-0.2353596,-0.1372931,15.8475464,0.0,-4.85818052292,20.5623950958,-0.137616753578,-0.0689894706011,-0.352168977261,0.302597403526,2.52999997139,-369.965759277,-470.996124268,-36.85986089706,0.29555535316500003,-7.888607025100001,-4.328117370600001,5.499245643619997,-0.13314399123199802,16.0
2018-10-05 20:08:18.450,0.208076095668,0.240574421434,-0.710120316443,-0.0689894706011,-0.352168977261,0.302597403526,-0.2353596,-0.1372931,15.8475464,0.0,-4.85818052292,20.5623950958,-0.137616753578,-0.0689894706011,-0.352168977261,0.302597403526,2.52999997139,-369.965759277,-470.996124268,-36.85986089706,0.29555535316500003,-7.888607025100001,-4.328117370600001,5.499245643619997,-0.13314399123199802,16.0
2018-10-05 20:08:18.500,0.195804252936,0.275479318179,-0.749907305274,-0.0417661629617,-0.299877345562,0.267579495907,-0.3530394,0.42168595,12.85651815,0.0,-4.85818052292,20.5623950958,-0.137616753578,-0.0689894706011,-0.352168977261,0.302597403526,2.52999997139,-365.148925781,-470.463287354,-36.85986089706,0.345555305481,-7.888607025100001,-4.1399879456000015,5.969066619869997,-0.14872594177699802,16.0
2018-10-05 20:08:18.550,0.195804252936,0.275479318179,-0.749907305274,-0.0417661629617,-0.299877345562,0.267579495907,-0.3530394,0.42168595,12.85651815,0.0,-6.37951135635,19.9621658325,-0.228965133429,-0.0417661629617,-0.299877345562,0.267579495907,2.52999997139,-365.148925781,-470.463287354,-27.9454116821,-0.3962684273710001,-5.486141204799999,-3.9621658324999984,6.3795113563499966,-0.22896513342899802,16.0
2018-10-05 20:08:18.600,0.195804252936,0.275479318179,-0.749907305274,-0.0417661629617,-0.299877345562,0.267579495907,-0.3530394,0.42168595,12.85651815,0.0,-6.37951135635,19.9621658325,-0.228965133429,-0.0417661629617,-0.299877345562,0.267579495907,2.52999997139,-365.148925781,-469.854614258,-27.9454116821,-0.26626843214000007,-3.736141204799999,-3.79296875,6.720112323759996,-0.38283413648599807,16.0
2018-10-05 20:08:18.650,0.195804252936,0.275479318179,-0.749907305274,-0.0417661629617,-0.299877345562,0.267579495907,-0.3530394,0.42168595,12.85651815,0.0,-6.37951135635,19.9621658325,-0.228965133429,-0.0417661629617,-0.299877345562,0.267579495907,2.52999997139,-365.148925781,-469.854614258,-27.9454116821,-0.26626843214000007,-3.736141204799999,-3.6723785400000004,6.953174591059996,-0.46731618046799805,16.0
2018-10-05 20:08:18.700,0.195804252936,0.275479318179,-0.749907305274,-0.0417661629617,-0.299877345562,0.267579495907,-0.3530394,0.42168595,12.85651815,0.0,-6.37951135635,19.9621658325,-0.228965133429,-0.0417661629617,-0.299877345562,0.267579495907,2.54999995232,-363.564300537,-469.178192139,-27.9454116821,0.003731608389999863,-1.8761405945000007,-3.4753417969000004,7.324324607849997,-0.565898656844998,16.0
2018-10-05 20:08:18.750,0.195804252936,0.275479318179,-0.749907305274,-0.0417661629617,-0.299877345562,0.267579495907,-0.3530394,0.42168595,12.85651815,0.0,-6.37951135635,19.9621658325,-0.228965133429,-0.0417661629617,-0.299877345562,0.267579495907,2.54999995232,-363.564300537,-469.178192139,-27.9454116821,0.003731608389999863,-1.8661422730000012,-3.333032608,7.588738918299996,-0.615059792994998,16.0
2018-10-05 20:08:18.800,0.195804252936,0.275479318179,-0.749907305274,-0.0417661629617,-0.299877345562,0.267579495907,-0.3530394,0.42168595,12.85651815,0.0,-8.03131103516,19.0967292786,-0.630933701992,-0.0417661629617,-0.299877345562,0.267579495907,2.58999991417,-363.564300537,-468.451202393,-27.9454116821,0.28373157977999997,0.36386108399999983,-3.0139999390000014,8.184264183039996,-0.627974092959998,16.0
2018-10-05 20:08:18.850,0.195804252936,0.275479318179,-0.749907305274,-0.0417661629617,-0.299877345562,0.267579495907,-0.3530394,0.42168595,12.85651815,0.0,-8.03131103516,19.0967292786,-0.630933701992,-0.0417661629617,-0.299877345562,0.267579495907,2.58999991417,-363.564300537,-468.451202393,-27.9454116821,0.28373157977999997,0.36386108399999983,-3.0139999390000014,8.184264183039996,-0.627974092959998,16.0
2018-10-05 20:08:18.900,0.195804252936,0.275479318179,-0.749907305274,-0.0417661629617,-0.299877345562,0.267579495907,-0.3530394,0.42168595,12.85651815,0.0,-8.03131103516,19.0967292786,-0.630933701992,-0.0417661629617,-0.299877345562,0.267579495907,2.64999985695,-388.657562256,-467.665039062,-27.9454116821,0.4537315368699999,3.183860778799996,-2.7443885803000008,8.662910461429997,-0.576293051242998,16.0
2018-10-05 20:08:18.950,0.195804252936,0.275479318179,-0.749907305274,-0.0417661629617,-0.299877345562,0.267579495907,-0.3530394,0.42168595,12.85651815,0.0,-8.03131103516,19.0967292786,-0.630933701992,-0.0417661629617,-0.299877345562,0.267579495907,2.64999985695,-388.657562256,-467.665039062,-27.9454116821,0.4437315464,3.1938591002999956,-2.4768066405999996,9.108675956729996,-0.532777130603998,16.0
2018-10-05 20:08:19.000,0.159546051702,0.312607765773,-0.794253197978,0.0811548084021,-0.313979208469,0.327421844006,0.0392266,-0.3530394,14.1804159,0.0,-8.03131103516,19.0967292786,-0.630933701992,-0.0417661629617,-0.299877345562,0.267579495907,2.70000004768,-388.657562256,-466.80255127,-27.9454116821,0.5637315511699998,6.363857269299999,-2.179283142100001,9.590977668759997,-0.44729310274099804,16.0
2018-10-05 20:08:19.050,0.159546051702,0.312607765773,-0.794253197978,0.0811548084021,-0.313979208469,0.327421844006,0.0392266,-0.3530394,14.1804159,0.0,-9.89459037781,17.9824810028,-0.394513577223,0.0811548084021,-0.313979208469,0.327421844006,2.70000004768,-388.657562256,-466.80255127,-16.7509803772,-1.5573362112100002,7.8572998046999984,-2.0778751373000013,9.748384475709997,-0.4173099696639981,16.0
2018-10-05 20:08:19.100,0.159546051702,0.312607765773,-0.794253197978,0.0811548084021,-0.313979208469,0.327421844006,0.0392266,-0.3530394,14.1804159,0.0,-9.89459037781,17.9824810028,-0.394513577223,0.0811548084021,-0.313979208469,0.327421844006,2.75,-379.464538574,-465.864257812,-16.7509803772,-1.5173361301500001,11.4273014069,-1.565917968800001,10.487117767299996,-0.30158376693699807,16.0
2018-10-05 20:08:19.150,0.159546051702,0.312607765773,-0.794253197978,0.0811548084021,-0.313979208469,0.327421844006,0.0392266,-0.3530394,14.1804159,0.0,-9.89459037781,17.9824810028,-0.394513577223,0.0811548084021,-0.313979208469,0.327421844006,2.75,-379.464538574,-465.864257812,-16.7509803772,-1.5173361301500001,11.4273014069,-1.565917968800001,10.487117767299996,-0.30158376693699807,16.0
2018-10-05 20:08:19.200,0.159546051702,0.312607765773,-0.794253197978,0.0811548084021,-0.313979208469,0.327421844006,0.0392266,-0.3530394,14.1804159,0.0,-9.89459037781,17.9824810028,-0.394513577223,0.0811548084021,-0.313979208469,0.327421844006,2.77999997139,-379.464538574,-464.849517822,-16.7509803772,-1.48733615876,15.157300949099998,-1.024311065700001,11.175381660499996,-0.23037621378899803,16.0
2018-10-05 20:08:19.250,0.159546051702,0.312607765773,-0.794253197978,0.0811548084021,-0.313979208469,0.327421844006,0.0392266,-0.3530394,14.1804159,0.0,-9.89459037781,17.9824810028,-0.394513577223,0.0811548084021,-0.313979208469,0.327421844006,2.77999997139,-379.464538574,-464.849517822,-16.7509803772,-1.48733615876,15.157300949099998,-1.024311065700001,11.175381660499996,-0.23037621378899803,16.0
2018-10-05 20:08:19.300,0.159546051702,0.312607765773,-0.794253197978,0.0811548084021,-0.313979208469,0.327421844006,0.0392266,-0.3530394,14.1804159,0.0,-11.6051568985,16.6719055176,-0.148531094193,0.0811548084021,-0.313979208469,0.327421844006,2.79999995232,-382.004547119,-463.76751709,-16.7509803772,-1.4773361682900001,19.1373004913,-0.6719055175999991,11.605156898499997,-0.14853109419299804,16.0
2018-10-05 20:08:19.350,0.159546051702,0.312607765773,-0.794253197978,0.0811548084021,-0.313979208469,0.327421844006,0.0392266,-0.3530394,14.1804159,0.0,-11.6051568985,16.6719055176,-0.148531094193,0.0811548084021,-0.313979208469,0.327421844006,2.79999995232,-382.004547119,-463.76751709,-16.7509803772,-1.4773361682900001,19.1373004913,-0.4300022124999998,11.877751350399997,-0.09400884062049804,16.0
2018-10-05 20:08:19.400,0.159546051702,0.312607765773,-0.794253197978,0.0811548084021,-0.313979208469,0.327421844006,0.0392266,-0.3530394,14.1804159,0.0,-11.6051568985,16.6719055176,-0.148531094193,0.0811548084021,-0.313979208469,0.327421844006,2.79999995232,-382.004547119,-462.609405518,-16.7509803772,-1.52733623982,23.457302093499997,0.06737709050000085,12.409378051799996,-0.02792250551279804,16.0
2018-10-05 20:08:19.450,0.116686823773,0.302000798074,-0.8517630244,0.247259199619,-0.24745310843,0.294088721275,0.1176798,0.30400615,14.3569356,0.0,-11.6051568985,16.6719055176,-0.148531094193,0.0811548084021,-0.313979208469,0.327421844006,2.79999995232,-382.004547119,-462.609405518,-16.7509803772,-1.5373362302800002,23.457302093499997,0.2967376709000007,12.634651184099997,-0.02666173130269804,16.0
2018-10-05 20:08:19.500,0.116686823773,0.302000798074,-0.8517630244,0.247259199619,-0.24745310843,0.294088721275,0.1176798,0.30400615,14.3569356,0.0,-11.6051568985,16.6719055176,-0.148531094193,0.0811548084021,-0.313979208469,0.327421844006,2.78999996185,-387.899963379,-461.391845703,-4.639072418200001,-1.1872631311400001,24.398140907200002,0.6451988219999993,12.967783927899996,-0.01663262024519804,16.0
2018-10-05 20:08:19.550,0.116686823773,0.302000798074,-0.8517630244,0.247259199619,-0.24745310843,0.294088721275,0.1176798,0.30400615,14.3569356,0.0,-13.0794258118,15.2360744476,-0.00434053409845,0.247259199619,-0.24745310843,0.294088721275,2.78999996185,-387.899963379,-461.391845703,-4.639072418200001,-1.1872631311400001,24.398140907200002,0.7639255523999999,13.079425811799997,-0.004340534098448041,16.0
2018-10-05 20:08:19.600,0.116686823773,0.302000798074,-0.8517630244,0.247259199619,-0.24745310843,0.294088721275,0.1176798,0.30400615,14.3569356,0.0,-13.0794258118,15.2360744476,-0.00434053409845,0.247259199619,-0.24745310843,0.294088721275,2.77999997139,-387.899963379,-460.11541748,-4.639072418200001,-1.2272630930000001,28.46814060207,1.2070999146000005,13.465631484999996,0.035064108669801954,16.0
2018-10-05 20:08:19.650,0.116686823773,0.302000798074,-0.8517630244,0.247259199619,-0.24745310843,0.294088721275,0.1176798,0.30400615,14.3569356,0.0,-13.0794258118,15.2360744476,-0.00434053409845,0.247259199619,-0.24745310843,0.294088721275,2.75999999046,-380.047027588,-458.78805542,-4.639072418200001,-1.27726316452,32.01814079281,1.5131063461000007,13.704252242999997,0.04481685906650196,16.0
2018-10-05 20:08:19.700,0.116686823773,0.302000798074,-0.8517630244,0.247259199619,-0.24745310843,0.294088721275,0.1176798,0.30400615,14.3569356,0.0,-13.0794258118,15.2360744476,-0.00434053409845,0.247259199619,-0.24745310843,0.294088721275,2.75999999046,-380.047027588,-458.78805542,-4.639072418200001,-1.29726314545,32.01814079281,1.6951866150000008,13.838079452499997,0.02058714255690196,16.0
2018-10-05 20:08:19.750,0.116686823773,0.302000798074,-0.8517630244,0.247259199619,-0.24745310843,0.294088721275,0.1176798,0.30400615,14.3569356,0.0,-13.0794258118,15.2360744476,-0.00434053409845,0.247259199619,-0.24745310843,0.294088721275,2.75999999046,-380.047027588,-458.78805542,-4.639072418200001,-1.31726312637,32.01814079281,1.8688220978000007,13.958691596999996,0.0030188185628519594,16.0
2018-10-05 20:08:19.800,0.0574984672999,0.226055666097,-0.896397649873,0.787017226219,-0.127069205046,0.201523780823,-0.0196133,-0.34323275,11.13054775,0.0,-14.0493469238,13.9868211746,-0.0286246575415,0.247259199619,-0.24745310843,0.294088721275,2.74000000954,-380.047027588,-457.418670654,-4.639072418200001,-1.31726312637,34.88814091678,2.0863466262999992,14.093255042999996,-0.04244702309369804,16.0
2018-10-05 20:08:19.850,0.0574984672999,0.226055666097,-0.896397649873,0.787017226219,-0.127069205046,0.201523780823,-0.0196133,-0.34323275,11.13054775,0.0,-14.0493469238,13.9868211746,-0.0286246575415,0.247259199619,-0.24745310843,0.294088721275,2.73000001907,-385.19821167,-456.049255371,1.3059616088999988,-2.28030228614,26.110308289495,2.3163661957000006,14.227725028999997,-0.04583755880589804,16.0
2018-10-05 20:08:19.900,0.0574984672999,0.226055666097,-0.896397649873,0.787017226219,-0.127069205046,0.201523780823,-0.0196133,-0.34323275,11.13054775,0.0,-14.0493469238,13.9868211746,-0.0286246575415,0.247259199619,-0.24745310843,0.294088721275,2.73000001907,-385.19821167,-456.049255371,1.3059616088999988,-2.30030226707,26.110308289495,2.477261543299999,14.316330909699996,-0.02785134501759804,16.0
2018-10-05 20:08:19.950,0.0574984672999,0.226055666097,-0.896397649873,0.787017226219,-0.127069205046,0.201523780823,-0.0196133,-0.34323275,11.13054775,0.0,-14.0493469238,13.9868211746,-0.0286246575415,0.247259199619,-0.24745310843,0.294088721275,2.73000001907,-385.19821167,-456.049255371,1.3059616088999988,-2.31030225753,26.110308289495,2.6165399551000004,14.387748718299996,-0.01334536727519804,16.0
2018-10-05 20:08:20.000,0.0574984672999,0.226055666097,-0.896397649873,0.787017226219,-0.127069205046,0.201523780823,-0.0196133,-0.34323275,11.13054775,0.0,-14.4871530533,13.1707782745,0.0334139354527,0.787017226219,-0.127069205046,0.201523780823,2.72000002861,-385.19821167,-454.637390137,1.3059616088999988,-2.33030223846,28.2203083038,2.8292217255,14.487153053299997,0.03341393545270196,16.0
2018-10-05 20:08:20.050,0.0574984672999,0.226055666097,-0.896397649873,0.787017226219,-0.127069205046,0.201523780823,-0.0196133,-0.34323275,11.13054775,0.0,-14.4871530533,13.1707782745,0.0334139354527,0.787017226219,-0.127069205046,0.201523780823,2.72000002861,-385.19821167,-454.637390137,1.3059616088999988,-2.3403022289199997,28.2203083038,3.0296335219999992,14.567694663999996,0.08484574407340195,16.0
2018-10-05 20:08:20.100,0.0574984672999,0.226055666097,-0.896397649873,0.787017226219,-0.127069205046,0.201523780823,-0.0196133,-0.34323275,11.13054775,0.0,-14.4871530533,13.1707782745,0.0334139354527,0.787017226219,-0.127069205046,0.201523780823,2.72000002861,-385.19821167,-454.637390137,1.3059616088999988,-2.3403022289199997,28.2203083038,3.0296335219999992,14.567694663999996,0.08484574407340195,16.0
2018-10-05 20:08:20.150,0.0574984672999,0.226055666097,-0.896397649873,0.787017226219,-0.127069205046,0.201523780823,-0.0196133,-0.34323275,11.13054775,0.0,-14.4871530533,13.1707782745,0.0334139354527,0.787017226219,-0.127069205046,0.201523780823,2.70000004768,-380.276123047,-453.217285156,1.3059616088999988,-2.44030225277,30.04030823704,3.3309020995999994,14.670553207399996,0.17134262621400198,16.0
2018-10-05 20:08:20.200,0.00710404870205,0.119826081642,-0.935461877731,0.482855141163,-0.060309458524,0.209890186787,-0.0980665,0.3726527,11.26784085,0.0,-14.4871530533,13.1707782745,0.0334139354527,0.787017226219,-0.127069205046,0.201523780823,2.65999984741,-380.276123047,-451.788482666,7.316993713400002,-2.48573493958,18.092597007709998,3.4345855712999995,14.696111679099996,0.20725250244100196,16.0
2018-10-05 20:08:20.250,0.00710404870205,0.119826081642,-0.935461877731,0.482855141163,-0.060309458524,0.209890186787,-0.0980665,0.3726527,11.26784085,0.0,-14.7163553238,12.427901268,0.249040737748,0.482855141163,-0.060309458524,0.209890186787,2.65999984741,-380.276123047,-451.788482666,7.316993713400002,-2.4957349300400002,18.092597007709998,3.5260992049999995,14.709608077999997,0.23342178762000196,16.0
2018-10-05 20:08:20.300,0.00710404870205,0.119826081642,-0.935461877731,0.482855141163,-0.060309458524,0.209890186787,-0.0980665,0.3726527,11.26784085,0.0,-14.7163553238,12.427901268,0.249040737748,0.482855141163,-0.060309458524,0.209890186787,2.6099998951,-391.236694336,-450.359893799,7.316993713400002,-2.6557348966600003,19.22259712215,3.7148504257,14.742186546299996,0.31303352117500194,16.0
2018-10-05 20:08:20.350,0.00710404870205,0.119826081642,-0.935461877731,0.482855141163,-0.060309458524,0.209890186787,-0.0980665,0.3726527,11.26784085,0.0,-14.7163553238,12.427901268,0.249040737748,0.482855141163,-0.060309458524,0.209890186787,2.6099998951,-391.236694336,-450.359893799,7.316993713400002,-2.6557348966600003,19.22259712215,3.7148504257,14.742186546299996,0.31303352117500194,16.0
2018-10-05 20:08:20.400,0.00710404870205,0.119826081642,-0.935461877731,0.482855141163,-0.060309458524,0.209890186787,-0.0980665,0.3726527,11.26784085,0.0,-14.7163553238,12.427901268,0.249040737748,0.482855141163,-0.060309458524,0.209890186787,2.55999994278,-391.236694336,-448.931030273,7.316993713400002,-2.845734894278,20.20259714122,3.9294633865,14.760072708099996,0.4312600791450019,16.0
2018-10-05 20:08:20.450,-0.0123026890373,0.0697818478075,-0.947322485696,0.356464833021,-0.0157455168664,0.0944125577807,-0.0980665,0.588399,11.50320045,0.0,-14.7163553238,12.427901268,0.249040737748,0.482855141163,-0.060309458524,0.209890186787,2.55999994278,-391.236694336,-448.931030273,7.316993713400002,-2.845734894278,20.20259714122,3.9294633865,14.760072708099996,0.4312600791450019,16.0
2018-10-05 20:08:20.500,-0.0123026890373,0.0697818478075,-0.947322485696,0.356464833021,-0.0157455168664,0.0944125577807,-0.0980665,0.588399,11.50320045,0.0,-14.7536334991,11.96783638,0.458793640137,0.356464833021,-0.0157455168664,0.0944125577807,2.49000000954,-380.226501465,-447.502441406,9.744266510000003,-3.08602237701,14.879557609559999,4.03216362,14.753633499099996,0.45879364013700197,16.0
2018-10-05 20:08:20.550,-0.0123026890373,0.0697818478075,-0.947322485696,0.356464833021,-0.0157455168664,0.0944125577807,-0.0980665,0.588399,11.50320045,0.0,-14.7536334991,11.96783638,0.458793640137,0.356464833021,-0.0157455168664,0.0944125577807,2.49000000954,-380.226501465,-447.502441406,9.744266510000003,-3.08602237701,14.879557609559999,4.100687026999999,14.751018524199996,0.48140490055100194,16.0
2018-10-05 20:08:20.600,-0.0123026890373,0.0697818478075,-0.947322485696,0.356464833021,-0.0157455168664,0.0944125577807,-0.0980665,0.588399,11.50320045,0.0,-14.7536334991,11.96783638,0.458793640137,0.356464833021,-0.0157455168664,0.0944125577807,2.40999984741,-380.226501465,-446.073852539,9.744266510000003,-3.286022365089,15.44955730438,4.1960916519,14.738905906699996,0.533544361591002,16.0
2018-10-05 20:08:20.650,-0.0123026890373,0.0697818478075,-0.947322485696,0.356464833021,-0.0157455168664,0.0944125577807,-0.0980665,0.588399,11.50320045,0.0,-14.7536334991,11.96783638,0.458793640137,0.356464833021,-0.0157455168664,0.0944125577807,2.40999984741,-380.226501465,-446.073852539,9.744266510000003,-3.286022365089,15.44955730438,4.2759180069,14.716538429299996,0.602308094501002,16.0
2018-10-05 20:08:20.700,-0.0123026890373,0.0697818478075,-0.947322485696,0.356464833021,-0.0157455168664,0.0944125577807,-0.0980665,0.588399,11.50320045,0.0,-14.7536334991,11.96783638,0.458793640137,0.356464833021,-0.0157455168664,0.0944125577807,2.40999984741,-380.226501465,-446.073852539,9.744266510000003,-3.286022365089,15.44955730438,4.2759180069,14.716538429299996,0.602308094501002,16.0
2018-10-05 20:08:20.750,-0.0270243778638,0.023921624394,-0.950879958214,0.423524022102,0.0468939170241,-0.0284349806607,0.0,0.4511059,10.36562905,0.0,-14.6665525436,11.6279058456,0.609515845776,0.423524022102,0.0468939170241,-0.0284349806607,2.31999993324,-351.869781494,-444.645172119,9.744266510000003,-3.546022385355,15.829557418820002,4.3573465346999996,14.677902221699997,0.618840575218002,16.0
2018-10-05 20:08:20.800,-0.0270243778638,0.023921624394,-0.950879958214,0.423524022102,0.0468939170241,-0.0284349806607,0.0,0.4511059,10.36562905,0.0,-14.6665525436,11.6279058456,0.609515845776,0.423524022102,0.0468939170241,-0.0284349806607,2.23000001907,-351.869781494,-443.216583252,10.219638824500002,-3.6901995241605,10.48832881451,4.4002494811999995,14.621925353999996,0.577780306339002,16.0
2018-10-05 20:08:20.850,-0.0270243778638,0.023921624394,-0.950879958214,0.423524022102,0.0468939170241,-0.0284349806607,0.0,0.4511059,10.36562905,0.0,-14.6665525436,11.6279058456,0.609515845776,0.423524022102,0.0468939170241,-0.0284349806607,2.14999985695,-341.23840332,-441.8046875,10.219638824500002,-3.80019951797648,10.34832847118,4.4105443954000005,14.573005676299996,0.517057657242002,16.0
2018-10-05 20:08:20.900,-0.0270243778638,0.023921624394,-0.950879958214,0.423524022102,0.0468939170241,-0.0284349806607,0.0,0.4511059,10.36562905,0.0,-14.6665525436,11.6279058456,0.609515845776,0.423524022102,0.0468939170241,-0.0284349806607,2.14999985695,-341.23840332,-441.8046875,10.219638824500002,-3.80019951797648,10.34832847118,4.4064826964999995,14.518779754599997,0.4397360086440019,16.0
2018-10-05 20:08:20.950,-0.0270243778638,0.023921624394,-0.950879958214,0.423524022102,0.0468939170241,-0.0284349806607,0.0,0.4511059,10.36562905,0.0,-14.4477119446,11.621638298,0.3399258852,0.423524022102,0.0468939170241,-0.0284349806607,2.08999991417,-341.23840332,-440.38458252,10.219638824500002,-3.8401995152198003,9.98832881451,4.3913640976,14.472738265999997,0.3639379143710019,16.0
2018-10-05 20:08:21.000,-0.0270243778638,0.023921624394,-0.950879958214,0.423524022102,0.0468939170241,-0.0284349806607,0.0,0.4511059,10.36562905,0.0,-14.4477119446,11.621638298,0.3399258852,0.423524022102,0.0468939170241,-0.0284349806607,2.08999991417,-341.23840332,-440.38458252,10.219638824500002,-3.8301995173059002,9.98832881451,4.3474178314,14.392304420499997,0.3260752856730019,16.0
2018-10-05 20:08:21.050,-0.0270243778638,0.023921624394,-0.950879958214,0.423524022102,0.0468939170241,-0.0284349806607,0.0,0.4511059,10.36562905,0.0,-14.4477119446,11.621638298,0.3399258852,0.423524022102,0.0468939170241,-0.0284349806607,2.08999991417,-341.23840332,-440.38458252,10.219638824500002,-3.8301995173059002,9.98832881451,4.325737953200001,14.362227439899996,0.32334479689600193,16.0
2018-10-05 20:08:21.100,-0.0270243778638,0.023921624394,-0.950879958214,0.423524022102,0.0468939170241,-0.0284349806607,0.0,0.4511059,10.36562905,0.0,-14.4477119446,11.621638298,0.3399258852,0.423524022102,0.0468939170241,-0.0284349806607,2.08999991417,-341.23840332,-440.38458252,10.219638824500002,-3.8301995173059002,9.98832881451,4.325737953200001,14.362227439899996,0.32334479689600193,16.0
2018-10-05 20:08:21.150,-0.0270243778638,0.023921624394,-0.950879958214,0.423524022102,0.0468939170241,-0.0284349806607,0.0,0.4511059,10.36562905,0.0,-14.4477119446,11.621638298,0.3399258852,0.423524022102,0.0468939170241,-0.0284349806607,2.02999997139,-335.876831055,-438.98135376,10.219638824500002,-3.8901995122395,9.24832856655,4.1900758743,14.171853065499997,0.42711871862400197,16.0
2018-10-05 20:08:21.200,-0.0424152790311,-0.0581463300368,-0.950140607154,0.183305457234,0.0349169075489,0.128212049603,0.08825985,-0.12748645,10.8461549,0.0,-14.4477119446,11.621638298,0.3399258852,0.423524022102,0.0468939170241,-0.0284349806607,1.9699999094,-335.876831055,-437.586364746,10.403045654300001,-2.887392789125,-1.2079777717599995,4.1160135269,14.077736854599996,0.47680023312600195,16.0
2018-10-05 20:08:21.250,-0.0424152790311,-0.0581463300368,-0.950140607154,0.183305457234,0.0349169075489,0.128212049603,0.08825985,-0.12748645,10.8461549,0.0,-14.0478773117,11.9093809128,0.487910479307,0.183305457234,0.0349169075489,0.128212049603,1.9699999094,-335.876831055,-437.586364746,10.403045654300001,-2.887392789125,-1.2079777717599995,4.1160135269,14.077736854599996,0.47680023312600195,16.0
2018-10-05 20:08:21.300,-0.0424152790311,-0.0581463300368,-0.950140607154,0.183305457234,0.0349169075489,0.128212049603,0.08825985,-0.12748645,10.8461549,0.0,-14.0478773117,11.9093809128,0.487910479307,0.183305457234,0.0349169075489,0.128212049603,1.90999996662,-316.320800781,-436.216949463,10.403045654300001,-3.067392796278,-2.2179775237999992,4.0584030151,13.995882987999996,0.517688035965002,16.0
2018-10-05 20:08:21.350,-0.0424152790311,-0.0581463300368,-0.950140607154,0.183305457234,0.0349169075489,0.128212049603,0.08825985,-0.12748645,10.8461549,0.0,-14.0478773117,11.9093809128,0.487910479307,0.183305457234,0.0349169075489,0.128212049603,1.83999991417,-316.320800781,-434.855834961,10.403045654300001,-3.247392773628,-2.9279775619499997,4.0028362274,13.898834228499997,0.535184204578002,16.0
2018-10-05 20:08:21.400,-0.0424152790311,-0.0581463300368,-0.950140607154,0.183305457234,0.0349169075489,0.128212049603,0.08825985,-0.12748645,10.8461549,0.0,-14.0478773117,11.9093809128,0.487910479307,0.183305457234,0.0349169075489,0.128212049603,1.83999991417,-316.320800781,-434.855834961,10.403045654300001,-3.247392773628,-2.9279775619499997,4.0028362274,13.898834228499997,0.535184204578002,16.0
2018-10-05 20:08:21.450,-0.0424152790311,-0.0581463300368,-0.950140607154,0.183305457234,0.0349169075489,0.128212049603,0.08825985,-0.12748645,10.8461549,0.0,-14.0478773117,11.9093809128,0.487910479307,0.183305457234,0.0349169075489,0.128212049603,1.75999999046,-296.557434082,-433.511779785,10.403045654300001,-3.417392790317,-3.5879774093599996,3.9642124176000006,13.827625274699997,0.540798842907002,16.0
2018-10-05 20:08:21.500,-0.0424152790311,-0.0581463300368,-0.950140607154,0.183305457234,0.0349169075489,0.128212049603,0.08825985,-0.12748645,10.8461549,0.0,-13.7688236237,12.0669355392,0.508850395679,0.183305457234,0.0349169075489,0.128212049603,1.75999999046,-296.557434082,-433.511779785,10.403045654300001,-3.417392790317,-3.5879774093599996,3.9237995148000007,13.749246597299997,0.501757442951002,16.0
2018-10-05 20:08:21.550,-0.0424152790311,-0.0581463300368,-0.950140607154,0.183305457234,0.0349169075489,0.128212049603,0.08825985,-0.12748645,10.8461549,0.0,-13.7688236237,12.0669355392,0.508850395679,0.183305457234,0.0349169075489,0.128212049603,1.75999999046,-296.557434082,-433.511779785,10.403045654300001,-3.417392790317,-3.5879774093599996,3.9122400283999994,13.715116500899997,0.46199488639800196,16.0
2018-10-05 20:08:21.600,-0.0424152790311,-0.0581463300368,-0.950140607154,0.183305457234,0.0349169075489,0.128212049603,0.08825985,-0.12748645,10.8461549,0.0,-13.7688236237,12.0669355392,0.508850395679,0.183305457234,0.0349169075489,0.128212049603,1.68999993801,-296.557434082,-432.167724609,10.403045654300001,-3.537392795086,-4.057977437969999,3.885266304,13.666662216199997,0.37540093064300195,16.0
2018-10-05 20:08:21.650,-0.0339708791597,-0.0627096470007,-0.957056675267,-0.111001811922,0.0894627571106,-0.0421285107732,0.0392266,0.83356525,8.8063717,0.0,-13.7688236237,12.0669355392,0.508850395679,0.183305457234,0.0349169075489,0.128212049603,1.68999993801,-296.557434082,-432.167724609,13.156242370599998,-2.646658599376,-4.22075438499,3.8688793181999994,13.637902259799997,0.29472044110300194,16.0
2018-10-05 20:08:21.700,-0.0339708791597,-0.0627096470007,-0.957056675267,-0.111001811922,0.0894627571106,-0.0421285107732,0.0392266,0.83356525,8.8063717,0.0,-13.7688236237,12.0669355392,0.508850395679,0.183305457234,0.0349169075489,0.128212049603,1.68999993801,-296.557434082,-432.167724609,13.156242370599998,-2.646658599376,-4.22075438499,3.8688793181999994,13.637902259799997,0.29472044110300194,16.0
2018-10-05 20:08:21.750,-0.0339708791597,-0.0627096470007,-0.957056675267,-0.111001811922,0.0894627571106,-0.0421285107732,0.0392266,0.83356525,8.8063717,0.0,-13.5756654739,12.1746263504,0.0859053432941,-0.111001811922,0.0894627571106,-0.0421285107732,1.63999998569,-288.58203125,-430.840332031,13.156242370599998,-2.646658599376,-4.66075444221,3.8253736495999995,13.575665473899996,0.08590534329410196,16.0
2018-10-05 20:08:21.800,-0.0339708791597,-0.0627096470007,-0.957056675267,-0.111001811922,0.0894627571106,-0.0421285107732,0.0392266,0.83356525,8.8063717,0.0,-13.5756654739,12.1746263504,0.0859053432941,-0.111001811922,0.0894627571106,-0.0421285107732,1.61000001431,-288.58203125,-429.504730225,13.156242370599998,-2.56665855646,-5.0507543087,3.8253736495999995,13.575665473899996,0.08590534329410196,16.0
