%time,field.orientation.x,field.orientation.y,field.orientation.z,field.angular_velocity.x,field.angular_velocity.y,field.angular_velocity.z,field.linear_acceleration.x,field.linear_acceleration.y,field.linear_acceleration.z,field.data,field.twist.linear.x,field.twist.linear.y,field.twist.linear.z,field.twist.angular.x,field.twist.angular.y,field.twist.angular.z,field.alt_error,field.aspd_error,field.xtrack_error,delta_yaw,delta_pitch,delta_roll,delta_x,delta_y,delta_z,delta_roll_airspeed
2018-07-21 01:02:29.000,,,,,,,,,,0.0,-18.3733768463,10.43009758,5.02136087418,1.03532159328,-0.55839663744,-0.0290922150016,,,,,,,,,,
2018-07-21 01:02:29.050,,,,,,,,,,0.0,-18.3733768463,10.43009758,5.02136087418,1.03532159328,-0.55839663744,-0.0290922150016,-2.47000002861,-733.936096191,-31.3435764313,185.9196472168,-7.29381799696,26.1986713409,-26.7691040039,17.279088854767,5.471998214719998,-7.339361190799998
2018-07-21 01:02:29.100,,,,,,,,,,0.0,-18.3733768463,10.43009758,5.02136087418,1.03532159328,-0.55839663744,-0.0290922150016,-2.47000002861,-733.936096191,-31.3435764313,185.9196472168,-7.253818035109999,25.8486728668,-26.9516019821,16.921684145967,5.691349506379998,-7.339361190799998
2018-07-21 01:02:29.150,,,,,,,,,,0.0,-16.6085739136,11.3200387955,6.05672264099,1.03532159328,-0.55839663744,-0.0290922150016,-3.06999993324,-734.016418457,-29.3450317383,186.9196472168,-5.69381809233,25.3386707306,-27.3142385483,16.177802920367,6.056722640989999,-7.340164184599999
2018-07-21 01:02:29.200,,,,,,,,,,0.0,-16.6085739136,11.3200387955,6.05672264099,1.03532159328,-0.55839663744,-0.0290922150016,-3.73000001907,-718.221862793,-155.657913208,205.9196472168,-7.163817882519999,24.5586719513,-27.404671669000003,15.984067797666999,6.118228912349998,-7.340164184599999
2018-07-21 01:02:29.250,,,,,,,,,,0.0,-16.6085739136,11.3200387955,6.05672264099,1.03532159328,-0.55839663744,-0.0290922150016,-3.73000001907,-718.221862793,-155.657913208,205.9196472168,-7.163817882519999,24.5586719513,-27.7512025833,15.172776103067,6.3908824920699985,-6.1922187804999975
2018-07-21 01:02:29.300,-0.276899844581,-0.225497933827,-0.921915675043,0.164947971702,-0.489877194166,-0.114016935229,-0.10787315,1.10815145,16.34768555,0.0,-16.6085739136,11.3200387955,6.05672264099,1.03532159328,-0.55839663744,-0.0290922150016,-3.73000001907,-718.221862793,-155.657913208,199.3791427612,-19.70485115049,6.117446899399994,-27.8349370956,14.967587351767,6.453203678129999,-6.1922187804999975
2018-07-21 01:02:29.350,-0.276899844581,-0.225497933827,-0.921915675043,0.164947971702,-0.489877194166,-0.114016935229,-0.10787315,1.10815145,16.34768555,0.0,-16.6085739136,11.3200387955,6.05672264099,1.03532159328,-0.55839663744,-0.0290922150016,-4.42000007629,-603.34387207,-157.159713745,199.3791427612,-21.194851398449998,5.707447051999999,-28.1611423492,14.164703249967,6.621972560879998,-6.033437728899999
2018-07-21 01:02:29.400,-0.276899844581,-0.225497933827,-0.921915675043,0.164947971702,-0.489877194166,-0.114016935229,-0.10787315,1.10815145,16.34768555,0.0,-16.6085739136,11.3200387955,6.05672264099,1.03532159328,-0.55839663744,-0.0290922150016,-4.42000007629,-603.34387207,-157.159713745,199.3791427612,-21.17485141752,5.6274452209,-28.2352237701,13.958989024167,6.636165618899998,-6.033437728899999
2018-07-21 01:02:29.450,-0.276899844581,-0.225497933827,-0.921915675043,0.164947971702,-0.489877194166,-0.114016935229,-0.10787315,1.10815145,16.34768555,0.0,-13.8000717163,12.445098877,6.63315629959,0.164947971702,-0.489877194166,-0.114016935229,-5.15000009537,-574.398498535,-158.57850647,199.3791427612,-22.68485116957,5.437446594199997,-28.5032186508,13.180419802667,6.624411582949998,-5.7439842224
2018-07-21 01:02:29.500,-0.276899844581,-0.225497933827,-0.921915675043,0.164947971702,-0.489877194166,-0.114016935229,-0.10787315,1.10815145,16.34768555,0.0,-13.8000717163,12.445098877,6.63315629959,0.164947971702,-0.489877194166,-0.114016935229,-5.15000009537,-574.398498535,-158.57850647,199.3791427612,-22.66485118864,5.387447357099994,-28.6859855652,12.626726031267,6.574789524079998,-5.7439842224
2018-07-21 01:02:29.550,-0.276899844581,-0.225497933827,-0.921915675043,0.164947971702,-0.489877194166,-0.114016935229,-0.10787315,1.10815145,16.34768555,0.0,-13.8000717163,12.445098877,6.63315629959,0.164947971702,-0.489877194166,-0.114016935229,-5.86999988556,-535.234924316,-159.879608154,199.3791427612,-24.23485112188,5.3774452209,-28.809753418,12.262631297067,6.543698310849998,-5.352348327699998
2018-07-21 01:02:29.600,-0.323244214261,-0.244408170253,-0.892009894438,-0.0995509177446,-0.300376355648,-0.355428516865,-0.46091255,1.53964405,12.83690485,0.0,-13.8000717163,12.445098877,6.63315629959,0.164947971702,-0.489877194166,-0.114016935229,-5.86999988556,-535.234924316,-159.879608154,190.0639610291,-26.536622762660002,-0.8989830017000031,-29.0009946823,11.652737498267,6.505437850949998,-5.352348327699998
2018-07-21 01:02:29.650,-0.323244214261,-0.244408170253,-0.892009894438,-0.0995509177446,-0.300376355648,-0.355428516865,-0.46091255,1.53964405,12.83690485,0.0,-11.8826627731,13.0715684891,6.48921251297,-0.0995509177446,-0.300376355648,-0.355428516865,-6.59999990463,-495.806396484,-161.080184937,190.0639610291,-28.156622707821,-0.8489837645999998,-29.1322984695,11.246646761867,6.467801094059999,-4.958063125600001
2018-07-21 01:02:29.700,-0.323244214261,-0.244408170253,-0.892009894438,-0.0995509177446,-0.300376355648,-0.355428516865,-0.46091255,1.53964405,12.83690485,0.0,-11.8826627731,13.0715684891,6.48921251297,-0.0995509177446,-0.300376355648,-0.355428516865,-7.31999969482,-458.495239258,-162.197463989,190.0639610291,-28.116622716166,-0.7389831541999996,-29.1322984695,11.246646761867,6.467801094059999,-4.958063125600001
2018-07-21 01:02:29.750,-0.323244214261,-0.244408170253,-0.892009894438,-0.0995509177446,-0.300376355648,-0.355428516865,-0.46091255,1.53964405,12.83690485,0.0,-11.8826627731,13.0715684891,6.48921251297,-0.0995509177446,-0.300376355648,-0.355428516865,-7.31999969482,-458.495239258,-162.197463989,190.0639610291,-29.75662267206,-0.5789833067999979,-29.3042860031,10.696370959267,6.383637905119998,-4.5849514008
2018-07-21 01:02:29.800,-0.323244214261,-0.244408170253,-0.892009894438,-0.0995509177446,-0.300376355648,-0.355428516865,-0.46091255,1.53964405,12.83690485,0.0,-11.8826627731,13.0715684891,6.48921251297,-0.0995509177446,-0.300376355648,-0.355428516865,-8.02999973297,-407.602966309,-163.205215454,190.0639610291,-31.43662261961,-0.3789863586000024,-29.454298973100002,10.165460467367,6.267685413359998,-4.5849514008
2018-07-21 01:02:29.850,-0.323244214261,-0.244408170253,-0.892009894438,-0.0995509177446,-0.300376355648,-0.355428516865,-0.46091255,1.53964405,12.83690485,0.0,-11.8826627731,13.0715684891,6.48921251297,-0.0995509177446,-0.300376355648,-0.355428516865,-8.02999973297,-407.602966309,-163.205215454,190.0639610291,-31.43662261961,-0.3789863586000024,-29.623418808,9.499631762506999,6.0216479301499986,-4.076028823899998
2018-07-21 01:02:29.900,-0.323244214261,-0.244408170253,-0.892009894438,-0.0995509177446,-0.300376355648,-0.355428516865,-0.46091255,1.53964405,12.83690485,0.0,-9.77684020996,13.6658639908,5.95503950119,-0.0995509177446,-0.300376355648,-0.355428516865,-8.02999973297,-407.602966309,-163.205215454,190.0639610291,-31.39662265775,-0.06898498529999841,-29.73458004,9.039012789727,5.806249141689999,-4.076028823899998
2018-07-21 01:02:29.950,-0.323244214261,-0.244408170253,-0.892009894438,-0.0995509177446,-0.300376355648,-0.355428516865,-0.46091255,1.53964405,12.83690485,0.0,-9.77684020996,13.6658639908,5.95503950119,-0.0995509177446,-0.300376355648,-0.355428516865,-8.71000003815,-342.249572754,-164.146255493,190.0639610291,-33.17662239072,0.10101699829999689,-29.73458004,9.039012789727,5.806249141689999,-4.076028823899998
2018-07-21 01:02:30.000,-0.342801270224,-0.275592941646,-0.851370288483,0.136710420251,-0.145677566528,-0.445696145296,-0.3726527,0.7453054,8.12971285,0.0,-9.77684020996,13.6658639908,5.95503950119,-0.0995509177446,-0.300376355648,-0.355428516865,-8.71000003815,-342.249572754,-164.146255493,190.0639610291,-33.14662265775,0.27101516729999986,-29.856407165500002,8.478082537647,5.465579032899998,-3.4224948882999993
2018-07-21 01:02:30.050,-0.342801270224,-0.275592941646,-0.851370288483,0.136710420251,-0.145677566528,-0.445696145296,-0.3726527,0.7453054,8.12971285,0.0,-9.77684020996,13.6658639908,5.95503950119,-0.0995509177446,-0.300376355648,-0.355428516865,-9.3499994278,-274.331176758,-165.0027771,177.6799468994,-31.59352207186,-6.7767906188999945,-29.9129810333,8.199176669117,5.270959854129998,-2.743310928399998
2018-07-21 01:02:30.100,-0.342801270224,-0.275592941646,-0.851370288483,0.136710420251,-0.145677566528,-0.445696145296,-0.3726527,0.7453054,8.12971285,0.0,-9.77684020996,13.6658639908,5.95503950119,-0.0995509177446,-0.300376355648,-0.355428516865,-9.3499994278,-274.331176758,-165.0027771,177.6799468994,-31.5235219002,-6.596790313699998,-29.9521389007,7.971230387687,5.068091392519999,-2.743310928399998
2018-07-21 01:02:30.150,-0.342801270224,-0.275592941646,-0.851370288483,0.136710420251,-0.145677566528,-0.445696145296,-0.3726527,0.7453054,8.12971285,0.0,-8.05949211121,14.027094841,4.73289775848,0.136710420251,-0.145677566528,-0.445696145296,-9.9299993515,-183.225540161,-165.800170898,177.6799468994,-33.42352199557,-6.206790924099998,-30.061466217,7.404383063317001,4.504225730899998,-1.832254409799999
2018-07-21 01:02:30.200,-0.342801270224,-0.275592941646,-0.851370288483,0.136710420251,-0.145677566528,-0.445696145296,-0.3726527,0.7453054,8.12971285,0.0,-8.05949211121,14.027094841,4.73289775848,0.136710420251,-0.145677566528,-0.445696145296,-9.9299993515,-183.225540161,-165.800170898,177.6799468994,-33.41352176668,-6.1167907715,-30.061466217,7.404383063317001,4.504225730899998,-1.832254409799999
2018-07-21 01:02:30.250,-0.342801270224,-0.275592941646,-0.851370288483,0.136710420251,-0.145677566528,-0.445696145296,-0.3726527,0.7453054,8.12971285,0.0,-8.05949211121,14.027094841,4.73289775848,0.136710420251,-0.145677566528,-0.445696145296,-10.4499998093,-102.157501221,-166.547439575,177.6799468994,-35.4635219574,-5.7367897033999995,-30.1341981888,6.950470328327,4.040346622469999,-1.0215740203999975
2018-07-21 01:02:30.300,-0.342801270224,-0.275592941646,-0.851370288483,0.136710420251,-0.145677566528,-0.445696145296,-0.3726527,0.7453054,8.12971285,0.0,-8.05949211121,14.027094841,4.73289775848,0.136710420251,-0.145677566528,-0.445696145296,-10.4499998093,-102.157501221,-166.547439575,177.6799468994,-35.4535217285,-5.6367874146000005,-30.152087211599998,6.840834498407,3.923941373829998,-1.0215740203999975
2018-07-21 01:02:30.350,-0.342801270224,-0.275592941646,-0.851370288483,0.136710420251,-0.145677566528,-0.445696145296,-0.3726527,0.7453054,8.12971285,0.0,-6.92816162109,14.2240037918,3.59666228294,0.136710420251,-0.145677566528,-0.445696145296,-10.9099998474,-43.5797691345,-167.244018555,177.6799468994,-37.583521843,-5.356788635299999,-30.2182035446,6.497390627857,3.5966622829399983,-0.4357967377000005
2018-07-21 01:02:30.400,-0.338799137149,-0.309820335646,-0.809693651025,-0.0554702877998,-0.091640047729,-0.471151292324,-0.28439285,0.4314926,7.09020795,0.0,-6.92816162109,14.2240037918,3.59666228294,0.136710420251,-0.145677566528,-0.445696145296,-10.9099998474,-43.5797691345,-167.244018555,177.6799468994,-37.583521843,-5.166790008599996,-30.2613477707,6.281157374377,3.379065275189998,-0.4357967377000005
2018-07-21 01:02:30.450,-0.338799137149,-0.309820335646,-0.809693651025,-0.0554702877998,-0.091640047729,-0.471151292324,-0.28439285,0.4314926,7.09020795,0.0,-6.92816162109,14.2240037918,3.59666228294,0.136710420251,-0.145677566528,-0.445696145296,-11.3199996948,14.6129608154,-167.890197754,168.1081619263,-33.4224443435,-9.696292877200001,-30.320195198100002,5.821238875387,2.9287183284799982,0.1461305618000015
2018-07-21 01:02:30.500,-0.338799137149,-0.309820335646,-0.809693651025,-0.0554702877998,-0.091640047729,-0.471151292324,-0.28439285,0.4314926,7.09020795,0.0,-6.92816162109,14.2240037918,3.59666228294,0.136710420251,-0.145677566528,-0.445696145296,-11.6599998474,59.1831207275,-168.485076904,168.1081619263,-34.132443428,-9.406291961600004,-30.3407897949,5.625097632407,2.689839839939998,0.1461305618000015
2018-07-21 01:02:30.550,-0.338799137149,-0.309820335646,-0.809693651025,-0.0554702877998,-0.091640047729,-0.471151292324,-0.28439285,0.4314926,7.09020795,0.0,-6.92816162109,14.2240037918,3.59666228294,0.136710420251,-0.145677566528,-0.445696145296,-11.6599998474,59.1831207275,-168.485076904,168.1081619263,-34.132443428,-9.406291961600004,-30.3640785217,5.429057955737,2.449843406679998,0.591832160900001
2018-07-21 01:02:30.600,-0.338799137149,-0.309820335646,-0.809693651025,-0.0554702877998,-0.091640047729,-0.471151292324,-0.28439285,0.4314926,7.09020795,0.0,-5.58510255814,14.3861017227,2.06823396683,-0.0554702877998,-0.091640047729,-0.471151292324,-11.6599998474,59.1831207275,-168.485076904,168.1081619263,-34.132443428,-9.136291503900004,-30.380301475499998,5.154331564907,2.068233966829998,0.591832160900001
2018-07-21 01:02:30.650,-0.338799137149,-0.309820335646,-0.809693651025,-0.0554702877998,-0.091640047729,-0.471151292324,-0.28439285,0.4314926,7.09020795,0.0,-5.58510255814,14.3861017227,2.06823396683,-0.0554702877998,-0.091640047729,-0.471151292324,-11.9299993515,98.2109985352,-169.021102905,168.1081619263,-34.1624441147,-8.866294860800004,-30.4007349014,4.871390223507,1.703249812129998,0.9821109772000014
2018-07-21 01:02:30.700,-0.315885669094,-0.318979748117,-0.784770554471,-0.136319294572,-0.0149440709502,-0.514353811741,-0.3726527,0.588399,5.12887795,0.0,-5.58510255814,14.3861017227,2.06823396683,-0.0554702877998,-0.091640047729,-0.471151292324,-11.9299993515,98.2109985352,-169.021102905,162.5185585022,-28.3059949875,-8.6080245972,-30.4230041504,4.671421885487001,1.469667196269998,0.9821109772000014
2018-07-21 01:02:30.750,-0.315885669094,-0.318979748117,-0.784770554471,-0.136319294572,-0.0149440709502,-0.514353811741,-0.3726527,0.588399,5.12887795,0.0,-5.58510255814,14.3861017227,2.06823396683,-0.0554702877998,-0.091640047729,-0.471151292324,-11.9299993515,98.2109985352,-169.021102905,162.5185585022,-28.3059949875,-8.6080245972,-30.4230041504,4.671421885487001,1.469667196269998,0.9821109772000014
2018-07-21 01:02:30.800,-0.315885669094,-0.318979748117,-0.784770554471,-0.136319294572,-0.0149440709502,-0.514353811741,-0.3726527,0.588399,5.12887795,0.0,-5.58510255814,14.3861017227,2.06823396683,-0.0554702877998,-0.091640047729,-0.471151292324,-12.1499996185,134.592147827,-169.531784058,162.5185585022,-28.3959951401,-8.2280235291,-30.479476928700002,4.172992587087,0.905950486659998,1.3459224701000014
2018-07-21 01:02:30.850,-0.315885669094,-0.318979748117,-0.784770554471,-0.136319294572,-0.0149440709502,-0.514353811741,-0.3726527,0.588399,5.12887795,0.0,-4.31654214859,14.5104503632,0.55836468935,-0.136319294572,-0.0149440709502,-0.514353811741,-12.3000001907,167.788513184,-169.983596802,162.5185585022,-28.3759946823,-8.098022461,-30.496153831500003,3.981292128567,0.672641634940998,1.6778860092000016
2018-07-21 01:02:30.900,-0.315885669094,-0.318979748117,-0.784770554471,-0.136319294572,-0.0149440709502,-0.514353811741,-0.3726527,0.588399,5.12887795,0.0,-4.31654214859,14.5104503632,0.55836468935,-0.136319294572,-0.0149440709502,-0.514353811741,-12.3000001907,167.788513184,-169.983596802,162.5185585022,-28.3359947205,-7.968021392799997,-30.515273094199998,3.795083403587,0.44251558184599804,1.6778860092000016
2018-07-21 01:02:30.950,-0.315885669094,-0.318979748117,-0.784770554471,-0.136319294572,-0.0149440709502,-0.514353811741,-0.3726527,0.588399,5.12887795,0.0,-4.31654214859,14.5104503632,0.55836468935,-0.136319294572,-0.0149440709502,-0.514353811741,-12.3000001907,167.788513184,-169.983596802,162.5185585022,-28.3359947205,-7.968021392799997,-30.515273094199998,3.795083403587,0.44251558184599804,1.6778860092000016
2018-07-21 01:02:31.000,-0.286424484671,-0.334772710615,-0.744727716397,-0.0668237134814,-0.0650035440922,-0.591273486614,-0.2353596,0.4903325,5.97224985,0.0,-4.31654214859,14.5104503632,0.55836468935,-0.136319294572,-0.0149440709502,-0.514353811741,-12.3899993896,189.915283203,-170.392868042,162.5185585022,-28.285994529699998,-7.688022613499996,-30.5913963318,3.208180308337,-0.22224387526500197,1.8991537094000002
2018-07-21 01:02:31.050,-0.286424484671,-0.334772710615,-0.744727716397,-0.0668237134814,-0.0650035440922,-0.591273486614,-0.2353596,0.4903325,5.97224985,0.0,-4.31654214859,14.5104503632,0.55836468935,-0.136319294572,-0.0149440709502,-0.514353811741,-12.4200000763,207.378677368,-170.751754761,155.55874443049998,-20.63086843489,-7.447101592999999,-30.6302080154,2.905434489247,-0.560441851616002,2.0737876892000013
2018-07-21 01:02:31.100,-0.286424484671,-0.334772710615,-0.744727716397,-0.0668237134814,-0.0650035440922,-0.591273486614,-0.2353596,0.4903325,5.97224985,0.0,-3.24371290207,14.647151947,-0.664729595184,-0.0668237134814,-0.0650035440922,-0.591273486614,-12.4200000763,207.378677368,-170.751754761,155.55874443049998,-20.65086793899,-7.397098541300004,-30.671969413699998,2.618314385417,-0.881837487221002,2.0737876892000013
2018-07-21 01:02:31.150,-0.286424484671,-0.334772710615,-0.744727716397,-0.0668237134814,-0.0650035440922,-0.591273486614,-0.2353596,0.4903325,5.97224985,0.0,-3.24371290207,14.647151947,-0.664729595184,-0.0668237134814,-0.0650035440922,-0.591273486614,-12.3999996185,218.519592285,-171.07711792,155.55874443049998,-20.70086812969,-7.337100982700001,-30.7233047485,2.3354462385169996,-1.200299620630002,2.185196876500001
2018-07-21 01:02:31.200,-0.286424484671,-0.334772710615,-0.744727716397,-0.0668237134814,-0.0650035440922,-0.591273486614,-0.2353596,0.4903325,5.97224985,0.0,-3.24371290207,14.647151947,-0.664729595184,-0.0668237134814,-0.0650035440922,-0.591273486614,-12.3999996185,218.519592285,-171.07711792,155.55874443049998,-20.70086812969,-7.337100982700001,-30.7233047485,2.3354462385169996,-1.200299620630002,2.185196876500001
2018-07-21 01:02:31.250,-0.286424484671,-0.334772710615,-0.744727716397,-0.0668237134814,-0.0650035440922,-0.591273486614,-0.2353596,0.4903325,5.97224985,0.0,-3.24371290207,14.647151947,-0.664729595184,-0.0668237134814,-0.0650035440922,-0.591273486614,-12.3199996948,243.233673096,-171.352081299,155.55874443049998,-20.73086786269,-7.327098846399998,-30.7753152847,1.9480277299870001,-1.633893966670002,2.432337760900001
2018-07-21 01:02:31.300,-0.286424484671,-0.334772710615,-0.744727716397,-0.0668237134814,-0.0650035440922,-0.591273486614,-0.2353596,0.4903325,5.97224985,0.0,-2.18497467041,14.8110437393,-1.8579583168,-0.0668237134814,-0.0650035440922,-0.591273486614,-12.3199996948,243.233673096,-171.352081299,155.55874443049998,-20.74086809159,-7.327098846399998,-30.7909431457,1.8507884740870002,-1.744913816450002,2.432337760900001
2018-07-21 01:02:31.350,-0.257560314592,-0.350374915446,-0.678348798811,-0.027650564909,-0.134475588799,-0.599933505058,0.0,0.3530394,6.5312289,0.0,-2.18497467041,14.8110437393,-1.8579583168,-0.0668237134814,-0.0650035440922,-0.591273486614,-12.1799993515,254.2447052,-171.584777832,155.55874443049998,-20.76086854939,-7.377101898200003,-30.8475399017,1.500602841377,-2.1974740028400017,2.5424480438000003
2018-07-21 01:02:31.400,-0.257560314592,-0.350374915446,-0.678348798811,-0.027650564909,-0.134475588799,-0.599933505058,0.0,0.3530394,6.5312289,0.0,-2.18497467041,14.8110437393,-1.8579583168,-0.0668237134814,-0.0650035440922,-0.591273486614,-12.1799993515,254.2447052,-171.584777832,145.56678295135,-11.819985389700001,-6.774089813200007,-30.8720769882,1.323018193247,-2.417770147320002,2.5424480438000003
2018-07-21 01:02:31.450,-0.257560314592,-0.350374915446,-0.678348798811,-0.027650564909,-0.134475588799,-0.599933505058,0.0,0.3530394,6.5312289,0.0,-2.18497467041,14.8110437393,-1.8579583168,-0.0668237134814,-0.0650035440922,-0.591273486614,-11.9799995422,268.918884277,-171.775558472,145.56678295135,-11.9299850464,-6.854091644300006,-30.911111831699998,1.034735679627,-2.7453243732500017,2.6891899109000015
2018-07-21 01:02:31.500,-0.257560314592,-0.350374915446,-0.678348798811,-0.027650564909,-0.134475588799,-0.599933505058,0.0,0.3530394,6.5312289,0.0,-2.18497467041,14.8110437393,-1.8579583168,-0.0668237134814,-0.0650035440922,-0.591273486614,-11.9799995422,268.918884277,-171.775558472,145.56678295135,-12.0299854279,-6.914093017600003,-30.9419279098,0.850785374637,-2.9553420543700017,2.6891899109000015
2018-07-21 01:02:31.550,-0.257560314592,-0.350374915446,-0.678348798811,-0.027650564909,-0.134475588799,-0.599933505058,0.0,0.3530394,6.5312289,0.0,-0.985125899315,15.0087738037,-3.23272490501,-0.027650564909,-0.134475588799,-0.599933505058,-11.7299995422,269.342407227,-171.915908813,145.56678295135,-12.1999855041,-7.0140914917,-31.002973556500002,0.5543549060820001,-3.2327249050100018,2.6934251785
2018-07-21 01:02:31.600,-0.257560314592,-0.350374915446,-0.678348798811,-0.027650564909,-0.134475588799,-0.599933505058,0.0,0.3530394,6.5312289,0.0,-0.985125899315,15.0087738037,-3.23272490501,-0.027650564909,-0.134475588799,-0.599933505058,-11.7299995422,269.342407227,-171.915908813,145.56678295135,-12.319985389700001,-7.084091186500004,-31.0357551575,0.33799481391900005,-3.412267684940002,2.6934251785
2018-07-21 01:02:31.650,-0.257560314592,-0.350374915446,-0.678348798811,-0.027650564909,-0.134475588799,-0.599933505058,0.0,0.3530394,6.5312289,0.0,-0.985125899315,15.0087738037,-3.23272490501,-0.027650564909,-0.134475588799,-0.599933505058,-11.4099998474,272.798431396,-172.01373291,145.56678295135,-12.6299848556,-7.2440910339000055,-31.0900354385,-0.0049985945229999995,-3.669251918790002,2.7279853821
2018-07-21 01:02:31.700,-0.257560314592,-0.350374915446,-0.678348798811,-0.027650564909,-0.134475588799,-0.599933505058,0.0,0.3530394,6.5312289,0.0,-0.985125899315,15.0087738037,-3.23272490501,-0.027650564909,-0.134475588799,-0.599933505058,-11.4099998474,272.798431396,-172.01373291,145.56678295135,-12.6299848556,-7.2440910339000055,-31.107170105,-0.12331175804200001,-3.751556634900002,2.7279853821
2018-07-21 01:02:31.750,-0.257560314592,-0.350374915446,-0.678348798811,-0.027650564909,-0.134475588799,-0.599933505058,0.0,0.3530394,6.5312289,0.0,-0.985125899315,15.0087738037,-3.23272490501,-0.027650564909,-0.134475588799,-0.599933505058,-11.0599994659,238.087371826,-172.052993774,145.56678295135,-12.8699846268,-7.3840904236,-31.159535408,-0.484832633287,-3.988976478580002,2.3808746338000013
2018-07-21 01:02:31.800,-0.229059690752,-0.339154490051,-0.59192261286,-0.164984315634,-0.236421898007,-0.630012571812,0.2157463,0.0588399,8.6494653,0.0,0.431275725365,15.2097539902,-4.21246194839,-0.027650564909,-0.134475588799,-0.599933505058,-11.0599994659,238.087371826,-172.052993774,145.56678295135,-13.0499849319,-7.474090576200005,-31.191060066200002,-0.734886616469,-4.139762401580001,2.3808746338000013
2018-07-21 01:02:31.850,-0.229059690752,-0.339154490051,-0.59192261286,-0.164984315634,-0.236421898007,-0.630012571812,0.2157463,0.0588399,8.6494653,0.0,0.431275725365,15.2097539902,-4.21246194839,-0.027650564909,-0.134475588799,-0.599933505058,-10.6599998474,199.202819824,-172.033401489,131.94993829727,-5.5736675262999995,-3.4279289245000015,-31.231775283799998,-1.121356308461,-4.346339702610002,1.9920291900000002
2018-07-21 01:02:31.900,-0.229059690752,-0.339154490051,-0.59192261286,-0.164984315634,-0.236421898007,-0.630012571812,0.2157463,0.0588399,8.6494653,0.0,0.431275725365,15.2097539902,-4.21246194839,-0.027650564909,-0.134475588799,-0.599933505058,-10.6599998474,199.202819824,-172.033401489,131.94993829727,-5.943666458199999,-3.607929229699998,-31.2608995438,-1.374765038491,-4.477825641630002,1.9920291900000002
2018-07-21 01:02:31.950,-0.229059690752,-0.339154490051,-0.59192261286,-0.164984315634,-0.236421898007,-0.630012571812,0.2157463,0.0588399,8.6494653,0.0,0.431275725365,15.2097539902,-4.21246194839,-0.027650564909,-0.134475588799,-0.599933505058,-10.6599998474,199.202819824,-172.033401489,131.94993829727,-5.943666458199999,-3.607929229699998,-31.3223142624,-1.922147989273,-4.698395729060001,1.6061372757
2018-07-21 01:02:32.000,-0.229059690752,-0.339154490051,-0.59192261286,-0.164984315634,-0.236421898007,-0.630012571812,0.2157463,0.0588399,8.6494653,0.0,0.431275725365,15.2097539902,-4.21246194839,-0.027650564909,-0.134475588799,-0.599933505058,-10.2299995422,160.613632202,-171.946502686,131.94993829727,-6.3436660767,-3.7679290771,-31.3223142624,-1.922147989273,-4.698395729060001,1.6061372757
2018-07-21 01:02:32.050,-0.229059690752,-0.339154490051,-0.59192261286,-0.164984315634,-0.236421898007,-0.630012571812,0.2157463,0.0588399,8.6494653,0.0,2.09231972694,15.3539648056,-4.87069940567,-0.164984315634,-0.236421898007,-0.630012571812,-9.76000022888,127.271270752,-171.792312622,131.94993829727,-6.673666000400001,-3.9079284668000014,-31.3492116928,-2.832005620003,-4.964494228360002,1.272713661200001
2018-07-21 01:02:32.100,-0.229059690752,-0.339154490051,-0.59192261286,-0.164984315634,-0.236421898007,-0.630012571812,0.2157463,0.0588399,8.6494653,0.0,2.09231972694,15.3539648056,-4.87069940567,-0.164984315634,-0.236421898007,-0.630012571812,-9.76000022888,127.271270752,-171.792312622,131.94993829727,-6.8136672973999985,-3.967926025399997,-31.3457670212,-3.139685750003,-5.046917438510002,1.272713661200001
2018-07-21 01:02:32.150,-0.229059690752,-0.339154490051,-0.59192261286,-0.164984315634,-0.236421898007,-0.630012571812,0.2157463,0.0588399,8.6494653,0.0,2.09231972694,15.3539648056,-4.87069940567,-0.164984315634,-0.236421898007,-0.630012571812,-9.26999950409,112.251091003,-171.562347412,131.94993829727,-6.933666229300002,-4.007926940899999,-31.3493652344,-3.433968424793,-5.125552177430002,1.1225118637000016
2018-07-21 01:02:32.200,-0.229059690752,-0.339154490051,-0.59192261286,-0.164984315634,-0.236421898007,-0.630012571812,0.2157463,0.0588399,8.6494653,0.0,2.09231972694,15.3539648056,-4.87069940567,-0.164984315634,-0.236421898007,-0.630012571812,-9.26999950409,112.251091003,-171.562347412,131.94993829727,-7.0636672973999985,-4.057926178000002,-31.3493652344,-3.433968424793,-5.125552177430002,1.1225118637000016
2018-07-21 01:02:32.250,-0.216333519756,-0.306082355794,-0.492776991681,0.0522022582591,-0.347882777452,-0.49141433835,0.0980665,0.1372931,11.24822755,0.0,2.09231972694,15.3539648056,-4.87069940567,-0.164984315634,-0.236421898007,-0.630012571812,-8.75,109.37071228,-171.247924805,116.163520813,-2.6632566452000006,1.4444236755999995,-31.2815418243,-4.222661852833,-5.311826229100002,1.0937080383000009
2018-07-21 01:02:32.300,-0.216333519756,-0.306082355794,-0.492776991681,0.0522022582591,-0.347882777452,-0.49141433835,0.0980665,0.1372931,11.24822755,0.0,3.94278097153,15.2768373489,-5.34827899933,0.0522022582591,-0.347882777452,-0.49141433835,-8.75,109.37071228,-171.247924805,116.163520813,-2.6632566452000006,1.4344215393000042,-31.2534570694,-4.531787037852999,-5.375940322880002,1.0937080383000009
2018-07-21 01:02:32.350,-0.216333519756,-0.306082355794,-0.492776991681,0.0522022582591,-0.347882777452,-0.49141433835,0.0980665,0.1372931,11.24822755,0.0,3.94278097153,15.2768373489,-5.34827899933,0.0522022582591,-0.347882777452,-0.49141433835,-8.21000003815,103.580474854,-170.857116699,116.163520813,-1.3732557296000003,1.4344215393000042,-31.206867218,-4.870720505713,-5.430317878720002,1.0358057022000011
2018-07-21 01:02:32.400,-0.216333519756,-0.306082355794,-0.492776991681,0.0522022582591,-0.347882777452,-0.49141433835,0.0980665,0.1372931,11.24822755,0.0,3.94278097153,15.2768373489,-5.34827899933,0.0522022582591,-0.347882777452,-0.49141433835,-8.21000003815,103.580474854,-170.857116699,116.163520813,-1.3532552719000002,1.454421997100006,-31.0824394226,-5.565793156623,-5.515902996060002,1.0358057022000011
2018-07-21 01:02:32.450,-0.216333519756,-0.306082355794,-0.492776991681,0.0522022582591,-0.347882777452,-0.49141433835,0.0980665,0.1372931,11.24822755,0.0,3.94278097153,15.2768373489,-5.34827899933,0.0522022582591,-0.347882777452,-0.49141433835,-7.65999984741,100.699142456,-170.372772217,116.163520813,-0.21325588220000036,1.514423370400003,-31.0435867309,-5.747017979623,-5.5324788093600015,1.0069923401
2018-07-21 01:02:32.500,-0.216333519756,-0.306082355794,-0.492776991681,0.0522022582591,-0.347882777452,-0.49141433835,0.0980665,0.1372931,11.24822755,0.0,3.94278097153,15.2768373489,-5.34827899933,0.0522022582591,-0.347882777452,-0.49141433835,-7.65999984741,100.699142456,-170.372772217,116.163520813,-0.21325588220000036,1.514423370400003,-30.9240217209,-6.274953961373,-5.5797843933100015,1.0069923401
2018-07-21 01:02:32.550,-0.216333519756,-0.306082355794,-0.492776991681,0.0522022582591,-0.347882777452,-0.49141433835,0.0980665,0.1372931,11.24822755,0.0,6.02126169205,14.8809566498,-5.59467124939,0.0522022582591,-0.347882777452,-0.49141433835,-7.09999990463,92.8299865723,-169.803604126,116.163520813,0.7067441940999988,1.5944213868000006,-30.788189887999998,-6.787680745123,-5.6208906173700015,0.9283008575
2018-07-21 01:02:32.600,-0.269278345837,-0.279929315843,-0.395976959129,0.103369243443,-0.423535108566,-0.327607214451,0.16671305,0.46091255,12.5917386,0.0,6.02126169205,14.8809566498,-5.59467124939,0.0522022582591,-0.347882777452,-0.49141433835,-7.09999990463,92.8299865723,-169.803604126,116.163520813,0.7167444228999997,1.6344223023000026,-30.662842750499998,-7.1472254991529995,-5.645842552190002,0.9283008575
2018-07-21 01:02:32.650,-0.269278345837,-0.279929315843,-0.395976959129,0.103369243443,-0.423535108566,-0.327607214451,0.16671305,0.46091255,12.5917386,0.0,6.02126169205,14.8809566498,-5.59467124939,0.0522022582591,-0.347882777452,-0.49141433835,-6.53999996185,86.2372436523,-169.140304565,102.8088493347,0.5503749846999995,-0.35855102540000416,-30.406375885000003,-7.852555394173,-5.6845450401300015,0.8623733520000005
2018-07-21 01:02:32.700,-0.269278345837,-0.279929315843,-0.395976959129,0.103369243443,-0.423535108566,-0.327607214451,0.16671305,0.46091255,12.5917386,0.0,6.02126169205,14.8809566498,-5.59467124939,0.0522022582591,-0.347882777452,-0.49141433835,-6.53999996185,86.2372436523,-169.140304565,102.8088493347,0.5503749846999995,-0.35855102540000416,-30.406375885000003,-7.852555394173,-5.6845450401300015,0.8623733520000005
2018-07-21 01:02:32.750,-0.269278345837,-0.279929315843,-0.395976959129,0.103369243443,-0.423535108566,-0.327607214451,0.16671305,0.46091255,12.5917386,0.0,8.11855316162,14.1242341995,-5.69840192795,0.103369243443,-0.423535108566,-0.327607214451,-5.98000001907,83.2560577393,-168.391891479,102.8088493347,1.1703748702999999,-0.2985534668000014,-30.1868591309,-8.382605195043,-5.691596984860002,0.8325614929
2018-07-21 01:02:32.800,-0.269278345837,-0.279929315843,-0.395976959129,0.103369243443,-0.423535108566,-0.327607214451,0.16671305,0.46091255,12.5917386,0.0,8.11855316162,14.1242341995,-5.69840192795,0.103369243443,-0.423535108566,-0.327607214451,-5.98000001907,83.2560577393,-168.391891479,102.8088493347,1.1603755949999996,-0.22855377190000326,-29.8582983017,-9.069387555123,-5.700937747960002,0.8325614929
2018-07-21 01:02:32.850,-0.269278345837,-0.279929315843,-0.395976959129,0.103369243443,-0.423535108566,-0.327607214451,0.16671305,0.46091255,12.5917386,0.0,8.11855316162,14.1242341995,-5.69840192795,0.103369243443,-0.423535108566,-0.327607214451,-5.40999984741,72.008895874,-167.549041748,102.8088493347,1.7903747558000003,-0.1885528564000012,-29.766841888400002,-9.245769619943001,-5.693049907680002,0.7200899124000006
2018-07-21 01:02:32.900,-0.269278345837,-0.279929315843,-0.395976959129,0.103369243443,-0.423535108566,-0.327607214451,0.16671305,0.46091255,12.5917386,0.0,8.11855316162,14.1242341995,-5.69840192795,0.103369243443,-0.423535108566,-0.327607214451,-5.40999984741,72.008895874,-167.549041748,102.8088493347,1.7703752517000009,-0.1285514831000043,-29.4947586059,-9.754320263863,-5.670435428620002,0.7200899124000006
2018-07-21 01:02:32.950,-0.286791981464,-0.238045589282,-0.33043975116,-0.038559384644,-0.466609656811,-0.369887322187,0.2549729,0.5491724,13.925443,0.0,8.11855316162,14.1242341995,-5.69840192795,0.103369243443,-0.423535108566,-0.327607214451,-4.83999967575,67.4646377563,-166.620788574,92.7173423767,0.6024885177999995,1.5160293578999955,-29.297962188699998,-10.100793957713,-5.627645492550002,0.674647331200001
2018-07-21 01:02:33.000,-0.286791981464,-0.238045589282,-0.33043975116,-0.038559384644,-0.466609656811,-0.369887322187,0.2549729,0.5491724,13.925443,0.0,10.0137386322,13.0918111801,-5.57649183273,-0.038559384644,-0.466609656811,-0.369887322187,-4.28999996185,43.7385559082,-165.606231689,92.7173423767,0.5724887847999991,1.586029052699999,-29.086010932900003,-10.444509625433001,-5.576491832730002,0.674647331200001
2018-07-21 01:02:33.050,-0.286791981464,-0.238045589282,-0.33043975116,-0.038559384644,-0.466609656811,-0.369887322187,0.2549729,0.5491724,13.925443,0.0,10.0137386322,13.0918111801,-5.57649183273,-0.038559384644,-0.466609656811,-0.369887322187,-4.28999996185,43.7385559082,-165.606231689,92.7173423767,1.2224893570000006,1.6160278320000003,-28.6423778534,-11.071341633833,-5.4955768585200016,0.4373865127000016
2018-07-21 01:02:33.100,-0.286791981464,-0.238045589282,-0.33043975116,-0.038559384644,-0.466609656811,-0.369887322187,0.2549729,0.5491724,13.925443,0.0,10.0137386322,13.0918111801,-5.57649183273,-0.038559384644,-0.466609656811,-0.369887322187,-4.28999996185,43.7385559082,-165.606231689,92.7173423767,1.2124891280999996,1.6360282897999952,-28.312959671,-11.506158947933,-5.4414987564100015,0.4373865127000016
2018-07-21 01:02:33.150,-0.286791981464,-0.238045589282,-0.33043975116,-0.038559384644,-0.466609656811,-0.369887322187,0.2549729,0.5491724,13.925443,0.0,10.0137386322,13.0918111801,-5.57649183273,-0.038559384644,-0.466609656811,-0.369887322187,-4.28999996185,43.7385559082,-165.606231689,92.7173423767,1.2124891280999996,1.6360282897999952,-28.312959671,-11.506158947933,-5.4414987564100015,0.4373865127000016
2018-07-21 01:02:33.200,-0.280800214142,-0.198787561355,-0.269471083383,-0.129811316729,-0.389307886362,-0.449328660965,0.12748645,0.67665885,13.5527903,0.0,10.0137386322,13.0918111801,-5.57649183273,-0.038559384644,-0.466609656811,-0.369887322187,-3.75,28.4906387329,-164.514129639,92.7173423767,1.7424888611,1.6560287474999953,-27.971821785,-11.915055394133,-5.397594451900002,0.28490734100000026
2018-07-21 01:02:33.250,-0.280800214142,-0.198787561355,-0.269471083383,-0.129811316729,-0.389307886362,-0.449328660965,0.12748645,0.67665885,13.5527903,0.0,11.7448205948,11.7358875275,-5.37111139297,-0.129811316729,-0.389307886362,-0.449328660965,-3.22000002861,15.8605575562,-163.352615356,83.55338668819999,1.3836221695000006,5.144561767600003,-27.4980506897,-12.417760968233,-5.350216865540002,0.15860652920000007
2018-07-21 01:02:33.300,-0.280800214142,-0.198787561355,-0.269471083383,-0.129811316729,-0.389307886362,-0.449328660965,0.12748645,0.67665885,13.5527903,0.0,11.7448205948,11.7358875275,-5.37111139297,-0.129811316729,-0.389307886362,-0.449328660965,-3.22000002861,15.8605575562,-163.352615356,83.55338668819999,1.3736219405999996,5.1645622254000045,-27.3719940185,-12.540636181833001,-5.334577083590002,0.15860652920000007
2018-07-21 01:02:33.350,-0.280800214142,-0.198787561355,-0.269471083383,-0.129811316729,-0.389307886362,-0.449328660965,0.12748645,0.67665885,13.5527903,0.0,11.7448205948,11.7358875275,-5.37111139297,-0.129811316729,-0.389307886362,-0.449328660965,-2.70000004768,8.88681411743,-162.14704895,83.55338668819999,1.9336223602500002,5.204563140900007,-26.8851451874,-13.001781582833,-5.266175746920002,0.08886909480000149
2018-07-21 01:02:33.400,-0.280800214142,-0.198787561355,-0.269471083383,-0.129811316729,-0.389307886362,-0.449328660965,0.12748645,0.67665885,13.5527903,0.0,11.7448205948,11.7358875275,-5.37111139297,-0.129811316729,-0.389307886362,-0.449328660965,-2.70000004768,8.88681411743,-162.14704895,83.55338668819999,1.9336223602500002,5.244564056400002,-26.8851451874,-13.001781582833,-5.266175746920002,0.08886909480000149
2018-07-21 01:02:33.450,-0.294301621266,-0.160899021331,-0.188775544977,0.10257768631,-0.431940197945,-0.431001186371,-0.0588399,0.1569064,13.79795655,0.0,12.9077825546,10.4751663208,-5.20286226273,-0.129811316729,-0.389307886362,-0.449328660965,-2.19000005722,6.31008148193,-160.872406006,83.55338668819999,2.5336217880399996,5.274562835700003,-26.04164505,-13.666526913633001,-5.131867408750002,0.06310176850000104
2018-07-21 01:02:33.500,-0.294301621266,-0.160899021331,-0.188775544977,0.10257768631,-0.431940197945,-0.431001186371,-0.0588399,0.1569064,13.79795655,0.0,12.9077825546,10.4751663208,-5.20286226273,-0.129811316729,-0.389307886362,-0.449328660965,-2.19000005722,6.31008148193,-160.872406006,72.80999374390001,1.3432588577400004,6.138298034600005,-25.57871532439,-14.004041790933,-5.020429611210002,-0.02685737609999883
2018-07-21 01:02:33.550,-0.294301621266,-0.160899021331,-0.188775544977,0.10257768631,-0.431940197945,-0.431001186371,-0.0588399,0.1569064,13.79795655,0.0,12.9077825546,10.4751663208,-5.20286226273,-0.129811316729,-0.389307886362,-0.449328660965,-2.19000005722,6.31008148193,-160.872406006,72.80999374390001,1.3432588577400004,6.138298034600005,-25.57871532439,-14.004041790933,-5.020429611210002,-0.02685737609999883
2018-07-21 01:02:33.600,-0.294301621266,-0.160899021331,-0.188775544977,0.10257768631,-0.431940197945,-0.431001186371,-0.0588399,0.1569064,13.79795655,0.0,12.9077825546,10.4751663208,-5.20286226273,-0.129811316729,-0.389307886362,-0.449328660965,-1.68999993801,-2.68583297729,-159.553390503,72.80999374390001,1.9432592392100005,6.218296051000003,-24.911282539360002,-14.431236386333001,-4.840146064760002,-0.02685737609999883
2018-07-21 01:02:33.650,-0.294301621266,-0.160899021331,-0.188775544977,0.10257768631,-0.431940197945,-0.431001186371,-0.0588399,0.1569064,13.79795655,0.0,12.9077825546,10.4751663208,-5.20286226273,-0.129811316729,-0.389307886362,-0.449328660965,-1.20999991894,-16.4244651794,-158.173141479,72.80999374390001,2.5932588577400004,6.308296203600001,-24.38950157165,-14.731864094733,-4.687851905820001,-0.16424369809999995
2018-07-21 01:02:33.700,-0.294301621266,-0.160899021331,-0.188775544977,0.10257768631,-0.431940197945,-0.431001186371,-0.0588399,0.1569064,13.79795655,0.0,14.3980808258,8.21126651764,-4.63135194778,0.10257768631,-0.431940197945,-0.431001186371,-0.75,-38.2746696472,-156.748550415,72.80999374390001,3.2332587242300006,6.368297576900005,-24.38950157165,-14.731864094733,-4.687851905820001,-0.16424369809999995
2018-07-21 01:02:33.750,-0.294301621266,-0.160899021331,-0.188775544977,0.10257768631,-0.431940197945,-0.431001186371,-0.0588399,0.1569064,13.79795655,0.0,14.3980808258,8.21126651764,-4.63135194778,0.10257768631,-0.431940197945,-0.431001186371,-0.75,-38.2746696472,-156.748550415,72.80999374390001,3.2332587242300006,6.4082984924,-23.66319847106,-15.109019398733,-4.457974910740002,-0.3827457427999992
2018-07-21 01:02:33.800,-0.294301621266,-0.160899021331,-0.188775544977,0.10257768631,-0.431940197945,-0.431001186371,-0.0588399,0.1569064,13.79795655,0.0,14.3980808258,8.21126651764,-4.63135194778,0.10257768631,-0.431940197945,-0.431001186371,-0.75,-38.2746696472,-156.748550415,72.80999374390001,3.2332587242300006,6.4082984924,-23.66319847106,-15.109019398733,-4.457974910740002,-0.3827457427999992
2018-07-21 01:02:33.850,-0.318796695539,-0.103144553693,-0.0936539371934,0.139706850052,-0.455406039953,-0.365497201681,0.2745862,0.34323275,16.3574922,0.0,14.3980808258,8.21126651764,-4.63135194778,0.10257768631,-0.431940197945,-0.431001186371,-0.329999983311,-63.5584831238,-155.28742981,60.096572875999996,0.9228000640900005,5.928554534900002,-22.48326730727,-15.590367436433,-4.077858924870002,-0.6355838776000002
2018-07-21 01:02:33.900,-0.318796695539,-0.103144553693,-0.0936539371934,0.139706850052,-0.455406039953,-0.365497201681,0.2745862,0.34323275,16.3574922,0.0,14.3980808258,8.21126651764,-4.63135194778,0.10257768631,-0.431940197945,-0.431001186371,-0.329999983311,-63.5584831238,-155.28742981,60.096572875999996,0.9228000640900005,5.928554534900002,-22.48326730727,-15.590367436433,-4.077858924870002,-0.6355838776000002
2018-07-21 01:02:33.950,-0.318796695539,-0.103144553693,-0.0936539371934,0.139706850052,-0.455406039953,-0.365497201681,0.2745862,0.34323275,16.3574922,0.0,15.2943220139,6.1079788208,-3.96648931503,0.139706850052,-0.455406039953,-0.365497201681,0.070000000298,-69.6505584717,-153.781677246,60.096572875999996,0.9327998161300002,5.958553314199996,-22.1021785736,-15.725093007133001,-3.966489315030002,-0.6965045929000002
2018-07-21 01:02:34.000,-0.318796695539,-0.103144553693,-0.0936539371934,0.139706850052,-0.455406039953,-0.365497201681,0.2745862,0.34323275,16.3574922,0.0,15.2943220139,6.1079788208,-3.96648931503,0.139706850052,-0.455406039953,-0.365497201681,0.070000000298,-69.6505584717,-153.781677246,60.096572875999996,1.4927997589100004,5.998554229699998,-21.49395942687,-15.914889454833,-3.7858924865700017,-0.6965045929000002
2018-07-21 01:02:34.050,-0.318796695539,-0.103144553693,-0.0936539371934,0.139706850052,-0.455406039953,-0.365497201681,0.2745862,0.34323275,16.3574922,0.0,15.2943220139,6.1079788208,-3.96648931503,0.139706850052,-0.455406039953,-0.365497201681,0.439999997616,-79.5887908936,-152.24760437,60.096572875999996,2.0027999877900005,6.038555145300002,-20.66596841811,-16.112399220432998,-3.539279460910002,-0.7958869933999981
2018-07-21 01:02:34.100,-0.318796695539,-0.103144553693,-0.0936539371934,0.139706850052,-0.455406039953,-0.365497201681,0.2745862,0.34323275,16.3574922,0.0,15.2943220139,6.1079788208,-3.96648931503,0.139706850052,-0.455406039953,-0.365497201681,0.769999980927,-89.1350708008,-150.685424805,60.096572875999996,1.9927997589100004,6.098556518599999,-20.05200195312,-16.237060666133,-3.345470905300002,-0.8913497924999998
2018-07-21 01:02:34.150,-0.318796695539,-0.103144553693,-0.0936539371934,0.139706850052,-0.455406039953,-0.365497201681,0.2745862,0.34323275,16.3574922,0.0,15.9014101028,3.47671055794,-3.16707730293,0.139706850052,-0.455406039953,-0.365497201681,0.769999980927,-89.1350708008,-150.685424805,60.096572875999996,2.43279981613,6.118553161599998,-19.68107247352,-16.307441830633,-3.236845970150002,-0.8913497924999998
2018-07-21 01:02:34.200,-0.318796695539,-0.103144553693,-0.0936539371934,0.139706850052,-0.455406039953,-0.365497201681,0.2745862,0.34323275,16.3574922,0.0,15.9014101028,3.47671055794,-3.16707730293,0.139706850052,-0.455406039953,-0.365497201681,0.769999980927,-89.1350708008,-150.685424805,60.096572875999996,2.4127998352000004,6.1385536194,-19.06484627723,-16.383148312533,-3.023467540740002,-0.8913497924999998
2018-07-21 01:02:34.250,-0.320315680623,-0.0377831360491,0.00561540325411,-0.148637533188,-0.449751883745,-0.383981019258,0.42168595,0.588399,16.19077915,0.0,15.9014101028,3.47671055794,-3.16707730293,0.139706850052,-0.455406039953,-0.365497201681,1.05999994278,-90.6865081787,-149.120605469,46.7799987793,-0.5916566848800002,7.2483253479,-18.6338751316,-16.432121396033,-2.8512225151100017,-0.9068641662999983
2018-07-21 01:02:34.300,-0.320315680623,-0.0377831360491,0.00561540325411,-0.148637533188,-0.449751883745,-0.383981019258,0.42168595,0.588399,16.19077915,0.0,15.9014101028,3.47671055794,-3.16707730293,0.139706850052,-0.455406039953,-0.365497201681,1.05999994278,-90.6865081787,-149.120605469,46.7799987793,-0.5916566848800002,7.258327484199995,-18.21467089652,-16.474498868033,-2.6851110458400016,-0.9068641662999983
2018-07-21 01:02:34.350,-0.320315680623,-0.0377831360491,0.00561540325411,-0.148637533188,-0.449751883745,-0.383981019258,0.42168595,0.588399,16.19077915,0.0,15.9014101028,3.47671055794,-3.16707730293,0.139706850052,-0.455406039953,-0.365497201681,1.31999993324,-107.115646362,-147.53616333,46.7799987793,-0.10165643691999993,7.268325805700002,-17.81685209274,-16.503784298933002,-2.539153814320002,-1.0711555481000001
2018-07-21 01:02:34.400,-0.320315680623,-0.0377831360491,0.00561540325411,-0.148637533188,-0.449751883745,-0.383981019258,0.42168595,0.588399,16.19077915,0.0,15.9014101028,3.47671055794,-3.16707730293,0.139706850052,-0.455406039953,-0.365497201681,1.31999993324,-107.115646362,-147.53616333,46.7799987793,-0.10165643691999993,7.278327941899995,-17.22279334068,-16.502266049433,-2.3442149162300017,-1.0711555481000001
2018-07-21 01:02:34.450,-0.320315680623,-0.0377831360491,0.00561540325411,-0.148637533188,-0.449751883745,-0.383981019258,0.42168595,0.588399,16.19077915,0.0,16.0615253448,1.02669918537,-2.27697634697,-0.148637533188,-0.449751883745,-0.383981019258,1.52999997139,-109.118942261,-145.949020386,46.7799987793,0.018343448639999593,7.278327941899995,-16.639898121349,-16.472309231733,-2.167161226270002,-1.0911884308000008
2018-07-21 01:02:34.500,-0.320315680623,-0.0377831360491,0.00561540325411,-0.148637533188,-0.449751883745,-0.383981019258,0.42168595,0.588399,16.19077915,0.0,16.0615253448,1.02669918537,-2.27697634697,-0.148637533188,-0.449751883745,-0.383981019258,1.52999997139,-109.118942261,-145.949020386,46.7799987793,0.018343448639999593,7.288326263499997,-16.452033519737,-16.456508755733,-2.115391492840002,-1.0911884308000008
2018-07-21 01:02:34.550,-0.320315680623,-0.0377831360491,0.00561540325411,-0.148637533188,-0.449751883745,-0.383981019258,0.42168595,0.588399,16.19077915,0.0,16.0615253448,1.02669918537,-2.27697634697,-0.148637533188,-0.449751883745,-0.383981019258,1.7199999094,-103.317352295,-144.359481812,46.7799987793,-0.0016565322900001789,7.288326263499997,-15.719471007578,-16.374746441833,-1.945148229600002,-1.0331726073999992
2018-07-21 01:02:34.600,-0.329596859061,0.00586891662865,0.102966289997,0.148544058204,-0.36903244257,-0.434542477131,0.0392266,0.36284605,13.9842829,0.0,16.0615253448,1.02669918537,-2.27697634697,-0.148637533188,-0.449751883745,-0.383981019258,1.7199999094,-103.317352295,-144.359481812,46.7799987793,0.008343696589999894,7.288326263499997,-15.362967193119001,-16.304805874833,-1.871129155160002,-1.0331726073999992
2018-07-21 01:02:34.650,-0.329596859061,0.00586891662865,0.102966289997,0.148544058204,-0.36903244257,-0.434542477131,0.0392266,0.36284605,13.9842829,0.0,15.7574481964,-1.15317904949,-1.78333008289,0.148544058204,-0.36903244257,-0.434542477131,1.87000000477,-100.866989136,-142.801361084,34.612113953000005,-1.0904552936499998,6.1119308472,-14.84102070331,-16.188219189633,-1.783330082890002,-1.0086688995999982
2018-07-21 01:02:34.700,-0.329596859061,0.00586891662865,0.102966289997,0.148544058204,-0.36903244257,-0.434542477131,0.0392266,0.36284605,13.9842829,0.0,15.7574481964,-1.15317904949,-1.78333008289,0.148544058204,-0.36903244257,-0.434542477131,1.87000000477,-100.866989136,-142.801361084,34.612113953000005,-1.0804550647699998,6.1119308472,-14.496670484540001,-16.097934842133,-1.736642837520002,-1.0086688995999982
2018-07-21 01:02:34.750,-0.329596859061,0.00586891662865,0.102966289997,0.148544058204,-0.36903244257,-0.434542477131,0.0392266,0.36284605,13.9842829,0.0,15.7574481964,-1.15317904949,-1.78333008289,0.148544058204,-0.36903244257,-0.434542477131,2.00999999046,-86.576171875,-141.249588013,34.612113953000005,-1.24045538902,4.141933441200003,-14.17228925227,-16.010650753933,-1.705765366550002,-0.8657608031999988
2018-07-21 01:02:34.800,-0.329596859061,0.00586891662865,0.102966289997,0.148544058204,-0.36903244257,-0.434542477131,0.0392266,0.36284605,13.9842829,0.0,15.7574481964,-1.15317904949,-1.78333008289,0.148544058204,-0.36903244257,-0.434542477131,2.00999999046,-86.576171875,-141.249588013,34.612113953000005,-1.24045538902,4.141933441200003,-14.17228925227,-16.010650753933,-1.705765366550002,-0.8657608031999988
2018-07-21 01:02:34.850,-0.329596859061,0.00586891662865,0.102966289997,0.148544058204,-0.36903244257,-0.434542477131,0.0392266,0.36284605,13.9842829,0.0,15.7574481964,-1.15317904949,-1.78333008289,0.148544058204,-0.36903244257,-0.434542477131,2.13999986649,-77.2551574707,-139.74609375,34.612113953000005,-1.4304554462399999,1.9319305420000035,-13.3654410839,-15.717623829833,-1.644947767260002,-0.7725505828999975
2018-07-21 01:02:34.900,-0.329596859061,0.00586891662865,0.102966289997,0.148544058204,-0.36903244257,-0.434542477131,0.0392266,0.36284605,13.9842829,0.0,15.0311384201,-3.21909379959,-1.65086913109,0.148544058204,-0.36903244257,-0.434542477131,2.13999986649,-77.2551574707,-139.74609375,34.612113953000005,-1.4304554462399999,1.9419326782000041,-13.059646368020001,-15.590685963633,-1.641807913780002,-0.7725505828999975
2018-07-21 01:02:34.950,-0.329596859061,0.00586891662865,0.102966289997,0.148544058204,-0.36903244257,-0.434542477131,0.0392266,0.36284605,13.9842829,0.0,15.0311384201,-3.21909379959,-1.65086913109,0.148544058204,-0.36903244257,-0.434542477131,2.25999999046,-72.5997009277,-138.258010864,34.612113953000005,-1.6304552555100003,-0.3480682372999979,-12.47763133048,-15.325126767133,-1.655679106710002,-0.7259960175
2018-07-21 01:02:35.000,-0.348455875595,0.0583516384323,0.20471616751,0.193796828389,-0.40190127492,-0.355374336243,-0.3334261,0.2941995,12.62115855,0.0,15.0311384201,-3.21909379959,-1.65086913109,0.148544058204,-0.36903244257,-0.434542477131,2.25999999046,-72.5997009277,-138.258010864,34.612113953000005,-1.6304552555100003,-0.3480682372999979,-12.18214321136,-15.161436200133,-1.648998498920002,-0.7259960175
2018-07-21 01:02:35.050,-0.348455875595,0.0583516384323,0.20471616751,0.193796828389,-0.40190127492,-0.355374336243,-0.3334261,0.2941995,12.62115855,0.0,15.0311384201,-3.21909379959,-1.65086913109,0.148544058204,-0.36903244257,-0.434542477131,2.38999986649,-82.0591888428,-136.843917847,21.500808715999995,-2.84896850586,-5.9370155334,-11.713790416710001,-14.904215931933,-1.607534050940002,-0.820590972899998
2018-07-21 01:02:35.100,-0.348455875595,0.0583516384323,0.20471616751,0.193796828389,-0.40190127492,-0.355374336243,-0.3334261,0.2941995,12.62115855,0.0,15.0311384201,-3.21909379959,-1.65086913109,0.148544058204,-0.36903244257,-0.434542477131,2.51999998093,-98.3513793945,-135.45362854,21.500808715999995,-2.62896823884,-9.017013549799998,-11.548787117,-14.811346173333,-1.586756944660002,-0.820590972899998
2018-07-21 01:02:35.150,-0.348455875595,0.0583516384323,0.20471616751,0.193796828389,-0.40190127492,-0.355374336243,-0.3334261,0.2941995,12.62115855,0.0,14.0188970566,-5.0675702095,-1.52611684799,0.193796828389,-0.40190127492,-0.355374336243,2.51999998093,-98.3513793945,-135.45362854,21.500808715999995,-2.62896823884,-9.017013549799998,-10.926629543299999,-14.449668049833,-1.526116847990002,-0.9835128784000009
2018-07-21 01:02:35.200,-0.348455875595,0.0583516384323,0.20471616751,0.193796828389,-0.40190127492,-0.355374336243,-0.3334261,0.2941995,12.62115855,0.0,14.0188970566,-5.0675702095,-1.52611684799,0.193796828389,-0.40190127492,-0.355374336243,2.51999998093,-98.3513793945,-135.45362854,21.500808715999995,-2.62896823884,-9.017013549799998,-10.43344020843,-14.122522473333001,-1.426469087600002,-0.9835128784000009
2018-07-21 01:02:35.250,-0.348455875595,0.0583516384323,0.20471616751,0.193796828389,-0.40190127492,-0.355374336243,-0.3334261,0.2941995,12.62115855,0.0,14.0188970566,-5.0675702095,-1.52611684799,0.193796828389,-0.40190127492,-0.355374336243,2.63999986649,-120.216278076,-134.120422363,21.500808715999995,-2.2789683341999996,-12.537014007500002,-10.069175720210001,-13.884751439133,-1.323005676270002,-1.2021617889999998
2018-07-21 01:02:35.300,-0.348455875595,0.0583516384323,0.20471616751,0.193796828389,-0.40190127492,-0.355374336243,-0.3334261,0.2941995,12.62115855,0.0,14.0188970566,-5.0675702095,-1.52611684799,0.193796828389,-0.40190127492,-0.355374336243,2.63999986649,-120.216278076,-134.120422363,21.500808715999995,-1.66896843911,-16.7670135498,-9.89002037048,-13.765551686333001,-1.277499198910002,-1.2021617889999998
2018-07-21 01:02:35.350,-0.348455875595,0.0583516384323,0.20471616751,0.193796828389,-0.40190127492,-0.355374336243,-0.3334261,0.2941995,12.62115855,0.0,14.0188970566,-5.0675702095,-1.52611684799,0.193796828389,-0.40190127492,-0.355374336243,2.74000000954,-153.469558716,-132.827056885,21.500808715999995,-1.66896843911,-16.7670135498,-9.22816896438,-13.300567746133,-1.099123954770002,-1.5346946715999987
2018-07-21 01:02:35.400,-0.334112205868,0.103973623334,0.290729134043,-0.186606183648,-0.376072317362,-0.403744697571,0.1765197,0.1569064,15.81812645,0.0,12.8697967529,-6.76603078842,-1.09912395477,0.193796828389,-0.40190127492,-0.355374336243,2.74000000954,-153.469558716,-132.827056885,10.033988953000005,-3.239171564576,-16.3916778565,-8.763093471520001,-12.911292195333,-0.980446994305002,-1.5346946715999987
2018-07-21 01:02:35.450,-0.334112205868,0.103973623334,0.290729134043,-0.186606183648,-0.376072317362,-0.403744697571,0.1765197,0.1569064,15.81812645,0.0,12.8697967529,-6.76603078842,-1.09912395477,0.193796828389,-0.40190127492,-0.355374336243,2.81999993324,-170.199295044,-131.607940674,10.033988953000005,-2.849171459676,-20.8416786194,-8.32093667983,-12.530314564733,-0.863727390766002,-1.7019920349
2018-07-21 01:02:35.500,-0.334112205868,0.103973623334,0.290729134043,-0.186606183648,-0.376072317362,-0.403744697571,0.1765197,0.1569064,15.81812645,0.0,12.8697967529,-6.76603078842,-1.09912395477,0.193796828389,-0.40190127492,-0.355374336243,2.87999987602,-174.868484497,-130.445892334,10.033988953000005,-2.549171507356,-25.341677665699997,-8.32093667983,-12.530314564733,-0.863727390766002,-1.7019920349
2018-07-21 01:02:35.550,-0.334112205868,0.103973623334,0.290729134043,-0.186606183648,-0.376072317362,-0.403744697571,0.1765197,0.1569064,15.81812645,0.0,12.8697967529,-6.76603078842,-1.09912395477,0.193796828389,-0.40190127492,-0.355374336243,2.87999987602,-174.868484497,-130.445892334,10.033988953000005,-2.559171497826,-25.341677665699997,-7.7849121093699996,-12.034803509733,-0.769782602787002,-1.7486839294999985
2018-07-21 01:02:35.600,-0.334112205868,0.103973623334,0.290729134043,-0.186606183648,-0.376072317362,-0.403744697571,0.1765197,0.1569064,15.81812645,0.0,12.8697967529,-6.76603078842,-1.09912395477,0.193796828389,-0.40190127492,-0.355374336243,2.87999987602,-174.868484497,-130.445892334,10.033988953000005,-2.559171497826,-25.341677665699997,-7.7849121093699996,-12.034803509733,-0.769782602787002,-1.7486839294999985
2018-07-21 01:02:35.650,-0.334112205868,0.103973623334,0.290729134043,-0.186606183648,-0.376072317362,-0.403744697571,0.1765197,0.1569064,15.81812645,0.0,11.0916051865,-8.65853881836,-0.706400215626,-0.186606183648,-0.376072317362,-0.403744697571,2.92999982834,-169.915679932,-129.349945068,10.033988953000005,-2.429171621796,-29.591677665699997,-7.33566093444,-11.522376179733001,-0.706400215626002,-1.6991558075000004
2018-07-21 01:02:35.700,-0.334112205868,0.103973623334,0.290729134043,-0.186606183648,-0.376072317362,-0.403744697571,0.1765197,0.1569064,15.81812645,0.0,11.0916051865,-8.65853881836,-0.706400215626,-0.186606183648,-0.376072317362,-0.403744697571,2.98000001907,-159.2318573,-128.311645508,10.033988953000005,-2.509171545506,-33.45167779926,-7.05298709869,-11.178526043933001,-0.696522593498002,-1.6991558075000004
2018-07-21 01:02:35.750,-0.334112205868,0.103973623334,0.290729134043,-0.186606183648,-0.376072317362,-0.403744697571,0.1765197,0.1569064,15.81812645,0.0,11.0916051865,-8.65853881836,-0.706400215626,-0.186606183648,-0.376072317362,-0.403744697571,2.98000001907,-159.2318573,-128.311645508,10.033988953000005,-2.529171526436,-33.45167779926,-6.6927833557100005,-10.696300625833,-0.679016649723002,-1.592317581199998
2018-07-21 01:02:35.800,-0.274465836595,0.128171516106,0.387173669742,-0.461722165346,-0.319139778614,-0.306893855333,-0.2941995,0.4314926,12.1994726,0.0,11.0916051865,-8.65853881836,-0.706400215626,-0.186606183648,-0.376072317362,-0.403744697571,2.98000001907,-159.2318573,-128.311645508,-2.1351776120000068,-3.69297152758,-27.751284122460003,-6.539191246030001,-10.457318425133,-0.658372402191002,-1.592317581199998
2018-07-21 01:02:35.850,-0.274465836595,0.128171516106,0.387173669742,-0.461722165346,-0.319139778614,-0.306893855333,-0.2941995,0.4314926,12.1994726,0.0,9.68431949615,-9.66889572144,-0.639309585094,-0.461722165346,-0.319139778614,-0.306893855333,3.00999999046,-143.350128174,-127.340049744,-2.1351776120000068,-3.81297141314,-31.46128392218,-6.3892288207900005,-10.219572186473,-0.640320241451002,-1.4335002898999978
2018-07-21 01:02:35.900,-0.274465836595,0.128171516106,0.387173669742,-0.461722165346,-0.319139778614,-0.306893855333,-0.2941995,0.4314926,12.1994726,0.0,9.68431949615,-9.66889572144,-0.639309585094,-0.461722165346,-0.319139778614,-0.306893855333,3.00999999046,-143.350128174,-127.340049744,-2.1351776120000068,-3.8529716134100003,-31.46128392218,-6.1939229965100004,-9.891172528263,-0.613362073898002,-1.4335002898999978
2018-07-21 01:02:35.950,-0.274465836595,0.128171516106,0.387173669742,-0.461722165346,-0.319139778614,-0.306893855333,-0.2941995,0.4314926,12.1994726,0.0,9.68431949615,-9.66889572144,-0.639309585094,-0.461722165346,-0.319139778614,-0.306893855333,3.00999999046,-143.350128174,-127.340049744,-2.1351776120000068,-3.8529716134100003,-31.46128392218,-6.1939229965100004,-9.891172528263,-0.613362073898002,-1.4335002898999978
2018-07-21 01:02:36.000,-0.274465836595,0.128171516106,0.387173669742,-0.461722165346,-0.319139778614,-0.306893855333,-0.2941995,0.4314926,12.1994726,0.0,9.68431949615,-9.66889572144,-0.639309585094,-0.461722165346,-0.319139778614,-0.306893855333,3.07999992371,-121.665664673,-125.555007935,-2.1351776120000068,-4.08297163248,-34.83128389715,-5.9171171188,-9.345878720283,-0.555471599102002,-1.2166557311999977
2018-07-21 01:02:36.050,-0.274465836595,0.128171516106,0.387173669742,-0.461722165346,-0.319139778614,-0.306893855333,-0.2941995,0.4314926,12.1994726,0.0,9.68431949615,-9.66889572144,-0.639309585094,-0.461722165346,-0.319139778614,-0.306893855333,3.07999992371,-121.665664673,-125.555007935,-2.1351776120000068,-4.33297163248,-37.85128378867,-5.7907485962,-9.050820469853,-0.529716610909002,-1.2166557311999977
2018-07-21 01:02:36.100,-0.274465836595,0.128171516106,0.387173669742,-0.461722165346,-0.319139778614,-0.306893855333,-0.2941995,0.4314926,12.1994726,0.0,9.68431949615,-9.66889572144,-0.639309585094,-0.461722165346,-0.319139778614,-0.306893855333,3.07999992371,-121.665664673,-125.555007935,-2.1351776120000068,-4.33297163248,-37.85128378867,-5.7907485962,-9.050820469853,-0.529716610909002,-1.2166557311999977
2018-07-21 01:02:36.150,-0.274465836595,0.128171516106,0.387173669742,-0.461722165346,-0.319139778614,-0.306893855333,-0.2941995,0.4314926,12.1994726,0.0,9.68431949615,-9.66889572144,-0.639309585094,-0.461722165346,-0.319139778614,-0.306893855333,3.09999990463,-110.178665161,-124.724967957,-2.1351776120000068,-4.74297171831,-40.531283855430004,-5.619859695400001,-8.649355053903001,-0.43301355838800193,-1.101785659799999
2018-07-21 01:02:36.200,-0.171252346591,0.114850730033,0.462930196106,-0.671783983707,-0.172006905079,-0.289902865887,-0.42168595,-0.08825985,11.87585315,0.0,8.21858406067,-10.3743400574,-0.433013558388,-0.461722165346,-0.319139778614,-0.306893855333,3.09999990463,-110.178665161,-124.724967957,-2.1351776120000068,-4.74297171831,-40.531283855430004,-5.619859695400001,-8.649355053903001,-0.43301355838800193,-1.101785659799999
2018-07-21 01:02:36.250,-0.171252346591,0.114850730033,0.462930196106,-0.671783983707,-0.172006905079,-0.289902865887,-0.42168595,-0.08825985,11.87585315,0.0,8.21858406067,-10.3743400574,-0.433013558388,-0.461722165346,-0.319139778614,-0.306893855333,3.09999990463,-96.3395080566,-123.953765869,-10.945617676000012,-6.711747407920001,-31.407914161649998,-5.468798637400001,-8.162023186683,-0.28563711047200196,-0.9633941651000004
